{
"type": "FeatureCollection",
"name": "Phường_Kim_Liên",
"crs": { "type": "name", "properties": { "name": "urn:ogc:def:crs:OGC:1.3:CRS84" } },
"features": [
{ "type": "Feature", "properties": { "id": 738813771, "name": "101A2 TT Trung Tự - Phạm Ngọc Thạch", "index_right": 42, "district": "Phường Kim Liên" }, "geometry": { "type": "Point", "coordinates": [ 105.8354536, 21.0098051 ] } },
{ "type": "Feature", "properties": { "id": 738813975, "name": "109 Phạm Ngọc Thạch", "index_right": 42, "district": "Phường Kim Liên" }, "geometry": { "type": "Point", "coordinates": [ 105.8330653, 21.0078404 ] } },
{ "type": "Feature", "properties": { "id": 738814010, "name": "Bệnh viện Da liễu Trung ương", "index_right": 42, "district": "Phường Kim Liên" }, "geometry": { "type": "Point", "coordinates": [ 105.8384895, 21.0039551 ] } },
{ "type": "Feature", "properties": { "id": 738814370, "name": "Siêu thị Uni mart - 8 Phạm Ngọc Thạch", "index_right": 42, "district": "Phường Kim Liên" }, "geometry": { "type": "Point", "coordinates": [ 105.8331123, 21.0075914 ] } },
{ "type": "Feature", "properties": { "id": 738814494, "name": "Bệnh viện Bạch Mai - 78 Giải Phóng", "index_right": 42, "district": "Phường Kim Liên" }, "geometry": { "type": "Point", "coordinates": [ 105.8411653, 21.0010995 ] } },
{ "type": "Feature", "properties": { "id": 738814514, "name": "251 Chùa Bộc", "index_right": 42, "district": "Phường Kim Liên" }, "geometry": { "type": "Point", "coordinates": [ 105.8256241, 21.0087021 ] } },
{ "type": "Feature", "properties": { "id": 738815257, "name": "Đối diện Bảo tàng phòng không không quân - Trường Chinh", "index_right": 42, "district": "Phường Kim Liên" }, "geometry": { "type": "Point", "coordinates": [ 105.8311593, 21.0002255 ] } },
{ "type": "Feature", "properties": { "id": 738815382, "name": "Ngân hàng GP Bank - số 7 Đào Duy Anh", "index_right": 42, "district": "Phường Kim Liên" }, "geometry": { "type": "Point", "coordinates": [ 105.8392867, 21.0079074 ] } },
{ "type": "Feature", "properties": { "id": 738815674, "name": "Đại Học Y Hà Nội - Đối diện 26 Tôn Thất Tùng", "index_right": 42, "district": "Phường Kim Liên" }, "geometry": { "type": "Point", "coordinates": [ 105.8297214, 21.0022055 ] } },
{ "type": "Feature", "properties": { "id": 738815806, "name": "19-21 Chùa Bộc", "index_right": 42, "district": "Phường Kim Liên" }, "geometry": { "type": "Point", "coordinates": [ 105.8302036, 21.0065834 ] } },
{ "type": "Feature", "properties": { "id": 738815825, "name": "B10 Tập thể Kim Liên (Đối diện ngõ 46B Phạm Ngọc Thạch)", "index_right": 42, "district": "Phường Kim Liên" }, "geometry": { "type": "Point", "coordinates": [ 105.8347727, 21.0090486 ] } },
{ "type": "Feature", "properties": { "id": 5485887885, "name": "Platform dành riêng cho xe buýt trước nhà 604 Trường Chinh", "index_right": 42, "district": "Phường Kim Liên" }, "geometry": { "type": "Point", "coordinates": [ 105.8217042, 21.002899 ] } },
{ "type": "Feature", "properties": { "id": 7608990478, "name": "10 Chùa Bộc - Học viện Ngân Hàng", "index_right": 42, "district": "Phường Kim Liên" }, "geometry": { "type": "Point", "coordinates": [ 105.8287956, 21.0074517 ] } },
{ "type": "Feature", "properties": { "id": 7629327424, "name": "Đại học Thuỷ Lợi - 175 Tây Sơn (cột trước)", "index_right": 42, "district": "Phường Kim Liên" }, "geometry": { "type": "Point", "coordinates": [ 105.823542, 21.007371 ] } },
{ "type": "Feature", "properties": { "id": 7824915632, "name": "114-115 E8 Phương Mai", "index_right": 42, "district": "Phường Kim Liên" }, "geometry": { "type": "Point", "coordinates": [ 105.8391003, 21.0041971 ] } },
{ "type": "Feature", "properties": { "id": 7824915633, "name": "116-C2 Lương Định Của", "index_right": 42, "district": "Phường Kim Liên" }, "geometry": { "type": "Point", "coordinates": [ 105.8358035, 21.0044765 ] } },
{ "type": "Feature", "properties": { "id": 7824915634, "name": "Trạm xử lý nước thải Kim Liên", "index_right": 42, "district": "Phường Kim Liên" }, "geometry": { "type": "Point", "coordinates": [ 105.8332277, 21.0059337 ] } },
{ "type": "Feature", "properties": { "id": 7824915645, "name": "Đại học Công Đoàn - 169 Tây Sơn", "index_right": 42, "district": "Phường Kim Liên" }, "geometry": { "type": "Point", "coordinates": [ 105.8251258, 21.0103765 ] } },
{ "type": "Feature", "properties": { "id": 8205232237, "name": "39 Đông Tác", "index_right": 42, "district": "Phường Kim Liên" }, "geometry": { "type": "Point", "coordinates": [ 105.834434, 21.0059306 ] } },
{ "type": "Feature", "properties": { "id": 8349461378, "name": "Trung tâm Văn hoá-Thể thao quận Đống Đa", "index_right": 42, "district": "Phường Kim Liên" }, "geometry": { "type": "Point", "coordinates": [ 105.8315416, 21.0089376 ] } },
{ "type": "Feature", "properties": { "id": 8349461379, "name": "101 Đặng Văn Ngữ", "index_right": 42, "district": "Phường Kim Liên" }, "geometry": { "type": "Point", "coordinates": [ 105.8322295, 21.0082038 ] } },
{ "type": "Feature", "properties": { "id": 8349461380, "name": "106D1 Đặng Văn Ngữ", "index_right": 42, "district": "Phường Kim Liên" }, "geometry": { "type": "Point", "coordinates": [ 105.8316269, 21.0117146 ] } },
{ "type": "Feature", "properties": { "id": 8349461381, "name": "20 Tôn Thất Tùng - Đối diện Đại học Y Hà Nội", "index_right": 42, "district": "Phường Kim Liên" }, "geometry": { "type": "Point", "coordinates": [ 105.8298601, 21.002855 ] } },
{ "type": "Feature", "properties": { "id": 8751624832, "name": "3C5 Lương Định Của", "index_right": 42, "district": "Phường Kim Liên" }, "geometry": { "type": "Point", "coordinates": [ 105.8356312, 21.0046186 ] } },
{ "type": "Feature", "properties": { "id": 8770739205, "name": "Đại học Thuỷ Lợi - 175 Tây Sơn (cột sau)", "index_right": 42, "district": "Phường Kim Liên" }, "geometry": { "type": "Point", "coordinates": [ 105.8237227, 21.0077521 ] } },
{ "type": "Feature", "properties": { "id": 8813408798, "name": "86 Trường Chinh", "index_right": 42, "district": "Phường Kim Liên" }, "geometry": { "type": "Point", "coordinates": [ 105.8384864, 20.998732 ] } },
{ "type": "Feature", "properties": { "id": 8895558438, "name": "Đối diện cổng Parabol ĐH Bách Khoa - 64 Giải Phóng", "index_right": 42, "district": "Phường Kim Liên" }, "geometry": { "type": "Point", "coordinates": [ 105.8411961, 21.004979 ] } },
{ "type": "Feature", "properties": { "id": 8900275036, "name": "71 Xã Đàn", "index_right": 42, "district": "Phường Kim Liên" }, "geometry": { "type": "Point", "coordinates": [ 105.8357557, 21.0123146 ] } },
{ "type": "Feature", "properties": { "id": 11527354914, "name": "88 Phạm Ngọc Thạch", "index_right": 42, "district": "Phường Kim Liên" }, "geometry": { "type": "Point", "coordinates": [ 105.8316649, 21.0067561 ] } }
]
}
