{
"type": "FeatureCollection",
"name": "Phường_Hoàng_Mai",
"crs": { "type": "name", "properties": { "name": "urn:ogc:def:crs:OGC:1.3:CRS84" } },
"features": [
{ "type": "Feature", "properties": { "id": 738814297, "name": "658 Trương Định", "index_right": 55, "district": "Phường Hoàng Mai" }, "geometry": { "type": "Point", "coordinates": [ 105.8452785, 20.9812412 ] } },
{ "type": "Feature", "properties": { "id": 738814297, "name": "658 Trương Định", "index_right": 56, "district": "Phường Hoàng Mai" }, "geometry": { "type": "Point", "coordinates": [ 105.8452785, 20.9812412 ] } },
{ "type": "Feature", "properties": { "id": 1755811863, "name": "Đối diện trụ sở Công an phường Hoàng Liệt - 1277 Giải Phóng", "index_right": 55, "district": "Phường Hoàng Mai" }, "geometry": { "type": "Point", "coordinates": [ 105.8412698, 20.971131 ] } },
{ "type": "Feature", "properties": { "id": 1755811863, "name": "Đối diện trụ sở Công an phường Hoàng Liệt - 1277 Giải Phóng", "index_right": 56, "district": "Phường Hoàng Mai" }, "geometry": { "type": "Point", "coordinates": [ 105.8412698, 20.971131 ] } },
{ "type": "Feature", "properties": { "id": 4405443689, "name": "Số 36 Kim Đồng", "index_right": 55, "district": "Phường Hoàng Mai" }, "geometry": { "type": "Point", "coordinates": [ 105.8444027, 20.9835325 ] } },
{ "type": "Feature", "properties": { "id": 4405443689, "name": "Số 36 Kim Đồng", "index_right": 56, "district": "Phường Hoàng Mai" }, "geometry": { "type": "Point", "coordinates": [ 105.8444027, 20.9835325 ] } },
{ "type": "Feature", "properties": { "id": 6606567072, "name": "773 Trương Định", "index_right": 55, "district": "Phường Hoàng Mai" }, "geometry": { "type": "Point", "coordinates": [ 105.8416857, 20.9770406 ] } },
{ "type": "Feature", "properties": { "id": 6606567072, "name": "773 Trương Định", "index_right": 56, "district": "Phường Hoàng Mai" }, "geometry": { "type": "Point", "coordinates": [ 105.8416857, 20.9770406 ] } },
{ "type": "Feature", "properties": { "id": 8741080048, "name": "Trường THPT Hoàng Văn Thụ", "index_right": 55, "district": "Phường Hoàng Mai" }, "geometry": { "type": "Point", "coordinates": [ 105.8773491, 20.9828471 ] } },
{ "type": "Feature", "properties": { "id": 8741080048, "name": "Trường THPT Hoàng Văn Thụ", "index_right": 56, "district": "Phường Hoàng Mai" }, "geometry": { "type": "Point", "coordinates": [ 105.8773491, 20.9828471 ] } },
{ "type": "Feature", "properties": { "id": 8741080049, "name": "376-378 Lĩnh Nam", "index_right": 55, "district": "Phường Hoàng Mai" }, "geometry": { "type": "Point", "coordinates": [ 105.8815064, 20.9811913 ] } },
{ "type": "Feature", "properties": { "id": 8741080049, "name": "376-378 Lĩnh Nam", "index_right": 56, "district": "Phường Hoàng Mai" }, "geometry": { "type": "Point", "coordinates": [ 105.8815064, 20.9811913 ] } },
{ "type": "Feature", "properties": { "id": 8741080050, "name": "Bưu Điện Trung Tâm 6 - 582 Lĩnh Nam", "index_right": 55, "district": "Phường Hoàng Mai" }, "geometry": { "type": "Point", "coordinates": [ 105.8856688, 20.9800789 ] } },
{ "type": "Feature", "properties": { "id": 8741080050, "name": "Bưu Điện Trung Tâm 6 - 582 Lĩnh Nam", "index_right": 56, "district": "Phường Hoàng Mai" }, "geometry": { "type": "Point", "coordinates": [ 105.8856688, 20.9800789 ] } },
{ "type": "Feature", "properties": { "id": 8741080051, "name": "Đình Nam Dư Hạ - Đường dẫn cầu Thanh Trì", "index_right": 55, "district": "Phường Hoàng Mai" }, "geometry": { "type": "Point", "coordinates": [ 105.8861511, 20.9767677 ] } },
{ "type": "Feature", "properties": { "id": 8741080051, "name": "Đình Nam Dư Hạ - Đường dẫn cầu Thanh Trì", "index_right": 56, "district": "Phường Hoàng Mai" }, "geometry": { "type": "Point", "coordinates": [ 105.8861511, 20.9767677 ] } },
{ "type": "Feature", "properties": { "id": 8741080052, "name": "Chùa Khuyến Lương", "index_right": 55, "district": "Phường Hoàng Mai" }, "geometry": { "type": "Point", "coordinates": [ 105.8811566, 20.9729178 ] } },
{ "type": "Feature", "properties": { "id": 8741080052, "name": "Chùa Khuyến Lương", "index_right": 56, "district": "Phường Hoàng Mai" }, "geometry": { "type": "Point", "coordinates": [ 105.8811566, 20.9729178 ] } },
{ "type": "Feature", "properties": { "id": 8741080059, "name": "Số nhà 43 - Tổ 14 - Phường Yên Sở - Đường dẫn cầu Thanh Trì", "index_right": 55, "district": "Phường Hoàng Mai" }, "geometry": { "type": "Point", "coordinates": [ 105.8750546, 20.9658833 ] } },
{ "type": "Feature", "properties": { "id": 8741080059, "name": "Số nhà 43 - Tổ 14 - Phường Yên Sở - Đường dẫn cầu Thanh Trì", "index_right": 56, "district": "Phường Hoàng Mai" }, "geometry": { "type": "Point", "coordinates": [ 105.8750546, 20.9658833 ] } },
{ "type": "Feature", "properties": { "id": 8741080060, "name": "Số nhà 30 Yên Sở, Phường Yên Sở", "index_right": 55, "district": "Phường Hoàng Mai" }, "geometry": { "type": "Point", "coordinates": [ 105.8676523, 20.9645226 ] } },
{ "type": "Feature", "properties": { "id": 8741080060, "name": "Số nhà 30 Yên Sở, Phường Yên Sở", "index_right": 56, "district": "Phường Hoàng Mai" }, "geometry": { "type": "Point", "coordinates": [ 105.8676523, 20.9645226 ] } },
{ "type": "Feature", "properties": { "id": 8741080061, "name": "Đối diện Công Viên Yên Sở, Hoàng Mai", "index_right": 55, "district": "Phường Hoàng Mai" }, "geometry": { "type": "Point", "coordinates": [ 105.8523114, 20.965803 ] } },
{ "type": "Feature", "properties": { "id": 8741080061, "name": "Đối diện Công Viên Yên Sở, Hoàng Mai", "index_right": 56, "district": "Phường Hoàng Mai" }, "geometry": { "type": "Point", "coordinates": [ 105.8523114, 20.965803 ] } },
{ "type": "Feature", "properties": { "id": 8741080062, "name": "Qua lối rẽ khu hành chính quận Hoàng Mai - đường Đỗ Mười", "index_right": 55, "district": "Phường Hoàng Mai" }, "geometry": { "type": "Point", "coordinates": [ 105.8447357, 20.9660284 ] } },
{ "type": "Feature", "properties": { "id": 8741080062, "name": "Qua lối rẽ khu hành chính quận Hoàng Mai - đường Đỗ Mười", "index_right": 56, "district": "Phường Hoàng Mai" }, "geometry": { "type": "Point", "coordinates": [ 105.8447357, 20.9660284 ] } },
{ "type": "Feature", "properties": { "id": 8766627148, "name": "Điểm đỗ xe buýt Mai Động", "index_right": 55, "district": "Phường Hoàng Mai" }, "geometry": { "type": "Point", "coordinates": [ 105.8638519, 20.9806859 ] } },
{ "type": "Feature", "properties": { "id": 8766627148, "name": "Điểm đỗ xe buýt Mai Động", "index_right": 56, "district": "Phường Hoàng Mai" }, "geometry": { "type": "Point", "coordinates": [ 105.8638519, 20.9806859 ] } },
{ "type": "Feature", "properties": { "id": 8772715669, "name": "Đối diện Trường THCS Tân Mai", "index_right": 55, "district": "Phường Hoàng Mai" }, "geometry": { "type": "Point", "coordinates": [ 105.8489719, 20.9835458 ] } },
{ "type": "Feature", "properties": { "id": 8772715669, "name": "Đối diện Trường THCS Tân Mai", "index_right": 56, "district": "Phường Hoàng Mai" }, "geometry": { "type": "Point", "coordinates": [ 105.8489719, 20.9835458 ] } },
{ "type": "Feature", "properties": { "id": 8772715671, "name": "Đối diện Công viên Hồ Đền Lừ", "index_right": 55, "district": "Phường Hoàng Mai" }, "geometry": { "type": "Point", "coordinates": [ 105.8535644, 20.9834401 ] } },
{ "type": "Feature", "properties": { "id": 8772715671, "name": "Đối diện Công viên Hồ Đền Lừ", "index_right": 56, "district": "Phường Hoàng Mai" }, "geometry": { "type": "Point", "coordinates": [ 105.8535644, 20.9834401 ] } },
{ "type": "Feature", "properties": { "id": 8772715674, "name": "Chợ đầu mối phía Nam", "index_right": 55, "district": "Phường Hoàng Mai" }, "geometry": { "type": "Point", "coordinates": [ 105.8622913, 20.9835491 ] } },
{ "type": "Feature", "properties": { "id": 8772715674, "name": "Chợ đầu mối phía Nam", "index_right": 56, "district": "Phường Hoàng Mai" }, "geometry": { "type": "Point", "coordinates": [ 105.8622913, 20.9835491 ] } },
{ "type": "Feature", "properties": { "id": 8846358764, "name": "Tòa nhà Nam Hải Lakeview", "index_right": 55, "district": "Phường Hoàng Mai" }, "geometry": { "type": "Point", "coordinates": [ 105.8668214, 20.9835681 ] } },
{ "type": "Feature", "properties": { "id": 8846358764, "name": "Tòa nhà Nam Hải Lakeview", "index_right": 56, "district": "Phường Hoàng Mai" }, "geometry": { "type": "Point", "coordinates": [ 105.8668214, 20.9835681 ] } },
{ "type": "Feature", "properties": { "id": 9964374558, "name": "Bến xe Giáp Bát", "index_right": 55, "district": "Phường Hoàng Mai" }, "geometry": { "type": "Point", "coordinates": [ 105.8415516, 20.9805184 ] } },
{ "type": "Feature", "properties": { "id": 9964374558, "name": "Bến xe Giáp Bát", "index_right": 56, "district": "Phường Hoàng Mai" }, "geometry": { "type": "Point", "coordinates": [ 105.8415516, 20.9805184 ] } },
{ "type": "Feature", "properties": { "id": 10021901778, "name": "Bến xe Giáp Bát", "index_right": 55, "district": "Phường Hoàng Mai" }, "geometry": { "type": "Point", "coordinates": [ 105.841241, 20.9805285 ] } },
{ "type": "Feature", "properties": { "id": 10021901778, "name": "Bến xe Giáp Bát", "index_right": 56, "district": "Phường Hoàng Mai" }, "geometry": { "type": "Point", "coordinates": [ 105.841241, 20.9805285 ] } },
{ "type": "Feature", "properties": { "id": 10021901779, "name": "Bến xe Giáp Bát", "index_right": 55, "district": "Phường Hoàng Mai" }, "geometry": { "type": "Point", "coordinates": [ 105.84124, 20.9804744 ] } },
{ "type": "Feature", "properties": { "id": 10021901779, "name": "Bến xe Giáp Bát", "index_right": 56, "district": "Phường Hoàng Mai" }, "geometry": { "type": "Point", "coordinates": [ 105.84124, 20.9804744 ] } },
{ "type": "Feature", "properties": { "id": 10021901780, "name": "Bến xe Giáp Bát", "index_right": 55, "district": "Phường Hoàng Mai" }, "geometry": { "type": "Point", "coordinates": [ 105.8413713, 20.9803326 ] } },
{ "type": "Feature", "properties": { "id": 10021901780, "name": "Bến xe Giáp Bát", "index_right": 56, "district": "Phường Hoàng Mai" }, "geometry": { "type": "Point", "coordinates": [ 105.8413713, 20.9803326 ] } },
{ "type": "Feature", "properties": { "id": 10021901781, "name": "Bến xe Giáp Bát", "index_right": 55, "district": "Phường Hoàng Mai" }, "geometry": { "type": "Point", "coordinates": [ 105.8413748, 20.9804704 ] } },
{ "type": "Feature", "properties": { "id": 10021901781, "name": "Bến xe Giáp Bát", "index_right": 56, "district": "Phường Hoàng Mai" }, "geometry": { "type": "Point", "coordinates": [ 105.8413748, 20.9804704 ] } },
{ "type": "Feature", "properties": { "id": 11514018113, "name": "609 Trương Định - Công ty Cơ khí 120", "index_right": 55, "district": "Phường Hoàng Mai" }, "geometry": { "type": "Point", "coordinates": [ 105.8450999, 20.980832 ] } },
{ "type": "Feature", "properties": { "id": 11514018113, "name": "609 Trương Định - Công ty Cơ khí 120", "index_right": 56, "district": "Phường Hoàng Mai" }, "geometry": { "type": "Point", "coordinates": [ 105.8450999, 20.980832 ] } },
{ "type": "Feature", "properties": { "id": 11522073220, "name": "Khu đô thị Gamuda - Tuyến 30", "index_right": 55, "district": "Phường Hoàng Mai" }, "geometry": { "type": "Point", "coordinates": [ 105.87967, 20.9729018 ] } },
{ "type": "Feature", "properties": { "id": 11522073220, "name": "Khu đô thị Gamuda - Tuyến 30", "index_right": 56, "district": "Phường Hoàng Mai" }, "geometry": { "type": "Point", "coordinates": [ 105.87967, 20.9729018 ] } },
{ "type": "Feature", "properties": { "id": 11522073221, "name": "Đối diện nhà CT2 - KĐT Gamuda", "index_right": 55, "district": "Phường Hoàng Mai" }, "geometry": { "type": "Point", "coordinates": [ 105.877193, 20.9704369 ] } },
{ "type": "Feature", "properties": { "id": 11522073221, "name": "Đối diện nhà CT2 - KĐT Gamuda", "index_right": 56, "district": "Phường Hoàng Mai" }, "geometry": { "type": "Point", "coordinates": [ 105.877193, 20.9704369 ] } },
{ "type": "Feature", "properties": { "id": 11522073222, "name": "Khu SD77 - KĐT Gamuda", "index_right": 55, "district": "Phường Hoàng Mai" }, "geometry": { "type": "Point", "coordinates": [ 105.8721171, 20.9724683 ] } },
{ "type": "Feature", "properties": { "id": 11522073222, "name": "Khu SD77 - KĐT Gamuda", "index_right": 56, "district": "Phường Hoàng Mai" }, "geometry": { "type": "Point", "coordinates": [ 105.8721171, 20.9724683 ] } },
{ "type": "Feature", "properties": { "id": 11522073223, "name": "Đối diện tòa CT1 Gelexia Riverside", "index_right": 55, "district": "Phường Hoàng Mai" }, "geometry": { "type": "Point", "coordinates": [ 105.8675781, 20.9765304 ] } },
{ "type": "Feature", "properties": { "id": 11522073223, "name": "Đối diện tòa CT1 Gelexia Riverside", "index_right": 56, "district": "Phường Hoàng Mai" }, "geometry": { "type": "Point", "coordinates": [ 105.8675781, 20.9765304 ] } },
{ "type": "Feature", "properties": { "id": 11522073224, "name": "595 Tam Trinh", "index_right": 55, "district": "Phường Hoàng Mai" }, "geometry": { "type": "Point", "coordinates": [ 105.8650512, 20.978954 ] } },
{ "type": "Feature", "properties": { "id": 11522073224, "name": "595 Tam Trinh", "index_right": 56, "district": "Phường Hoàng Mai" }, "geometry": { "type": "Point", "coordinates": [ 105.8650512, 20.978954 ] } },
{ "type": "Feature", "properties": { "id": 11522294666, "name": "Đối diện 559 Tam Trinh", "index_right": 55, "district": "Phường Hoàng Mai" }, "geometry": { "type": "Point", "coordinates": [ 105.8646242, 20.9798913 ] } },
{ "type": "Feature", "properties": { "id": 11522294666, "name": "Đối diện 559 Tam Trinh", "index_right": 56, "district": "Phường Hoàng Mai" }, "geometry": { "type": "Point", "coordinates": [ 105.8646242, 20.9798913 ] } },
{ "type": "Feature", "properties": { "id": 11522294667, "name": "Tòa CT1 Gelexia Riverside", "index_right": 55, "district": "Phường Hoàng Mai" }, "geometry": { "type": "Point", "coordinates": [ 105.8678267, 20.976345 ] } },
{ "type": "Feature", "properties": { "id": 11522294667, "name": "Tòa CT1 Gelexia Riverside", "index_right": 56, "district": "Phường Hoàng Mai" }, "geometry": { "type": "Point", "coordinates": [ 105.8678267, 20.976345 ] } },
{ "type": "Feature", "properties": { "id": 11522294668, "name": "Đối diện Khu SD77 - KĐT Gamuda", "index_right": 55, "district": "Phường Hoàng Mai" }, "geometry": { "type": "Point", "coordinates": [ 105.8719177, 20.9724202 ] } },
{ "type": "Feature", "properties": { "id": 11522294668, "name": "Đối diện Khu SD77 - KĐT Gamuda", "index_right": 56, "district": "Phường Hoàng Mai" }, "geometry": { "type": "Point", "coordinates": [ 105.8719177, 20.9724202 ] } },
{ "type": "Feature", "properties": { "id": 11522308669, "name": "Nhà CT2 - KĐT Gamuda", "index_right": 55, "district": "Phường Hoàng Mai" }, "geometry": { "type": "Point", "coordinates": [ 105.8774097, 20.9703324 ] } },
{ "type": "Feature", "properties": { "id": 11522308669, "name": "Nhà CT2 - KĐT Gamuda", "index_right": 56, "district": "Phường Hoàng Mai" }, "geometry": { "type": "Point", "coordinates": [ 105.8774097, 20.9703324 ] } },
{ "type": "Feature", "properties": { "id": 11684178758, "name": "Bến xe Giáp Bát", "index_right": 55, "district": "Phường Hoàng Mai" }, "geometry": { "type": "Point", "coordinates": [ 105.8412391, 20.9804259 ] } },
{ "type": "Feature", "properties": { "id": 11684178758, "name": "Bến xe Giáp Bát", "index_right": 56, "district": "Phường Hoàng Mai" }, "geometry": { "type": "Point", "coordinates": [ 105.8412391, 20.9804259 ] } },
{ "type": "Feature", "properties": { "id": 11684178759, "name": "Bến xe Giáp Bát", "index_right": 55, "district": "Phường Hoàng Mai" }, "geometry": { "type": "Point", "coordinates": [ 105.8413776, 20.9805822 ] } },
{ "type": "Feature", "properties": { "id": 11684178759, "name": "Bến xe Giáp Bát", "index_right": 56, "district": "Phường Hoàng Mai" }, "geometry": { "type": "Point", "coordinates": [ 105.8413776, 20.9805822 ] } },
{ "type": "Feature", "properties": { "id": 11684178760, "name": "Bến xe Giáp Bát", "index_right": 55, "district": "Phường Hoàng Mai" }, "geometry": { "type": "Point", "coordinates": [ 105.8413643, 20.980059 ] } },
{ "type": "Feature", "properties": { "id": 11684178760, "name": "Bến xe Giáp Bát", "index_right": 56, "district": "Phường Hoàng Mai" }, "geometry": { "type": "Point", "coordinates": [ 105.8413643, 20.980059 ] } },
{ "type": "Feature", "properties": { "id": 11684178761, "name": "Bến xe Giáp Bát", "index_right": 55, "district": "Phường Hoàng Mai" }, "geometry": { "type": "Point", "coordinates": [ 105.8412421, 20.9805847 ] } },
{ "type": "Feature", "properties": { "id": 11684178761, "name": "Bến xe Giáp Bát", "index_right": 56, "district": "Phường Hoàng Mai" }, "geometry": { "type": "Point", "coordinates": [ 105.8412421, 20.9805847 ] } },
{ "type": "Feature", "properties": { "id": 11684178762, "name": "Bến xe Giáp Bát", "index_right": 55, "district": "Phường Hoàng Mai" }, "geometry": { "type": "Point", "coordinates": [ 105.841479, 20.9805803 ] } },
{ "type": "Feature", "properties": { "id": 11684178762, "name": "Bến xe Giáp Bát", "index_right": 56, "district": "Phường Hoàng Mai" }, "geometry": { "type": "Point", "coordinates": [ 105.841479, 20.9805803 ] } },
{ "type": "Feature", "properties": { "id": 11684178763, "name": "Bến xe Giáp Bát", "index_right": 55, "district": "Phường Hoàng Mai" }, "geometry": { "type": "Point", "coordinates": [ 105.8414733, 20.9803326 ] } },
{ "type": "Feature", "properties": { "id": 11684178763, "name": "Bến xe Giáp Bát", "index_right": 56, "district": "Phường Hoàng Mai" }, "geometry": { "type": "Point", "coordinates": [ 105.8414733, 20.9803326 ] } },
{ "type": "Feature", "properties": { "id": 11684178764, "name": "Bến xe Giáp Bát", "index_right": 55, "district": "Phường Hoàng Mai" }, "geometry": { "type": "Point", "coordinates": [ 105.8414697, 20.9801753 ] } },
{ "type": "Feature", "properties": { "id": 11684178764, "name": "Bến xe Giáp Bát", "index_right": 56, "district": "Phường Hoàng Mai" }, "geometry": { "type": "Point", "coordinates": [ 105.8414697, 20.9801753 ] } },
{ "type": "Feature", "properties": { "id": 11684178765, "name": "Bến xe Giáp Bát", "index_right": 55, "district": "Phường Hoàng Mai" }, "geometry": { "type": "Point", "coordinates": [ 105.841467, 20.9800594 ] } },
{ "type": "Feature", "properties": { "id": 11684178765, "name": "Bến xe Giáp Bát", "index_right": 56, "district": "Phường Hoàng Mai" }, "geometry": { "type": "Point", "coordinates": [ 105.841467, 20.9800594 ] } },
{ "type": "Feature", "properties": { "id": 11684178766, "name": "Bến xe Giáp Bát", "index_right": 55, "district": "Phường Hoàng Mai" }, "geometry": { "type": "Point", "coordinates": [ 105.8415473, 20.9803328 ] } },
{ "type": "Feature", "properties": { "id": 11684178766, "name": "Bến xe Giáp Bát", "index_right": 56, "district": "Phường Hoàng Mai" }, "geometry": { "type": "Point", "coordinates": [ 105.8415473, 20.9803328 ] } },
{ "type": "Feature", "properties": { "id": 11968782791, "name": "Bến xe Giáp Bát", "index_right": 55, "district": "Phường Hoàng Mai" }, "geometry": { "type": "Point", "coordinates": [ 105.8412383, 20.9803806 ] } },
{ "type": "Feature", "properties": { "id": 11968782791, "name": "Bến xe Giáp Bát", "index_right": 56, "district": "Phường Hoàng Mai" }, "geometry": { "type": "Point", "coordinates": [ 105.8412383, 20.9803806 ] } },
{ "type": "Feature", "properties": { "id": 11968782792, "name": "Bến xe Giáp Bát", "index_right": 55, "district": "Phường Hoàng Mai" }, "geometry": { "type": "Point", "coordinates": [ 105.8412374, 20.9803323 ] } },
{ "type": "Feature", "properties": { "id": 11968782792, "name": "Bến xe Giáp Bát", "index_right": 56, "district": "Phường Hoàng Mai" }, "geometry": { "type": "Point", "coordinates": [ 105.8412374, 20.9803323 ] } },
{ "type": "Feature", "properties": { "id": 11968782793, "name": "Bến xe Giáp Bát", "index_right": 55, "district": "Phường Hoàng Mai" }, "geometry": { "type": "Point", "coordinates": [ 105.8412364, 20.9802818 ] } },
{ "type": "Feature", "properties": { "id": 11968782793, "name": "Bến xe Giáp Bát", "index_right": 56, "district": "Phường Hoàng Mai" }, "geometry": { "type": "Point", "coordinates": [ 105.8412364, 20.9802818 ] } },
{ "type": "Feature", "properties": { "id": 11968782794, "name": "Bến xe Giáp Bát", "index_right": 55, "district": "Phường Hoàng Mai" }, "geometry": { "type": "Point", "coordinates": [ 105.8413673, 20.9801783 ] } },
{ "type": "Feature", "properties": { "id": 11968782794, "name": "Bến xe Giáp Bát", "index_right": 56, "district": "Phường Hoàng Mai" }, "geometry": { "type": "Point", "coordinates": [ 105.8413673, 20.9801783 ] } },
{ "type": "Feature", "properties": { "id": 11968782795, "name": "Bến xe Giáp Bát", "index_right": 55, "district": "Phường Hoàng Mai" }, "geometry": { "type": "Point", "coordinates": [ 105.841541, 20.9800595 ] } },
{ "type": "Feature", "properties": { "id": 11968782795, "name": "Bến xe Giáp Bát", "index_right": 56, "district": "Phường Hoàng Mai" }, "geometry": { "type": "Point", "coordinates": [ 105.841541, 20.9800595 ] } },
{ "type": "Feature", "properties": { "id": 11968782796, "name": "Bến xe Giáp Bát", "index_right": 55, "district": "Phường Hoàng Mai" }, "geometry": { "type": "Point", "coordinates": [ 105.8415436, 20.9801732 ] } },
{ "type": "Feature", "properties": { "id": 11968782796, "name": "Bến xe Giáp Bát", "index_right": 56, "district": "Phường Hoàng Mai" }, "geometry": { "type": "Point", "coordinates": [ 105.8415436, 20.9801732 ] } },
{ "type": "Feature", "properties": { "id": 12269209851, "name": "Bến xe Giáp Bát", "index_right": 55, "district": "Phường Hoàng Mai" }, "geometry": { "type": "Point", "coordinates": [ 105.8414764, 20.9804674 ] } },
{ "type": "Feature", "properties": { "id": 12269209851, "name": "Bến xe Giáp Bát", "index_right": 56, "district": "Phường Hoàng Mai" }, "geometry": { "type": "Point", "coordinates": [ 105.8414764, 20.9804674 ] } },
{ "type": "Feature", "properties": { "id": 12269209865, "name": "Bến xe Giáp Bát", "index_right": 55, "district": "Phường Hoàng Mai" }, "geometry": { "type": "Point", "coordinates": [ 105.8412355, 20.9802328 ] } },
{ "type": "Feature", "properties": { "id": 12269209865, "name": "Bến xe Giáp Bát", "index_right": 56, "district": "Phường Hoàng Mai" }, "geometry": { "type": "Point", "coordinates": [ 105.8412355, 20.9802328 ] } },
{ "type": "Feature", "properties": { "id": 12270506435, "name": "Bến xe Giáp Bát", "index_right": 55, "district": "Phường Hoàng Mai" }, "geometry": { "type": "Point", "coordinates": [ 105.8412346, 20.9801821 ] } },
{ "type": "Feature", "properties": { "id": 12270506435, "name": "Bến xe Giáp Bát", "index_right": 56, "district": "Phường Hoàng Mai" }, "geometry": { "type": "Point", "coordinates": [ 105.8412346, 20.9801821 ] } },
{ "type": "Feature", "properties": { "id": 12270506436, "name": "Bến xe Giáp Bát", "index_right": 55, "district": "Phường Hoàng Mai" }, "geometry": { "type": "Point", "coordinates": [ 105.8412337, 20.9801363 ] } },
{ "type": "Feature", "properties": { "id": 12270506436, "name": "Bến xe Giáp Bát", "index_right": 56, "district": "Phường Hoàng Mai" }, "geometry": { "type": "Point", "coordinates": [ 105.8412337, 20.9801363 ] } },
{ "type": "Feature", "properties": { "id": 12511818444, "name": "Đối diện UBND Quận Hoàng Mai - Phố Bùi Huy Bích", "index_right": 55, "district": "Phường Hoàng Mai" }, "geometry": { "type": "Point", "coordinates": [ 105.8492909, 20.9683179 ] } },
{ "type": "Feature", "properties": { "id": 12511818444, "name": "Đối diện UBND Quận Hoàng Mai - Phố Bùi Huy Bích", "index_right": 56, "district": "Phường Hoàng Mai" }, "geometry": { "type": "Point", "coordinates": [ 105.8492909, 20.9683179 ] } },
{ "type": "Feature", "properties": { "id": 12511818445, "name": "Đối diện chung cư CC2 - đường KĐT Đồng Tàu", "index_right": 55, "district": "Phường Hoàng Mai" }, "geometry": { "type": "Point", "coordinates": [ 105.8501376, 20.9707315 ] } },
{ "type": "Feature", "properties": { "id": 12511818445, "name": "Đối diện chung cư CC2 - đường KĐT Đồng Tàu", "index_right": 56, "district": "Phường Hoàng Mai" }, "geometry": { "type": "Point", "coordinates": [ 105.8501376, 20.9707315 ] } },
{ "type": "Feature", "properties": { "id": 12511818446, "name": "Đối diện KĐT Ao Sào - đường KĐT Đồng Tàu", "index_right": 55, "district": "Phường Hoàng Mai" }, "geometry": { "type": "Point", "coordinates": [ 105.8527514, 20.9737249 ] } },
{ "type": "Feature", "properties": { "id": 12511818446, "name": "Đối diện KĐT Ao Sào - đường KĐT Đồng Tàu", "index_right": 56, "district": "Phường Hoàng Mai" }, "geometry": { "type": "Point", "coordinates": [ 105.8527514, 20.9737249 ] } },
{ "type": "Feature", "properties": { "id": 12511818447, "name": "KĐT Ao Sào - đường KĐT Đồng Tàu", "index_right": 55, "district": "Phường Hoàng Mai" }, "geometry": { "type": "Point", "coordinates": [ 105.8530367, 20.9741739 ] } },
{ "type": "Feature", "properties": { "id": 12511818447, "name": "KĐT Ao Sào - đường KĐT Đồng Tàu", "index_right": 56, "district": "Phường Hoàng Mai" }, "geometry": { "type": "Point", "coordinates": [ 105.8530367, 20.9741739 ] } },
{ "type": "Feature", "properties": { "id": 12511818448, "name": "Gần chung cư CC2 - đường KĐT Đồng Tàu", "index_right": 55, "district": "Phường Hoàng Mai" }, "geometry": { "type": "Point", "coordinates": [ 105.8498257, 20.9706366 ] } },
{ "type": "Feature", "properties": { "id": 12511818448, "name": "Gần chung cư CC2 - đường KĐT Đồng Tàu", "index_right": 56, "district": "Phường Hoàng Mai" }, "geometry": { "type": "Point", "coordinates": [ 105.8498257, 20.9706366 ] } },
{ "type": "Feature", "properties": { "id": 12511818449, "name": "Đối diện Tòa án Quận Hoàng Mai - Ngõ 6 Bùi Huy Bích", "index_right": 55, "district": "Phường Hoàng Mai" }, "geometry": { "type": "Point", "coordinates": [ 105.8466212, 20.9688445 ] } },
{ "type": "Feature", "properties": { "id": 12511818449, "name": "Đối diện Tòa án Quận Hoàng Mai - Ngõ 6 Bùi Huy Bích", "index_right": 56, "district": "Phường Hoàng Mai" }, "geometry": { "type": "Point", "coordinates": [ 105.8466212, 20.9688445 ] } }
]
}
