{
"type": "FeatureCollection",
"name": "Phường_Đống_Đa",
"crs": { "type": "name", "properties": { "name": "urn:ogc:def:crs:OGC:1.3:CRS84" } },
"features": [
{ "type": "Feature", "properties": { "id": 446044133, "name": "253 Xã Đàn", "index_right": 45, "district": "Phường Đống Đa" }, "geometry": { "type": "Point", "coordinates": [ 105.83099, 21.0169716 ] } },
{ "type": "Feature", "properties": { "id": 738813601, "name": "Gò Đống Đa - Tây Sơn", "index_right": 45, "district": "Phường Đống Đa" }, "geometry": { "type": "Point", "coordinates": [ 105.8253791, 21.0112117 ] } },
{ "type": "Feature", "properties": { "id": 738813645, "name": "Đối diện 498 Đường Láng", "index_right": 45, "district": "Phường Đống Đa" }, "geometry": { "type": "Point", "coordinates": [ 105.8118172, 21.0101334 ] } },
{ "type": "Feature", "properties": { "id": 738813861, "name": "59 Hoàng Cầu", "index_right": 45, "district": "Phường Đống Đa" }, "geometry": { "type": "Point", "coordinates": [ 105.8242683, 21.0176241 ] } },
{ "type": "Feature", "properties": { "id": 738814080, "name": "196 Thái Thịnh", "index_right": 45, "district": "Phường Đống Đa" }, "geometry": { "type": "Point", "coordinates": [ 105.8151983, 21.013757 ] } },
{ "type": "Feature", "properties": { "id": 738814398, "name": "3 Thái Hà - Bể bơi Thái Hà", "index_right": 45, "district": "Phường Đống Đa" }, "geometry": { "type": "Point", "coordinates": [ 105.8229433, 21.0100085 ] } },
{ "type": "Feature", "properties": { "id": 738814463, "name": "Đối diện 105 Đặng Tiến Đông", "index_right": 45, "district": "Phường Đống Đa" }, "geometry": { "type": "Point", "coordinates": [ 105.8239248, 21.0120606 ] } },
{ "type": "Feature", "properties": { "id": 738814480, "name": "122 Thái Thịnh", "index_right": 45, "district": "Phường Đống Đa" }, "geometry": { "type": "Point", "coordinates": [ 105.8175811, 21.011604 ] } },
{ "type": "Feature", "properties": { "id": 738814515, "name": "Trạm biến áp F3 Thành Công - 171 Thái Hà", "index_right": 45, "district": "Phường Đống Đa" }, "geometry": { "type": "Point", "coordinates": [ 105.8159872, 21.015794 ] } },
{ "type": "Feature", "properties": { "id": 738814536, "name": "176 Thái Hà", "index_right": 45, "district": "Phường Đống Đa" }, "geometry": { "type": "Point", "coordinates": [ 105.8200462, 21.0130333 ] } },
{ "type": "Feature", "properties": { "id": 738814593, "name": "Platform dành riêng cho xe buýt trước nhà 80 Đường Láng", "index_right": 45, "district": "Phường Đống Đa" }, "geometry": { "type": "Point", "coordinates": [ 105.8186777, 21.0039547 ] } },
{ "type": "Feature", "properties": { "id": 738814705, "name": "Bệnh viện Châm cứu Trung ương - 49 Thái Thịnh", "index_right": 45, "district": "Phường Đống Đa" }, "geometry": { "type": "Point", "coordinates": [ 105.8197036, 21.0088929 ] } },
{ "type": "Feature", "properties": { "id": 738814870, "name": "131 Thái Hà", "index_right": 45, "district": "Phường Đống Đa" }, "geometry": { "type": "Point", "coordinates": [ 105.8197012, 21.0131185 ] } },
{ "type": "Feature", "properties": { "id": 738815717, "name": "290 Tây Sơn", "index_right": 45, "district": "Phường Đống Đa" }, "geometry": { "type": "Point", "coordinates": [ 105.82333, 21.0074139 ] } },
{ "type": "Feature", "properties": { "id": 738815785, "name": "104 A49 Thái Thịnh", "index_right": 45, "district": "Phường Đống Đa" }, "geometry": { "type": "Point", "coordinates": [ 105.8176363, 21.0113467 ] } },
{ "type": "Feature", "properties": { "id": 738815809, "name": "83 Nguyễn Lương Bằng", "index_right": 45, "district": "Phường Đống Đa" }, "geometry": { "type": "Point", "coordinates": [ 105.8290782, 21.0168153 ] } },
{ "type": "Feature", "properties": { "id": 5061374324, "name": "142-144 Nguyễn Lương Bằng", "index_right": 45, "district": "Phường Đống Đa" }, "geometry": { "type": "Point", "coordinates": [ 105.8282866, 21.0159439 ] } },
{ "type": "Feature", "properties": { "id": 6688359126, "name": "63 Trần Quang Diệu", "index_right": 45, "district": "Phường Đống Đa" }, "geometry": { "type": "Point", "coordinates": [ 105.8242437, 21.0149591 ] } },
{ "type": "Feature", "properties": { "id": 7056032822, "name": "Platform dành riêng cho xe buýt trước nhà 45 Đường Láng", "index_right": 45, "district": "Phường Đống Đa" }, "geometry": { "type": "Point", "coordinates": [ 105.818536, 21.0035906 ] } },
{ "type": "Feature", "properties": { "id": 8349461376, "name": "208A ngõ Xã Đàn 2", "index_right": 45, "district": "Phường Đống Đa" }, "geometry": { "type": "Point", "coordinates": [ 105.8322703, 21.0124469 ] } },
{ "type": "Feature", "properties": { "id": 8349461377, "name": "165 Xã Đàn", "index_right": 45, "district": "Phường Đống Đa" }, "geometry": { "type": "Point", "coordinates": [ 105.8335006, 21.0145775 ] } },
{ "type": "Feature", "properties": { "id": 8751624831, "name": "109 Ô Chợ Dừa", "index_right": 45, "district": "Phường Đống Đa" }, "geometry": { "type": "Point", "coordinates": [ 105.8271825, 21.0197443 ] } },
{ "type": "Feature", "properties": { "id": 8757875252, "name": "Café Don 105E5 Thái Thịnh - Đối diện Bệnh viện Châm cứu Trung ương", "index_right": 45, "district": "Phường Đống Đa" }, "geometry": { "type": "Point", "coordinates": [ 105.8209127, 21.0076049 ] } },
{ "type": "Feature", "properties": { "id": 8766627150, "name": "54-56 Thái Hà", "index_right": 45, "district": "Phường Đống Đa" }, "geometry": { "type": "Point", "coordinates": [ 105.8224179, 21.0106666 ] } },
{ "type": "Feature", "properties": { "id": 8813408792, "name": "Đối diện 220 Đường Láng", "index_right": 45, "district": "Phường Đống Đa" }, "geometry": { "type": "Point", "coordinates": [ 105.8164442, 21.005919 ] } },
{ "type": "Feature", "properties": { "id": 8813408799, "name": "220 Đường Láng - Trường Đảng Lê Hồng Phong", "index_right": 45, "district": "Phường Đống Đa" }, "geometry": { "type": "Point", "coordinates": [ 105.8166853, 21.0059655 ] } },
{ "type": "Feature", "properties": { "id": 8813408800, "name": "470 Đường Láng", "index_right": 45, "district": "Phường Đống Đa" }, "geometry": { "type": "Point", "coordinates": [ 105.8128589, 21.0098642 ] } },
{ "type": "Feature", "properties": { "id": 8895529057, "name": "119 Yên Lãng", "index_right": 45, "district": "Phường Đống Đa" }, "geometry": { "type": "Point", "coordinates": [ 105.8162889, 21.0106126 ] } },
{ "type": "Feature", "properties": { "id": 8903312081, "name": "97 Láng Hạ", "index_right": 45, "district": "Phường Đống Đa" }, "geometry": { "type": "Point", "coordinates": [ 105.813703, 21.0144229 ] } },
{ "type": "Feature", "properties": { "id": 8903312082, "name": "Qua 70m ngã ba Đặng Tiến Đông-Hoàng Cầu", "index_right": 45, "district": "Phường Đống Đa" }, "geometry": { "type": "Point", "coordinates": [ 105.8208947, 21.0158101 ] } },
{ "type": "Feature", "properties": { "id": 8903312083, "name": "21 Hoàng Cầu", "index_right": 45, "district": "Phường Đống Đa" }, "geometry": { "type": "Point", "coordinates": [ 105.825181, 21.0194425 ] } },
{ "type": "Feature", "properties": { "id": 9342635873, "name": "Trường tiểu học Thái Thịnh - số 4 Yên Lãng", "index_right": 45, "district": "Phường Đống Đa" }, "geometry": { "type": "Point", "coordinates": [ 105.8160204, 21.0107191 ] } },
{ "type": "Feature", "properties": { "id": 11521595980, "name": "68 Trần Quang Diệu", "index_right": 45, "district": "Phường Đống Đa" }, "geometry": { "type": "Point", "coordinates": [ 105.8239474, 21.0147696 ] } },
{ "type": "Feature", "properties": { "id": 11521595981, "name": "153-155 Đặng Tiến Đông", "index_right": 45, "district": "Phường Đống Đa" }, "geometry": { "type": "Point", "coordinates": [ 105.8228808, 21.0129998 ] } },
{ "type": "Feature", "properties": { "id": 11551502894, "name": "133 Thái Thịnh", "index_right": 45, "district": "Phường Đống Đa" }, "geometry": { "type": "Point", "coordinates": [ 105.8146923, 21.0140515 ] } }
]
}
