{
"type": "FeatureCollection",
"name": "Phường_Đông_Ngạc",
"crs": { "type": "name", "properties": { "name": "urn:ogc:def:crs:OGC:1.3:CRS84" } },
"features": [
{ "type": "Feature", "properties": { "id": 738813816, "name": "Trạm Xe Bus 28,45", "index_right": 86, "district": "Phường Đông Ngạc" }, "geometry": { "type": "Point", "coordinates": [ 105.7847571, 21.0886444 ] } },
{ "type": "Feature", "properties": { "id": 4224823335, "name": "Trước 100m ngõ 218 Phạm Văn Đồng", "index_right": 86, "district": "Phường Đông Ngạc" }, "geometry": { "type": "Point", "coordinates": [ 105.7836003, 21.0621707 ] } },
{ "type": "Feature", "properties": { "id": 5485649464, "name": "Không tên", "index_right": 86, "district": "Phường Đông Ngạc" }, "geometry": { "type": "Point", "coordinates": [ 105.7769347, 21.0715122 ] } },
{ "type": "Feature", "properties": { "id": 5485726119, "name": "Giữa nhà 54-56 Đường Tập thể Học viện Cảnh sát", "index_right": 86, "district": "Phường Đông Ngạc" }, "geometry": { "type": "Point", "coordinates": [ 105.7649447, 21.0636125 ] } },
{ "type": "Feature", "properties": { "id": 5485731419, "name": "Trường Cao đẳng Tài nguyên & Môi trường Hà Nội", "index_right": 86, "district": "Phường Đông Ngạc" }, "geometry": { "type": "Point", "coordinates": [ 105.7772113, 21.0739932 ] } },
{ "type": "Feature", "properties": { "id": 7294677886, "name": "138 Phạm Văn Đồng - Cầu vượt bộ hành", "index_right": 86, "district": "Phường Đông Ngạc" }, "geometry": { "type": "Point", "coordinates": [ 105.7854543, 21.0745106 ] } },
{ "type": "Feature", "properties": { "id": 7294698285, "name": "542 Phạm Văn Đồng", "index_right": 86, "district": "Phường Đông Ngạc" }, "geometry": { "type": "Point", "coordinates": [ 105.7852713, 21.0712685 ] } },
{ "type": "Feature", "properties": { "id": 8342158074, "name": "Gần khu tập thể, trước ngã tư Thụy Phương khoảng 150m", "index_right": 86, "district": "Phường Đông Ngạc" }, "geometry": { "type": "Point", "coordinates": [ 105.7756309, 21.0835455 ] } },
{ "type": "Feature", "properties": { "id": 8347802015, "name": "Trường Đại học Y tế Cộng đồng", "index_right": 86, "district": "Phường Đông Ngạc" }, "geometry": { "type": "Point", "coordinates": [ 105.7781643, 21.0826295 ] } },
{ "type": "Feature", "properties": { "id": 8822946792, "name": "Trường Tiểu Học Đông Ngạc A", "index_right": 86, "district": "Phường Đông Ngạc" }, "geometry": { "type": "Point", "coordinates": [ 105.7829762, 21.0920621 ] } },
{ "type": "Feature", "properties": { "id": 8822946793, "name": "Trường Trung học cơ sở Đông Ngạc A", "index_right": 86, "district": "Phường Đông Ngạc" }, "geometry": { "type": "Point", "coordinates": [ 105.77858, 21.0936558 ] } },
{ "type": "Feature", "properties": { "id": 8822946794, "name": "Đối diện Đình Làng Liên Ngạc", "index_right": 86, "district": "Phường Đông Ngạc" }, "geometry": { "type": "Point", "coordinates": [ 105.7775093, 21.0905714 ] } },
{ "type": "Feature", "properties": { "id": 8822946795, "name": "Công an phường Đức Thắng", "index_right": 86, "district": "Phường Đông Ngạc" }, "geometry": { "type": "Point", "coordinates": [ 105.7776694, 21.0786585 ] } },
{ "type": "Feature", "properties": { "id": 8822946796, "name": "Đại học Mỏ", "index_right": 86, "district": "Phường Đông Ngạc" }, "geometry": { "type": "Point", "coordinates": [ 105.7771903, 21.0718756 ] } },
{ "type": "Feature", "properties": { "id": 8822946798, "name": "Đối diện Học viện Tài chính", "index_right": 86, "district": "Phường Đông Ngạc" }, "geometry": { "type": "Point", "coordinates": [ 105.7773966, 21.0748862 ] } },
{ "type": "Feature", "properties": { "id": 8822946799, "name": "Đối diện Công ty Cổ phần Cơ điện Hà Nội", "index_right": 86, "district": "Phường Đông Ngạc" }, "geometry": { "type": "Point", "coordinates": [ 105.7777533, 21.077946 ] } },
{ "type": "Feature", "properties": { "id": 8822946800, "name": "Đình làng Liên Ngạc", "index_right": 86, "district": "Phường Đông Ngạc" }, "geometry": { "type": "Point", "coordinates": [ 105.7776542, 21.0906763 ] } },
{ "type": "Feature", "properties": { "id": 8822946801, "name": "Ngã ba dốc Kẻ Chèm", "index_right": 86, "district": "Phường Đông Ngạc" }, "geometry": { "type": "Point", "coordinates": [ 105.7785064, 21.0934918 ] } },
{ "type": "Feature", "properties": { "id": 8822946802, "name": "Trường Tiểu học Đông Ngạc A", "index_right": 86, "district": "Phường Đông Ngạc" }, "geometry": { "type": "Point", "coordinates": [ 105.7830588, 21.0918378 ] } },
{ "type": "Feature", "properties": { "id": 8831420065, "name": "370 Phạm Văn Đồng", "index_right": 86, "district": "Phường Đông Ngạc" }, "geometry": { "type": "Point", "coordinates": [ 105.7825481, 21.0580447 ] } },
{ "type": "Feature", "properties": { "id": 8920049627, "name": "Trường Trung cấp nghề Thăng Long", "index_right": 86, "district": "Phường Đông Ngạc" }, "geometry": { "type": "Point", "coordinates": [ 105.7852816, 21.0867978 ] } },
{ "type": "Feature", "properties": { "id": 8920049629, "name": "Dối diện Công ty Thí nghiệm và Xây dựng số 8 Thăng Long - 31 Tân Xuân", "index_right": 86, "district": "Phường Đông Ngạc" }, "geometry": { "type": "Point", "coordinates": [ 105.7850741, 21.0828155 ] } },
{ "type": "Feature", "properties": { "id": 8934749255, "name": "Qua ngã 3 vào Thôn Trù 2 - Phường Cổ Nhuế 2", "index_right": 86, "district": "Phường Đông Ngạc" }, "geometry": { "type": "Point", "coordinates": [ 105.7618465, 21.064769 ] } },
{ "type": "Feature", "properties": { "id": 8934749257, "name": "Doanh trại Quân đội nhân dân Việt Nam (Đối diện cột điện CN7/4A) Đường K3 Cầu Diễn", "index_right": 86, "district": "Phường Đông Ngạc" }, "geometry": { "type": "Point", "coordinates": [ 105.7731226, 21.060668 ] } },
{ "type": "Feature", "properties": { "id": 8934749263, "name": "Gần đối diện ngã 3 vào Thôn Trù 2 - Phường Cổ Nhuế 2", "index_right": 86, "district": "Phường Đông Ngạc" }, "geometry": { "type": "Point", "coordinates": [ 105.7610853, 21.0649737 ] } },
{ "type": "Feature", "properties": { "id": 8934749264, "name": "Đối diện Doanh trại Quân đội nhân dân Việt Nam (Cách cột điện CN9/4A 7m) Đường K3 Cầu Diễn", "index_right": 86, "district": "Phường Đông Ngạc" }, "geometry": { "type": "Point", "coordinates": [ 105.773283, 21.0600832 ] } },
{ "type": "Feature", "properties": { "id": 8934749265, "name": "Giữa nhà 59-61 Đường Tập thể Học viện Cảnh sát", "index_right": 86, "district": "Phường Đông Ngạc" }, "geometry": { "type": "Point", "coordinates": [ 105.7645345, 21.0636115 ] } },
{ "type": "Feature", "properties": { "id": 8934749286, "name": "Cổ Nhuế - HV Cảnh sát", "index_right": 86, "district": "Phường Đông Ngạc" }, "geometry": { "type": "Point", "coordinates": [ 105.7593411, 21.0655765 ] } },
{ "type": "Feature", "properties": { "id": 8954351039, "name": "Đối diện số nhà 69 Hoàng Tăng Bí", "index_right": 86, "district": "Phường Đông Ngạc" }, "geometry": { "type": "Point", "coordinates": [ 105.7834551, 21.0822753 ] } },
{ "type": "Feature", "properties": { "id": 8954351040, "name": "51 Hoàng Tăng Bí", "index_right": 86, "district": "Phường Đông Ngạc" }, "geometry": { "type": "Point", "coordinates": [ 105.7840323, 21.0819449 ] } },
{ "type": "Feature", "properties": { "id": 11515748460, "name": "Đối diện trường Trung học cơ sở Đoàn Thị Điểm", "index_right": 86, "district": "Phường Đông Ngạc" }, "geometry": { "type": "Point", "coordinates": [ 105.7813607, 21.0716772 ] } },
{ "type": "Feature", "properties": { "id": 11515748461, "name": "Đối diện Bệnh viện đa khoa Phương Đông", "index_right": 86, "district": "Phường Đông Ngạc" }, "geometry": { "type": "Point", "coordinates": [ 105.7753481, 21.0716749 ] } },
{ "type": "Feature", "properties": { "id": 11515782289, "name": "Trường Trung học cơ sở Đoàn Thị Điểm", "index_right": 86, "district": "Phường Đông Ngạc" }, "geometry": { "type": "Point", "coordinates": [ 105.779789, 21.0714602 ] } },
{ "type": "Feature", "properties": { "id": 11515782290, "name": "Bệnh viện đa khoa Phương Đông", "index_right": 86, "district": "Phường Đông Ngạc" }, "geometry": { "type": "Point", "coordinates": [ 105.7742251, 21.0714752 ] } },
{ "type": "Feature", "properties": { "id": 11522073218, "name": "Ngã tư Bê tông Chèm", "index_right": 86, "district": "Phường Đông Ngạc" }, "geometry": { "type": "Point", "coordinates": [ 105.7782428, 21.083432 ] } },
{ "type": "Feature", "properties": { "id": 11528486369, "name": "68A Tân Xuân", "index_right": 86, "district": "Phường Đông Ngạc" }, "geometry": { "type": "Point", "coordinates": [ 105.7853676, 21.0818954 ] } },
{ "type": "Feature", "properties": { "id": 11528486370, "name": "Đối diện khu tập thể, qua ngã tư Thụy Phương khoảng 200m", "index_right": 86, "district": "Phường Đông Ngạc" }, "geometry": { "type": "Point", "coordinates": [ 105.776102, 21.0836733 ] } },
{ "type": "Feature", "properties": { "id": 11551502890, "name": "Đại học Mỏ - Tuyến 144", "index_right": 86, "district": "Phường Đông Ngạc" }, "geometry": { "type": "Point", "coordinates": [ 105.7736017, 21.0715086 ] } },
{ "type": "Feature", "properties": { "id": 12082634694, "name": "60 Tân Xuân", "index_right": 86, "district": "Phường Đông Ngạc" }, "geometry": { "type": "Point", "coordinates": [ 105.785839, 21.0871656 ] } },
{ "type": "Feature", "properties": { "id": 13042399011, "name": "90 Phạm Văn Đồng", "index_right": 86, "district": "Phường Đông Ngạc" }, "geometry": { "type": "Point", "coordinates": [ 105.7862518, 21.0770255 ] } }
]
}
