{
"type": "FeatureCollection",
"name": "Phường_Xuân_Phương",
"crs": { "type": "name", "properties": { "name": "urn:ogc:def:crs:OGC:1.3:CRS84" } },
"features": [
{ "type": "Feature", "properties": { "id": 738813630, "name": "Siêu thị Dos Mark", "index_right": 89, "district": "Phường Xuân Phương" }, "geometry": { "type": "Point", "coordinates": [ 105.7590904, 21.0423217 ] } },
{ "type": "Feature", "properties": { "id": 738813948, "name": "CN4 Xuân Phương", "index_right": 89, "district": "Phường Xuân Phương" }, "geometry": { "type": "Point", "coordinates": [ 105.7379237, 21.0422047 ] } },
{ "type": "Feature", "properties": { "id": 8361022001, "name": "Điểm trung chuyển Nhổn", "index_right": 89, "district": "Phường Xuân Phương" }, "geometry": { "type": "Point", "coordinates": [ 105.7364519, 21.0515808 ] } },
{ "type": "Feature", "properties": { "id": 8808907346, "name": "Xóm La - Đại Mỗ", "index_right": 89, "district": "Phường Xuân Phương" }, "geometry": { "type": "Point", "coordinates": [ 105.7599081, 21.0076304 ] } },
{ "type": "Feature", "properties": { "id": 8808907347, "name": "Đường vào THPT Đại Mỗ", "index_right": 89, "district": "Phường Xuân Phương" }, "geometry": { "type": "Point", "coordinates": [ 105.7525935, 21.0091297 ] } },
{ "type": "Feature", "properties": { "id": 8808907348, "name": "Trụ sở Bộ tư lệnh Cảnh sát biển", "index_right": 89, "district": "Phường Xuân Phương" }, "geometry": { "type": "Point", "coordinates": [ 105.7451542, 21.0100521 ] } },
{ "type": "Feature", "properties": { "id": 8865361286, "name": "Bưu điện Vân Canh", "index_right": 89, "district": "Phường Xuân Phương" }, "geometry": { "type": "Point", "coordinates": [ 105.738269, 21.0359394 ] } },
{ "type": "Feature", "properties": { "id": 8865361288, "name": "Đối diện Trường Đại học Công nghệ Đông Á", "index_right": 89, "district": "Phường Xuân Phương" }, "geometry": { "type": "Point", "coordinates": [ 105.7419968, 21.0393966 ] } },
{ "type": "Feature", "properties": { "id": 8865361289, "name": "Trước cầu vượt Xuân Phương 100m", "index_right": 89, "district": "Phường Xuân Phương" }, "geometry": { "type": "Point", "coordinates": [ 105.7490497, 21.0365578 ] } },
{ "type": "Feature", "properties": { "id": 8865361290, "name": "Trước đối diện tòa nhà CT2A, KĐT Xuân Phương 30m", "index_right": 89, "district": "Phường Xuân Phương" }, "geometry": { "type": "Point", "coordinates": [ 105.7567434, 21.0313134 ] } },
{ "type": "Feature", "properties": { "id": 8865361309, "name": "Qua nhà CT2A, KĐT Xuân Phương 30m", "index_right": 89, "district": "Phường Xuân Phương" }, "geometry": { "type": "Point", "coordinates": [ 105.7565082, 21.0318027 ] } },
{ "type": "Feature", "properties": { "id": 8865361310, "name": "Qua cầu vượt Xuân Phương 100m", "index_right": 89, "district": "Phường Xuân Phương" }, "geometry": { "type": "Point", "coordinates": [ 105.7490954, 21.0370297 ] } },
{ "type": "Feature", "properties": { "id": 8865361311, "name": "Nhà máy Bia Sài Gòn - Hà Nội", "index_right": 89, "district": "Phường Xuân Phương" }, "geometry": { "type": "Point", "coordinates": [ 105.7423973, 21.0396264 ] } },
{ "type": "Feature", "properties": { "id": 8903312054, "name": "Công ty Viglacera Tây Mỗ", "index_right": 89, "district": "Phường Xuân Phương" }, "geometry": { "type": "Point", "coordinates": [ 105.7454074, 21.0159943 ] } },
{ "type": "Feature", "properties": { "id": 8903312055, "name": "Công ty TNHH Cơ khí Trung Sơn", "index_right": 89, "district": "Phường Xuân Phương" }, "geometry": { "type": "Point", "coordinates": [ 105.7428033, 21.0229989 ] } },
{ "type": "Feature", "properties": { "id": 8903312056, "name": "Trước đối diện lối rẽ đường Xuân Phương 8 30m", "index_right": 89, "district": "Phường Xuân Phương" }, "geometry": { "type": "Point", "coordinates": [ 105.7410007, 21.0276839 ] } },
{ "type": "Feature", "properties": { "id": 8903312057, "name": "Đối diện Công ty TNHH và Dịch vụ Đăng Khoa", "index_right": 89, "district": "Phường Xuân Phương" }, "geometry": { "type": "Point", "coordinates": [ 105.7411043, 21.027439 ] } },
{ "type": "Feature", "properties": { "id": 8903312061, "name": "Qua lối rẽ đường Xuân Phương 8 15m", "index_right": 89, "district": "Phường Xuân Phương" }, "geometry": { "type": "Point", "coordinates": [ 105.7413189, 21.0264848 ] } },
{ "type": "Feature", "properties": { "id": 8903312062, "name": "Trước đối diện Công ty Cơ khí Trung Sơn", "index_right": 89, "district": "Phường Xuân Phương" }, "geometry": { "type": "Point", "coordinates": [ 105.74302, 21.0220874 ] } },
{ "type": "Feature", "properties": { "id": 8903312064, "name": "Trước đối diện Công ty Viglacera Tây Mỗ", "index_right": 89, "district": "Phường Xuân Phương" }, "geometry": { "type": "Point", "coordinates": [ 105.7455395, 21.0152375 ] } },
{ "type": "Feature", "properties": { "id": 8911997215, "name": "Hè giữa nhà số 55-57 phố Nhổn", "index_right": 89, "district": "Phường Xuân Phương" }, "geometry": { "type": "Point", "coordinates": [ 105.732216, 21.0545019 ] } },
{ "type": "Feature", "properties": { "id": 8911997216, "name": "Điểm trung chuyển Nhổn", "index_right": 89, "district": "Phường Xuân Phương" }, "geometry": { "type": "Point", "coordinates": [ 105.7369516, 21.0512583 ] } },
{ "type": "Feature", "properties": { "id": 8912013117, "name": "Đối diện Đình và Miếu Đồng Cổ", "index_right": 89, "district": "Phường Xuân Phương" }, "geometry": { "type": "Point", "coordinates": [ 105.7401858, 21.0496534 ] } },
{ "type": "Feature", "properties": { "id": 8912013118, "name": "Ga Minh Khai", "index_right": 89, "district": "Phường Xuân Phương" }, "geometry": { "type": "Point", "coordinates": [ 105.7447279, 21.0478749 ] } },
{ "type": "Feature", "properties": { "id": 8912013119, "name": "150-152 tổ 3 đường 32 (đối diện Công ty Vật liệu & Bưu điện)", "index_right": 89, "district": "Phường Xuân Phương" }, "geometry": { "type": "Point", "coordinates": [ 105.7514727, 21.04526 ] } },
{ "type": "Feature", "properties": { "id": 8912013120, "name": "Ga Phú Diễn", "index_right": 89, "district": "Phường Xuân Phương" }, "geometry": { "type": "Point", "coordinates": [ 105.7552062, 21.043754 ] } },
{ "type": "Feature", "properties": { "id": 8923111209, "name": "Đối diện tòa chung cư Hateco Group", "index_right": 89, "district": "Phường Xuân Phương" }, "geometry": { "type": "Point", "coordinates": [ 105.7360469, 21.0471589 ] } },
{ "type": "Feature", "properties": { "id": 8925798718, "name": "Chung cư Hateco Group", "index_right": 89, "district": "Phường Xuân Phương" }, "geometry": { "type": "Point", "coordinates": [ 105.7356832, 21.047414 ] } },
{ "type": "Feature", "properties": { "id": 8925798719, "name": "Gần ngã tư Trịnh Văn Bô", "index_right": 89, "district": "Phường Xuân Phương" }, "geometry": { "type": "Point", "coordinates": [ 105.7377023, 21.0421101 ] } },
{ "type": "Feature", "properties": { "id": 11518979149, "name": "Nhà Ga Nhổn (Đối diện ĐH Công Nghiệp) - Đường Cầu Diễn", "index_right": 89, "district": "Phường Xuân Phương" }, "geometry": { "type": "Point", "coordinates": [ 105.7350474, 21.052501 ] } },
{ "type": "Feature", "properties": { "id": 11527164035, "name": "Ngõ 84 Xuân Phương", "index_right": 89, "district": "Phường Xuân Phương" }, "geometry": { "type": "Point", "coordinates": [ 105.7379081, 21.0400857 ] } },
{ "type": "Feature", "properties": { "id": 11527164036, "name": "320 Xuân Phương", "index_right": 89, "district": "Phường Xuân Phương" }, "geometry": { "type": "Point", "coordinates": [ 105.7390259, 21.0321399 ] } },
{ "type": "Feature", "properties": { "id": 11527354909, "name": "Chùa Ngọc Mạch", "index_right": 89, "district": "Phường Xuân Phương" }, "geometry": { "type": "Point", "coordinates": [ 105.7397561, 21.0306755 ] } },
{ "type": "Feature", "properties": { "id": 11527354910, "name": "Ngã tư Xuân Phương - Trịnh Văn Bô", "index_right": 89, "district": "Phường Xuân Phương" }, "geometry": { "type": "Point", "coordinates": [ 105.7380212, 21.0403398 ] } },
{ "type": "Feature", "properties": { "id": 12122344236, "name": "Nhà văn hóa số 7 Xuân Phương - KĐT Vân Canh", "index_right": 89, "district": "Phường Xuân Phương" }, "geometry": { "type": "Point", "coordinates": [ 105.7389055, 21.0280464 ] } },
{ "type": "Feature", "properties": { "id": 12122344237, "name": "Sân bóng Vân Canh - KĐT Vân Canh", "index_right": 89, "district": "Phường Xuân Phương" }, "geometry": { "type": "Point", "coordinates": [ 105.7395203, 21.0279583 ] } },
{ "type": "Feature", "properties": { "id": 12345971115, "name": "Bảo tàng Lịch sử Quân sự Việt Nam", "index_right": 89, "district": "Phường Xuân Phương" }, "geometry": { "type": "Point", "coordinates": [ 105.7570664, 21.0110872 ] } }
]
}
