{
"type": "FeatureCollection",
"name": "Phường_Phúc_Lợi",
"crs": { "type": "name", "properties": { "name": "urn:ogc:def:crs:OGC:1.3:CRS84" } },
"features": [
{ "type": "Feature", "properties": { "id": 481836829, "name": "Qua ngã 3 cầu Thanh Trì - Nguyễn Văn Linh", "index_right": 22, "district": "Phường Phúc Lợi" }, "geometry": { "type": "Point", "coordinates": [ 105.9232229, 21.0273749 ] } },
{ "type": "Feature", "properties": { "id": 481836891, "name": "UBND phường Phúc Đồng - 274 Nguyễn Văn Linh", "index_right": 22, "district": "Phường Phúc Lợi" }, "geometry": { "type": "Point", "coordinates": [ 105.8985351, 21.0385826 ] } },
{ "type": "Feature", "properties": { "id": 481836920, "name": "105-107 Nguyễn Văn Linh", "index_right": 22, "district": "Phường Phúc Lợi" }, "geometry": { "type": "Point", "coordinates": [ 105.8953319, 21.0450442 ] } },
{ "type": "Feature", "properties": { "id": 995292341, "name": "Gần đường vào Công ty X22 - 705 Nguyễn Văn Linh", "index_right": 22, "district": "Phường Phúc Lợi" }, "geometry": { "type": "Point", "coordinates": [ 105.9148376, 21.029927 ] } },
{ "type": "Feature", "properties": { "id": 995292569, "name": "Công ty Thí nghiệm miền Bắc - 465 Nguyễn Văn Linh", "index_right": 22, "district": "Phường Phúc Lợi" }, "geometry": { "type": "Point", "coordinates": [ 105.907936, 21.0329295 ] } },
{ "type": "Feature", "properties": { "id": 8739945241, "name": "Công ty May 10 - Nguyễn Văn Linh", "index_right": 22, "district": "Phường Phúc Lợi" }, "geometry": { "type": "Point", "coordinates": [ 105.9183318, 21.0288912 ] } },
{ "type": "Feature", "properties": { "id": 8895558445, "name": "Khu nhà N01A khu đô thị Sài Đồng - đường Chu Huy Mân", "index_right": 22, "district": "Phường Phúc Lợi" }, "geometry": { "type": "Point", "coordinates": [ 105.9041612, 21.0396541 ] } },
{ "type": "Feature", "properties": { "id": 8895558446, "name": "Trường tiểu học Phúc Đồng - đường Chu Huy Mân", "index_right": 22, "district": "Phường Phúc Lợi" }, "geometry": { "type": "Point", "coordinates": [ 105.9043016, 21.0402927 ] } },
{ "type": "Feature", "properties": { "id": 8895558454, "name": "Đối diện trường Vinschool đường Chu Huy Mân", "index_right": 22, "district": "Phường Phúc Lợi" }, "geometry": { "type": "Point", "coordinates": [ 105.9076975, 21.0447239 ] } },
{ "type": "Feature", "properties": { "id": 8895558455, "name": "Vincom Long Biên - Đường Chu Huy Mân", "index_right": 22, "district": "Phường Phúc Lợi" }, "geometry": { "type": "Point", "coordinates": [ 105.915645, 21.0492178 ] } },
{ "type": "Feature", "properties": { "id": 8895558456, "name": "Trạm Xe Bus Ngã Ba Hoa Hồng", "index_right": 22, "district": "Phường Phúc Lợi" }, "geometry": { "type": "Point", "coordinates": [ 105.9195985, 21.0468924 ] } },
{ "type": "Feature", "properties": { "id": 8895558457, "name": "Chợ Phúc Lợi", "index_right": 22, "district": "Phường Phúc Lợi" }, "geometry": { "type": "Point", "coordinates": [ 105.9249293, 21.0442999 ] } },
{ "type": "Feature", "properties": { "id": 8895558458, "name": "Đối diện chợ Phúc Lợi", "index_right": 22, "district": "Phường Phúc Lợi" }, "geometry": { "type": "Point", "coordinates": [ 105.924989, 21.0439011 ] } },
{ "type": "Feature", "properties": { "id": 8895558459, "name": "Trường THPT Phúc Lợi", "index_right": 22, "district": "Phường Phúc Lợi" }, "geometry": { "type": "Point", "coordinates": [ 105.9238538, 21.0464133 ] } },
{ "type": "Feature", "properties": { "id": 8895558460, "name": "Gần ngõ 145 Phúc Lợi", "index_right": 22, "district": "Phường Phúc Lợi" }, "geometry": { "type": "Point", "coordinates": [ 105.9216814, 21.0505927 ] } },
{ "type": "Feature", "properties": { "id": 8895558461, "name": "Gần đối diện ngõ 145 Phúc Lợi", "index_right": 22, "district": "Phường Phúc Lợi" }, "geometry": { "type": "Point", "coordinates": [ 105.9219018, 21.0499404 ] } },
{ "type": "Feature", "properties": { "id": 8895558462, "name": "Qua lối vào đình chùa Hội Xá", "index_right": 22, "district": "Phường Phúc Lợi" }, "geometry": { "type": "Point", "coordinates": [ 105.9180157, 21.0561065 ] } },
{ "type": "Feature", "properties": { "id": 8895558471, "name": "Gần đối diện lối vào đình chùa Hội Xá", "index_right": 22, "district": "Phường Phúc Lợi" }, "geometry": { "type": "Point", "coordinates": [ 105.9175043, 21.0564179 ] } },
{ "type": "Feature", "properties": { "id": 8895558472, "name": "Đối diện Trường THPT Phúc Lợi", "index_right": 22, "district": "Phường Phúc Lợi" }, "geometry": { "type": "Point", "coordinates": [ 105.9239427, 21.0459336 ] } },
{ "type": "Feature", "properties": { "id": 8895558473, "name": "Ngã Ba Hoa Hồng", "index_right": 22, "district": "Phường Phúc Lợi" }, "geometry": { "type": "Point", "coordinates": [ 105.9199683, 21.0469173 ] } },
{ "type": "Feature", "properties": { "id": 8895558474, "name": "Trạm Xe Bus Vincom Long Biên", "index_right": 22, "district": "Phường Phúc Lợi" }, "geometry": { "type": "Point", "coordinates": [ 105.9183163, 21.0497517 ] } },
{ "type": "Feature", "properties": { "id": 8895558475, "name": "Trường Vinschool đường Chu Huy Mân", "index_right": 22, "district": "Phường Phúc Lợi" }, "geometry": { "type": "Point", "coordinates": [ 105.9080984, 21.0460445 ] } },
{ "type": "Feature", "properties": { "id": 9003315158, "name": "Trước ngã 3 đường Hoa Sữa - Vũ Xuân Thiều", "index_right": 22, "district": "Phường Phúc Lợi" }, "geometry": { "type": "Point", "coordinates": [ 105.9225659, 21.0386767 ] } },
{ "type": "Feature", "properties": { "id": 9003315159, "name": "Đối diện đường Hoa Sữa", "index_right": 22, "district": "Phường Phúc Lợi" }, "geometry": { "type": "Point", "coordinates": [ 105.9229095, 21.0387931 ] } },
{ "type": "Feature", "properties": { "id": 9003315160, "name": "Đối diện nhà máy Bia Việt Đức", "index_right": 22, "district": "Phường Phúc Lợi" }, "geometry": { "type": "Point", "coordinates": [ 105.9195714, 21.0352963 ] } },
{ "type": "Feature", "properties": { "id": 9003315161, "name": "118 Vũ Xuân Thiều", "index_right": 22, "district": "Phường Phúc Lợi" }, "geometry": { "type": "Point", "coordinates": [ 105.9192021, 21.0347057 ] } },
{ "type": "Feature", "properties": { "id": 9003315162, "name": "103 Vũ Xuân Thiều", "index_right": 22, "district": "Phường Phúc Lợi" }, "geometry": { "type": "Point", "coordinates": [ 105.9162021, 21.0324256 ] } },
{ "type": "Feature", "properties": { "id": 9003315163, "name": "40 Vũ Xuân Thiều", "index_right": 22, "district": "Phường Phúc Lợi" }, "geometry": { "type": "Point", "coordinates": [ 105.9166514, 21.0327032 ] } },
{ "type": "Feature", "properties": { "id": 9580030939, "name": "Qua Ngã 4 Đào Văn Tập - Đoàn Khuê", "index_right": 22, "district": "Phường Phúc Lợi" }, "geometry": { "type": "Point", "coordinates": [ 105.9073415, 21.0515395 ] } },
{ "type": "Feature", "properties": { "id": 9580030940, "name": "Ngã 3 Trần Danh Tuyên - Hoa Hồng", "index_right": 22, "district": "Phường Phúc Lợi" }, "geometry": { "type": "Point", "coordinates": [ 105.9108477, 21.0454093 ] } },
{ "type": "Feature", "properties": { "id": 9580030941, "name": "190 Sài Đồng", "index_right": 22, "district": "Phường Phúc Lợi" }, "geometry": { "type": "Point", "coordinates": [ 105.9128366, 21.0400572 ] } },
{ "type": "Feature", "properties": { "id": 9580030942, "name": "Trung tâm sát hạch lái xe Sài Đồng", "index_right": 22, "district": "Phường Phúc Lợi" }, "geometry": { "type": "Point", "coordinates": [ 105.911886, 21.0375698 ] } },
{ "type": "Feature", "properties": { "id": 9580030943, "name": "21 Sài Đồng", "index_right": 22, "district": "Phường Phúc Lợi" }, "geometry": { "type": "Point", "coordinates": [ 105.9094062, 21.0333662 ] } },
{ "type": "Feature", "properties": { "id": 9582411768, "name": "32 Sài Đồng", "index_right": 22, "district": "Phường Phúc Lợi" }, "geometry": { "type": "Point", "coordinates": [ 105.9095069, 21.0332726 ] } },
{ "type": "Feature", "properties": { "id": 9582411769, "name": "Đối diện Trung tâm sát hạch lái xe Sài Đồng", "index_right": 22, "district": "Phường Phúc Lợi" }, "geometry": { "type": "Point", "coordinates": [ 105.9119626, 21.0374486 ] } },
{ "type": "Feature", "properties": { "id": 9582411770, "name": "190 Sài Đồng", "index_right": 22, "district": "Phường Phúc Lợi" }, "geometry": { "type": "Point", "coordinates": [ 105.9132971, 21.0400807 ] } },
{ "type": "Feature", "properties": { "id": 9582411771, "name": "Ngã 3 Trần Danh Tuyên - Hoa Hồng", "index_right": 22, "district": "Phường Phúc Lợi" }, "geometry": { "type": "Point", "coordinates": [ 105.9110337, 21.045662 ] } },
{ "type": "Feature", "properties": { "id": 9582411772, "name": "Ngã 4 Đào Văn Tập - Đoàn Khuê", "index_right": 22, "district": "Phường Phúc Lợi" }, "geometry": { "type": "Point", "coordinates": [ 105.9075918, 21.0517225 ] } },
{ "type": "Feature", "properties": { "id": 10028987062, "name": "Khu biệt thự Anh Đào", "index_right": 22, "district": "Phường Phúc Lợi" }, "geometry": { "type": "Point", "coordinates": [ 105.9113187, 21.0470868 ] } },
{ "type": "Feature", "properties": { "id": 10028987063, "name": "Vincom Long Biên", "index_right": 22, "district": "Phường Phúc Lợi" }, "geometry": { "type": "Point", "coordinates": [ 105.9169281, 21.0506378 ] } },
{ "type": "Feature", "properties": { "id": 10044350800, "name": "Điểm đỗ xe buýt Phúc Lợi", "index_right": 22, "district": "Phường Phúc Lợi" }, "geometry": { "type": "Point", "coordinates": [ 105.9244204, 21.0453002 ] } },
{ "type": "Feature", "properties": { "id": 11246285585, "name": "102 Nguyễn Lam", "index_right": 22, "district": "Phường Phúc Lợi" }, "geometry": { "type": "Point", "coordinates": [ 105.8998478, 21.0443376 ] } },
{ "type": "Feature", "properties": { "id": 11246285586, "name": "Ngã tư Nguyễn Lam - Chu Huy Mân", "index_right": 22, "district": "Phường Phúc Lợi" }, "geometry": { "type": "Point", "coordinates": [ 105.9044338, 21.0408627 ] } },
{ "type": "Feature", "properties": { "id": 11246285587, "name": "Nhà hàng Biển Đông - Phố Nguyễn Lam", "index_right": 22, "district": "Phường Phúc Lợi" }, "geometry": { "type": "Point", "coordinates": [ 105.9066764, 21.0395271 ] } },
{ "type": "Feature", "properties": { "id": 11246285588, "name": "Trường Mầm non Hoa Trạng Nguyên", "index_right": 22, "district": "Phường Phúc Lợi" }, "geometry": { "type": "Point", "coordinates": [ 105.9086519, 21.0365777 ] } },
{ "type": "Feature", "properties": { "id": 11525014928, "name": "Đối diện chung cư Eco Home Phúc Lợi", "index_right": 22, "district": "Phường Phúc Lợi" }, "geometry": { "type": "Point", "coordinates": [ 105.927333, 21.0403651 ] } },
{ "type": "Feature", "properties": { "id": 11525014929, "name": "Đối diện ngõ 293 đường Phúc Lợi", "index_right": 22, "district": "Phường Phúc Lợi" }, "geometry": { "type": "Point", "coordinates": [ 105.9298981, 21.0382893 ] } },
{ "type": "Feature", "properties": { "id": 11525014931, "name": "Phúc Lợi (Chung cư Ruby City) - Tuyến 48", "index_right": 22, "district": "Phường Phúc Lợi" }, "geometry": { "type": "Point", "coordinates": [ 105.9324286, 21.0360265 ] } },
{ "type": "Feature", "properties": { "id": 11527164024, "name": "Ngõ 293 đường Phúc Lợi", "index_right": 22, "district": "Phường Phúc Lợi" }, "geometry": { "type": "Point", "coordinates": [ 105.9303413, 21.0380873 ] } },
{ "type": "Feature", "properties": { "id": 11527164025, "name": "Chung cư Eco home Phúc Lợi", "index_right": 22, "district": "Phường Phúc Lợi" }, "geometry": { "type": "Point", "coordinates": [ 105.9275005, 21.0404242 ] } },
{ "type": "Feature", "properties": { "id": 11551502886, "name": "KĐT Vincom Long Biên - Tuyến 142", "index_right": 22, "district": "Phường Phúc Lợi" }, "geometry": { "type": "Point", "coordinates": [ 105.9198336, 21.0471143 ] } },
{ "type": "Feature", "properties": { "id": 12307277453, "name": "Đối diện Trường Mầm non Hoa Trạng Nguyên", "index_right": 22, "district": "Phường Phúc Lợi" }, "geometry": { "type": "Point", "coordinates": [ 105.9083971, 21.0368377 ] } },
{ "type": "Feature", "properties": { "id": 12307277454, "name": "Không tên", "index_right": 22, "district": "Phường Phúc Lợi" }, "geometry": { "type": "Point", "coordinates": [ 105.9070239, 21.0394937 ] } },
{ "type": "Feature", "properties": { "id": 12307277455, "name": "Qua ngã 4 Nguyễn Lam - Chu Huy Mân", "index_right": 22, "district": "Phường Phúc Lợi" }, "geometry": { "type": "Point", "coordinates": [ 105.9042631, 21.0411893 ] } },
{ "type": "Feature", "properties": { "id": 12307277456, "name": "Đối diện 108 Nguyễn Lam", "index_right": 22, "district": "Phường Phúc Lợi" }, "geometry": { "type": "Point", "coordinates": [ 105.900089, 21.04438 ] } }
]
}
