{
"type": "FeatureCollection",
"name": "Phường_Chương_Mỹ",
"crs": { "type": "name", "properties": { "name": "urn:ogc:def:crs:OGC:1.3:CRS84" } },
"features": [
{ "type": "Feature", "properties": { "id": 7409610482, "name": "Qua UBND Xã Phụng Châu 50M", "index_right": 129, "district": "Phường Chương Mỹ" }, "geometry": { "type": "Point", "coordinates": [ 105.7073734, 20.9473587 ] } },
{ "type": "Feature", "properties": { "id": 7409610483, "name": "Trường THCS Phụng Châu", "index_right": 129, "district": "Phường Chương Mỹ" }, "geometry": { "type": "Point", "coordinates": [ 105.7037751, 20.9484979 ] } },
{ "type": "Feature", "properties": { "id": 7409651434, "name": "Đối diện Cổng trường ĐHSP thể dục thể thao Hà Nội", "index_right": 129, "district": "Phường Chương Mỹ" }, "geometry": { "type": "Point", "coordinates": [ 105.7086108, 20.9404374 ] } },
{ "type": "Feature", "properties": { "id": 7848823525, "name": "Trạm Y Tế Xã Phụng Châu", "index_right": 129, "district": "Phường Chương Mỹ" }, "geometry": { "type": "Point", "coordinates": [ 105.7074875, 20.9471602 ] } },
{ "type": "Feature", "properties": { "id": 7860662663, "name": "Nhà thờ Giáo họ Phượng Bãi", "index_right": 129, "district": "Phường Chương Mỹ" }, "geometry": { "type": "Point", "coordinates": [ 105.7205199, 20.9330827 ] } },
{ "type": "Feature", "properties": { "id": 7868740589, "name": "Đối Diện Trường THCS Phụng Châu", "index_right": 129, "district": "Phường Chương Mỹ" }, "geometry": { "type": "Point", "coordinates": [ 105.7036603, 20.9485665 ] } },
{ "type": "Feature", "properties": { "id": 8948067790, "name": "Đối diện Công ty Cổ phần Cơ khí Xây dựng Hà Thái", "index_right": 129, "district": "Phường Chương Mỹ" }, "geometry": { "type": "Point", "coordinates": [ 105.7235915, 20.9350099 ] } },
{ "type": "Feature", "properties": { "id": 8948067791, "name": "UBND phường Biên Giang", "index_right": 129, "district": "Phường Chương Mỹ" }, "geometry": { "type": "Point", "coordinates": [ 105.7168868, 20.9306055 ] } },
{ "type": "Feature", "properties": { "id": 8948067792, "name": "Gần trụ sở Công an huyện Chương Mỹ", "index_right": 129, "district": "Phường Chương Mỹ" }, "geometry": { "type": "Point", "coordinates": [ 105.7094021, 20.9256601 ] } },
{ "type": "Feature", "properties": { "id": 8948067793, "name": "Đối diện UBND huyện Chương Mỹ", "index_right": 129, "district": "Phường Chương Mỹ" }, "geometry": { "type": "Point", "coordinates": [ 105.7020447, 20.924511 ] } },
{ "type": "Feature", "properties": { "id": 8948071443, "name": "Gara Ô tô Đoàn Chiến", "index_right": 129, "district": "Phường Chương Mỹ" }, "geometry": { "type": "Point", "coordinates": [ 105.7029219, 20.9241324 ] } },
{ "type": "Feature", "properties": { "id": 8948071444, "name": "80 Khu Bắc", "index_right": 129, "district": "Phường Chương Mỹ" }, "geometry": { "type": "Point", "coordinates": [ 105.7096274, 20.9253694 ] } },
{ "type": "Feature", "properties": { "id": 8948071445, "name": "Đường vào ngõ 253 Biên Giang", "index_right": 129, "district": "Phường Chương Mỹ" }, "geometry": { "type": "Point", "coordinates": [ 105.7158497, 20.9296566 ] } },
{ "type": "Feature", "properties": { "id": 8948071446, "name": "Ngã 3 đường vào trường Đại học Sư phạm TDTT Hà Nội", "index_right": 129, "district": "Phường Chương Mỹ" }, "geometry": { "type": "Point", "coordinates": [ 105.7208171, 20.9330812 ] } },
{ "type": "Feature", "properties": { "id": 8948071447, "name": "Công ty Cổ phần Cơ khí Xây dựng Hà Thái - 53 Biên Giang", "index_right": 129, "district": "Phường Chương Mỹ" }, "geometry": { "type": "Point", "coordinates": [ 105.722985, 20.9344581 ] } },
{ "type": "Feature", "properties": { "id": 8958629854, "name": "Đối diện Công ty Giầy Hồng Phúc", "index_right": 129, "district": "Phường Chương Mỹ" }, "geometry": { "type": "Point", "coordinates": [ 105.7151385, 20.934527 ] } },
{ "type": "Feature", "properties": { "id": 8958629855, "name": "Trạm Xe Bus Trường Đại Học Sư Phạm Thể Dục Thể Thao", "index_right": 129, "district": "Phường Chương Mỹ" }, "geometry": { "type": "Point", "coordinates": [ 105.7123081, 20.9364407 ] } },
{ "type": "Feature", "properties": { "id": 8958629856, "name": "Cổng Làng Thôn Thượng Đồng", "index_right": 129, "district": "Phường Chương Mỹ" }, "geometry": { "type": "Point", "coordinates": [ 105.7086156, 20.9408538 ] } },
{ "type": "Feature", "properties": { "id": 8959298062, "name": "Đối diện công ty TNHH Giầy Hồng Phúc", "index_right": 129, "district": "Phường Chương Mỹ" }, "geometry": { "type": "Point", "coordinates": [ 105.7119312, 20.9368658 ] } },
{ "type": "Feature", "properties": { "id": 8959298063, "name": "Công ty Giầy Hồng Phúc", "index_right": 129, "district": "Phường Chương Mỹ" }, "geometry": { "type": "Point", "coordinates": [ 105.7148554, 20.9345436 ] } },
{ "type": "Feature", "properties": { "id": 9006204627, "name": "UBND huyện Chương Mỹ", "index_right": 129, "district": "Phường Chương Mỹ" }, "geometry": { "type": "Point", "coordinates": [ 105.7024146, 20.922802 ] } },
{ "type": "Feature", "properties": { "id": 9006204628, "name": "Cạnh số nhà 99 Bắc Sơn", "index_right": 129, "district": "Phường Chương Mỹ" }, "geometry": { "type": "Point", "coordinates": [ 105.7036542, 20.9237253 ] } },
{ "type": "Feature", "properties": { "id": 9006204630, "name": "Đối diện Trường Tiểu học Thị trấn Chúc Sơn", "index_right": 129, "district": "Phường Chương Mỹ" }, "geometry": { "type": "Point", "coordinates": [ 105.7010243, 20.9187744 ] } },
{ "type": "Feature", "properties": { "id": 9006204631, "name": "Đối diện Nghĩa Trang Liệt Sỹ Thị Trấn Chúc Sơn", "index_right": 129, "district": "Phường Chương Mỹ" }, "geometry": { "type": "Point", "coordinates": [ 105.7015521, 20.9163897 ] } },
{ "type": "Feature", "properties": { "id": 9006204632, "name": "Đài tưởng niệm liệt sỹ huyện Chương Mỹ", "index_right": 129, "district": "Phường Chương Mỹ" }, "geometry": { "type": "Point", "coordinates": [ 105.7019165, 20.9168406 ] } },
{ "type": "Feature", "properties": { "id": 9323130077, "name": "Trường PTTH Chương Mỹ A", "index_right": 129, "district": "Phường Chương Mỹ" }, "geometry": { "type": "Point", "coordinates": [ 105.700095, 20.9122251 ] } },
{ "type": "Feature", "properties": { "id": 9808164792, "name": "Trường Tiểu học Thị trấn Chúc Sơn", "index_right": 129, "district": "Phường Chương Mỹ" }, "geometry": { "type": "Point", "coordinates": [ 105.7009237, 20.9187048 ] } },
{ "type": "Feature", "properties": { "id": 11546585352, "name": "Thị trấn Chúc Sơn (Chương Mỹ) - Tuyến 116", "index_right": 129, "district": "Phường Chương Mỹ" }, "geometry": { "type": "Point", "coordinates": [ 105.7108692, 20.9259968 ] } },
{ "type": "Feature", "properties": { "id": 11549233122, "name": "UBND Thị Trấn Chúc Sơn", "index_right": 129, "district": "Phường Chương Mỹ" }, "geometry": { "type": "Point", "coordinates": [ 105.7124727, 20.9200659 ] } },
{ "type": "Feature", "properties": { "id": 11549233123, "name": "Trước 30m Công ty TNHH Sơn Việt Mỹ", "index_right": 129, "district": "Phường Chương Mỹ" }, "geometry": { "type": "Point", "coordinates": [ 105.7143379, 20.9117645 ] } },
{ "type": "Feature", "properties": { "id": 11549233124, "name": "Gần cổng làng Thuận Hòa", "index_right": 129, "district": "Phường Chương Mỹ" }, "geometry": { "type": "Point", "coordinates": [ 105.7161863, 20.9035694 ] } },
{ "type": "Feature", "properties": { "id": 11549233125, "name": "Gần nhà thờ Đặng Đình Tướng", "index_right": 129, "district": "Phường Chương Mỹ" }, "geometry": { "type": "Point", "coordinates": [ 105.7169324, 20.9006966 ] } },
{ "type": "Feature", "properties": { "id": 11549233172, "name": "Qua nhà thờ Đặng Đình Tướng", "index_right": 129, "district": "Phường Chương Mỹ" }, "geometry": { "type": "Point", "coordinates": [ 105.7170037, 20.9006775 ] } },
{ "type": "Feature", "properties": { "id": 11549233173, "name": "Qua cổng làng Thuận Hòa", "index_right": 129, "district": "Phường Chương Mỹ" }, "geometry": { "type": "Point", "coordinates": [ 105.7162551, 20.9035474 ] } },
{ "type": "Feature", "properties": { "id": 11549233174, "name": "Trước đối diện 30m Công ty TNHH Sơn Việt Mỹ", "index_right": 129, "district": "Phường Chương Mỹ" }, "geometry": { "type": "Point", "coordinates": [ 105.7143949, 20.9117675 ] } },
{ "type": "Feature", "properties": { "id": 11549233175, "name": "Đối diện UBND Thị Trấn Chúc Sơn", "index_right": 129, "district": "Phường Chương Mỹ" }, "geometry": { "type": "Point", "coordinates": [ 105.7125744, 20.9201017 ] } }
]
}
