{
"type": "FeatureCollection",
"name": "Phường_Ba_Đình",
"crs": { "type": "name", "properties": { "name": "urn:ogc:def:crs:OGC:1.3:CRS84" } },
"features": [
{ "type": "Feature", "properties": { "id": 738813307, "name": "Trước nút giao Hàng Than 70m", "index_right": 38, "district": "Phường Ba Đình" }, "geometry": { "type": "Point", "coordinates": [ 105.8471125, 21.0438733 ] } },
{ "type": "Feature", "properties": { "id": 738813394, "name": "192A Quán Thánh", "index_right": 38, "district": "Phường Ba Đình" }, "geometry": { "type": "Point", "coordinates": [ 105.8379738, 21.0427728 ] } },
{ "type": "Feature", "properties": { "id": 738813622, "name": "19 Nguyễn Biểu", "index_right": 38, "district": "Phường Ba Đình" }, "geometry": { "type": "Point", "coordinates": [ 105.8401627, 21.0419271 ] } },
{ "type": "Feature", "properties": { "id": 738813795, "name": "10-12 Quán Thánh", "index_right": 38, "district": "Phường Ba Đình" }, "geometry": { "type": "Point", "coordinates": [ 105.8468144, 21.0403709 ] } },
{ "type": "Feature", "properties": { "id": 738813900, "name": "Bệnh viện Xanh Pôn - 12 Chu Văn An", "index_right": 38, "district": "Phường Ba Đình" }, "geometry": { "type": "Point", "coordinates": [ 105.8361182, 21.0310583 ] } },
{ "type": "Feature", "properties": { "id": 738814864, "name": "174-176 Ngọc Hà", "index_right": 38, "district": "Phường Ba Đình" }, "geometry": { "type": "Point", "coordinates": [ 105.828921, 21.0386526 ] } },
{ "type": "Feature", "properties": { "id": 738815149, "name": "Trường Mạc Đĩnh Chi", "index_right": 38, "district": "Phường Ba Đình" }, "geometry": { "type": "Point", "coordinates": [ 105.8414226, 21.0489402 ] } },
{ "type": "Feature", "properties": { "id": 738815469, "name": "12A Điện Biên Phủ", "index_right": 38, "district": "Phường Ba Đình" }, "geometry": { "type": "Point", "coordinates": [ 105.8423455, 21.0295021 ] } },
{ "type": "Feature", "properties": { "id": 738815690, "name": "Ngã ba Hoàng Diệu - Hoàng Văn Thụ", "index_right": 38, "district": "Phường Ba Đình" }, "geometry": { "type": "Point", "coordinates": [ 105.8396558, 21.039006 ] } },
{ "type": "Feature", "properties": { "id": 738815823, "name": "Công viên Lê nin - Đối diện 35 Trần Phú", "index_right": 38, "district": "Phường Ba Đình" }, "geometry": { "type": "Point", "coordinates": [ 105.8393665, 21.0310607 ] } },
{ "type": "Feature", "properties": { "id": 738815828, "name": "Trạm biến áp Đội Cấn 2 - Số nhà 47 phố Đội Cấn", "index_right": 38, "district": "Phường Ba Đình" }, "geometry": { "type": "Point", "coordinates": [ 105.8305211, 21.034504 ] } },
{ "type": "Feature", "properties": { "id": 5068125721, "name": "140 Sơn Tây", "index_right": 38, "district": "Phường Ba Đình" }, "geometry": { "type": "Point", "coordinates": [ 105.8295683, 21.0327048 ] } },
{ "type": "Feature", "properties": { "id": 5561075722, "name": "Qua nút giao Cửa Bắc 120m", "index_right": 38, "district": "Phường Ba Đình" }, "geometry": { "type": "Point", "coordinates": [ 105.8441662, 21.0462209 ] } },
{ "type": "Feature", "properties": { "id": 8822946771, "name": "Qua nút giao Hàng Than 50m", "index_right": 38, "district": "Phường Ba Đình" }, "geometry": { "type": "Point", "coordinates": [ 105.8471112, 21.0440375 ] } },
{ "type": "Feature", "properties": { "id": 8822946772, "name": "Trước nút giao Cửa Bắc 30m", "index_right": 38, "district": "Phường Ba Đình" }, "geometry": { "type": "Point", "coordinates": [ 105.8441556, 21.0464103 ] } },
{ "type": "Feature", "properties": { "id": 8831817104, "name": "E3.4 Điểm trung chuyển Long Biên", "index_right": 38, "district": "Phường Ba Đình" }, "geometry": { "type": "Point", "coordinates": [ 105.8492368, 21.0414236 ] } },
{ "type": "Feature", "properties": { "id": 8831817105, "name": "E3.3 Điểm trung chuyển Long Biên", "index_right": 38, "district": "Phường Ba Đình" }, "geometry": { "type": "Point", "coordinates": [ 105.8493475, 21.0413265 ] } },
{ "type": "Feature", "properties": { "id": 8831817106, "name": "E3.2 Điểm trung chuyển Long Biên", "index_right": 38, "district": "Phường Ba Đình" }, "geometry": { "type": "Point", "coordinates": [ 105.8494799, 21.0412092 ] } },
{ "type": "Feature", "properties": { "id": 8831817107, "name": "E3.1 Điểm trung chuyển Long Biên", "index_right": 38, "district": "Phường Ba Đình" }, "geometry": { "type": "Point", "coordinates": [ 105.8495685, 21.0411296 ] } },
{ "type": "Feature", "properties": { "id": 8903312052, "name": "34-36 Hoàng Diệu", "index_right": 38, "district": "Phường Ba Đình" }, "geometry": { "type": "Point", "coordinates": [ 105.8390171, 21.0342202 ] } },
{ "type": "Feature", "properties": { "id": 8903312084, "name": "Đối diện tượng đài Bắc Sơn - Hoàng Diệu", "index_right": 38, "district": "Phường Ba Đình" }, "geometry": { "type": "Point", "coordinates": [ 105.8394163, 21.0354376 ] } },
{ "type": "Feature", "properties": { "id": 8903312085, "name": "Qua ngã 3 Thanh Niên-Trấn Vũ 50m", "index_right": 38, "district": "Phường Ba Đình" }, "geometry": { "type": "Point", "coordinates": [ 105.8364639, 21.0444899 ] } },
{ "type": "Feature", "properties": { "id": 8903312086, "name": "Hồ Trúc Bạch - Đối diện 28C Thanh Niên", "index_right": 38, "district": "Phường Ba Đình" }, "geometry": { "type": "Point", "coordinates": [ 105.838637, 21.0487678 ] } },
{ "type": "Feature", "properties": { "id": 8920049617, "name": "86 Quán Thánh - Bộ chỉ huy Quân sự Quận Ba Đình", "index_right": 38, "district": "Phường Ba Đình" }, "geometry": { "type": "Point", "coordinates": [ 105.8442545, 21.0417433 ] } },
{ "type": "Feature", "properties": { "id": 8920049634, "name": "Công viên Bách Thảo (qua phố Ngọc Hà)", "index_right": 38, "district": "Phường Ba Đình" }, "geometry": { "type": "Point", "coordinates": [ 105.8290636, 21.0398037 ] } },
{ "type": "Feature", "properties": { "id": 8920049635, "name": "Công viên Bách Thảo (đối diện trường THCS Chu Văn An)", "index_right": 38, "district": "Phường Ba Đình" }, "geometry": { "type": "Point", "coordinates": [ 105.8331034, 21.0418509 ] } },
{ "type": "Feature", "properties": { "id": 8920049636, "name": "Thành cổ Hà Nội - Đối diện 38 Phan Đình Phùng", "index_right": 38, "district": "Phường Ba Đình" }, "geometry": { "type": "Point", "coordinates": [ 105.8416221, 21.0406238 ] } },
{ "type": "Feature", "properties": { "id": 11521595978, "name": "26-28 Hàng Than", "index_right": 38, "district": "Phường Ba Đình" }, "geometry": { "type": "Point", "coordinates": [ 105.8472361, 21.04162 ] } },
{ "type": "Feature", "properties": { "id": 12078321346, "name": "Đối diện Bệnh viện Xanh pôn - 60 Trần Phú (Bộ Tư pháp)", "index_right": 38, "district": "Phường Ba Đình" }, "geometry": { "type": "Point", "coordinates": [ 105.8359407, 21.0317177 ] } },
{ "type": "Feature", "properties": { "id": 12167250979, "name": "91-93 Lê Hồng Phong", "index_right": 38, "district": "Phường Ba Đình" }, "geometry": { "type": "Point", "coordinates": [ 105.8320375, 21.0343455 ] } },
{ "type": "Feature", "properties": { "id": 12167250980, "name": "1B Lê Hồng Phong - Trung tâm TDTT Khúc Hạo", "index_right": 38, "district": "Phường Ba Đình" }, "geometry": { "type": "Point", "coordinates": [ 105.8377449, 21.033436 ] } },
{ "type": "Feature", "properties": { "id": 12167250981, "name": "7 Điện Biên Phủ", "index_right": 38, "district": "Phường Ba Đình" }, "geometry": { "type": "Point", "coordinates": [ 105.8423394, 21.0293114 ] } },
{ "type": "Feature", "properties": { "id": 12167250982, "name": "Cột cờ Hà Nội - Điện Biên Phủ", "index_right": 38, "district": "Phường Ba Đình" }, "geometry": { "type": "Point", "coordinates": [ 105.8397195, 21.03216 ] } },
{ "type": "Feature", "properties": { "id": 12167250983, "name": "18A Lê Hồng Phong - Ngã 4 Lê Hồng Phong - Ông Ích Khiêm", "index_right": 38, "district": "Phường Ba Đình" }, "geometry": { "type": "Point", "coordinates": [ 105.8338554, 21.0342341 ] } },
{ "type": "Feature", "properties": { "id": 12167250984, "name": "6 Ông Ích Khiêm", "index_right": 38, "district": "Phường Ba Đình" }, "geometry": { "type": "Point", "coordinates": [ 105.8335745, 21.0339138 ] } },
{ "type": "Feature", "properties": { "id": 12434838539, "name": "Đối diện 34A Trần Phú", "index_right": 38, "district": "Phường Ba Đình" }, "geometry": { "type": "Point", "coordinates": [ 105.8427317, 21.0304216 ] } },
{ "type": "Feature", "properties": { "id": 12717509084, "name": "Đối diện 65 Lý Nam Đế", "index_right": 38, "district": "Phường Ba Đình" }, "geometry": { "type": "Point", "coordinates": [ 105.8448189, 21.0344146 ] } },
{ "type": "Feature", "properties": { "id": 13076788487, "name": "Đối diện 104 Ngọc Hà", "index_right": 38, "district": "Phường Ba Đình" }, "geometry": { "type": "Point", "coordinates": [ 105.8311087, 21.0367234 ] } },
{ "type": "Feature", "properties": { "id": 13076788491, "name": "96 Ngọc Hà", "index_right": 38, "district": "Phường Ba Đình" }, "geometry": { "type": "Point", "coordinates": [ 105.8310819, 21.0364696 ] } },
{ "type": "Feature", "properties": { "id": 13076788492, "name": "Vườn hoa Lê Nin", "index_right": 38, "district": "Phường Ba Đình" }, "geometry": { "type": "Point", "coordinates": [ 105.8398512, 21.0318254 ] } }
]
}
