{
"type": "FeatureCollection",
"name": "Phường_Tây_Mỗ",
"crs": { "type": "name", "properties": { "name": "urn:ogc:def:crs:OGC:1.3:CRS84" } },
"features": [
{ "type": "Feature", "properties": { "id": 8808913246, "name": "Cổng Thiên đường Bảo Sơn", "index_right": 90, "district": "Phường Tây Mỗ" }, "geometry": { "type": "Point", "coordinates": [ 105.7321607, 21.0098539 ] } },
{ "type": "Feature", "properties": { "id": 8808913247, "name": "Đường vào UBND phường Tây Mỗ", "index_right": 90, "district": "Phường Tây Mỗ" }, "geometry": { "type": "Point", "coordinates": [ 105.7462871, 21.0090956 ] } },
{ "type": "Feature", "properties": { "id": 8808913248, "name": "Qua ngã ba làng Miêu Nha", "index_right": 90, "district": "Phường Tây Mỗ" }, "geometry": { "type": "Point", "coordinates": [ 105.7513328, 21.0081917 ] } },
{ "type": "Feature", "properties": { "id": 8808913249, "name": "Lối vào Trung học phổ thông Đại Mỗ", "index_right": 90, "district": "Phường Tây Mỗ" }, "geometry": { "type": "Point", "coordinates": [ 105.7584925, 21.0066622 ] } },
{ "type": "Feature", "properties": { "id": 9004787829, "name": "Số 270 Đại Mỗ", "index_right": 90, "district": "Phường Tây Mỗ" }, "geometry": { "type": "Point", "coordinates": [ 105.7590945, 20.9948527 ] } },
{ "type": "Feature", "properties": { "id": 9004787830, "name": "Số 357 Đại Mỗ", "index_right": 90, "district": "Phường Tây Mỗ" }, "geometry": { "type": "Point", "coordinates": [ 105.7565718, 20.995425 ] } },
{ "type": "Feature", "properties": { "id": 9004787831, "name": "Số 522 Đại Mỗ", "index_right": 90, "district": "Phường Tây Mỗ" }, "geometry": { "type": "Point", "coordinates": [ 105.7531605, 20.9957197 ] } },
{ "type": "Feature", "properties": { "id": 9004787832, "name": "Trường Tiểu học Đại Mỗ", "index_right": 90, "district": "Phường Tây Mỗ" }, "geometry": { "type": "Point", "coordinates": [ 105.7524859, 20.9955919 ] } },
{ "type": "Feature", "properties": { "id": 9004787833, "name": "Công Ty TNHH Thương mại Việt Trung", "index_right": 90, "district": "Phường Tây Mỗ" }, "geometry": { "type": "Point", "coordinates": [ 105.7510147, 20.9957736 ] } },
{ "type": "Feature", "properties": { "id": 9004787834, "name": "Trước 346-350 đường 72", "index_right": 90, "district": "Phường Tây Mỗ" }, "geometry": { "type": "Point", "coordinates": [ 105.7444474, 20.9956405 ] } },
{ "type": "Feature", "properties": { "id": 9004787835, "name": "Trước số nhà 183 đường 72", "index_right": 90, "district": "Phường Tây Mỗ" }, "geometry": { "type": "Point", "coordinates": [ 105.745099, 20.995684 ] } },
{ "type": "Feature", "properties": { "id": 9004787836, "name": "Số 8 đường 72", "index_right": 90, "district": "Phường Tây Mỗ" }, "geometry": { "type": "Point", "coordinates": [ 105.7387132, 20.9941238 ] } },
{ "type": "Feature", "properties": { "id": 9013469858, "name": "Khu đô thị Geleximco", "index_right": 90, "district": "Phường Tây Mỗ" }, "geometry": { "type": "Point", "coordinates": [ 105.7317448, 21.0069534 ] } },
{ "type": "Feature", "properties": { "id": 9014725466, "name": "Qua ngã tư đường 72 cũ - Lê Trọng Tấn - Hà Đông", "index_right": 90, "district": "Phường Tây Mỗ" }, "geometry": { "type": "Point", "coordinates": [ 105.7354473, 20.995014 ] } },
{ "type": "Feature", "properties": { "id": 9014725468, "name": "Đối diện CV Thiên đường Bảo Sơn", "index_right": 90, "district": "Phường Tây Mỗ" }, "geometry": { "type": "Point", "coordinates": [ 105.7338778, 21.0000886 ] } },
{ "type": "Feature", "properties": { "id": 9320083031, "name": "Điểm đỗ xe buýt Smart City", "index_right": 90, "district": "Phường Tây Mỗ" }, "geometry": { "type": "Point", "coordinates": [ 105.7545191, 21.0048095 ] } },
{ "type": "Feature", "properties": { "id": 9320083033, "name": "Vincom Mega Mall Smart City", "index_right": 90, "district": "Phường Tây Mỗ" }, "geometry": { "type": "Point", "coordinates": [ 105.7532702, 21.0057089 ] } },
{ "type": "Feature", "properties": { "id": 9320083034, "name": "Đối diện Nhà để xe Parking Zone 1", "index_right": 90, "district": "Phường Tây Mỗ" }, "geometry": { "type": "Point", "coordinates": [ 105.743276, 21.0090961 ] } },
{ "type": "Feature", "properties": { "id": 9320083035, "name": "Tòa nhà S4.01", "index_right": 90, "district": "Phường Tây Mỗ" }, "geometry": { "type": "Point", "coordinates": [ 105.7397274, 21.0049205 ] } },
{ "type": "Feature", "properties": { "id": 9320083037, "name": "Tòa nhà S1.06", "index_right": 90, "district": "Phường Tây Mỗ" }, "geometry": { "type": "Point", "coordinates": [ 105.7373456, 21.0082789 ] } },
{ "type": "Feature", "properties": { "id": 9320083038, "name": "Tòa nhà S2.02", "index_right": 90, "district": "Phường Tây Mỗ" }, "geometry": { "type": "Point", "coordinates": [ 105.7389341, 21.007165 ] } },
{ "type": "Feature", "properties": { "id": 9320083040, "name": "Đối diện tòa nhà S4.01", "index_right": 90, "district": "Phường Tây Mỗ" }, "geometry": { "type": "Point", "coordinates": [ 105.7404816, 21.0050636 ] } },
{ "type": "Feature", "properties": { "id": 9320083041, "name": "Nhà để xe Parking Zone 1", "index_right": 90, "district": "Phường Tây Mỗ" }, "geometry": { "type": "Point", "coordinates": [ 105.7427046, 21.0090002 ] } },
{ "type": "Feature", "properties": { "id": 9548712883, "name": "Cầu Ánh Sáng", "index_right": 90, "district": "Phường Tây Mỗ" }, "geometry": { "type": "Point", "coordinates": [ 105.739859, 21.0074706 ] } },
{ "type": "Feature", "properties": { "id": 9548712886, "name": "Trường mầm non Vinschool", "index_right": 90, "district": "Phường Tây Mỗ" }, "geometry": { "type": "Point", "coordinates": [ 105.7370812, 21.0003681 ] } },
{ "type": "Feature", "properties": { "id": 9548712887, "name": "Nhà xe Parking Zone 3", "index_right": 90, "district": "Phường Tây Mỗ" }, "geometry": { "type": "Point", "coordinates": [ 105.7377637, 20.9985549 ] } },
{ "type": "Feature", "properties": { "id": 9548712888, "name": "Tòa nhà I1", "index_right": 90, "district": "Phường Tây Mỗ" }, "geometry": { "type": "Point", "coordinates": [ 105.7398376, 21.0008227 ] } },
{ "type": "Feature", "properties": { "id": 9548712890, "name": "Trường liên cấp Vinschool", "index_right": 90, "district": "Phường Tây Mỗ" }, "geometry": { "type": "Point", "coordinates": [ 105.7384417, 21.0039067 ] } },
{ "type": "Feature", "properties": { "id": 9659882252, "name": "63 Tây Mỗ", "index_right": 90, "district": "Phường Tây Mỗ" }, "geometry": { "type": "Point", "coordinates": [ 105.7509947, 21.0008429 ] } },
{ "type": "Feature", "properties": { "id": 9659882253, "name": "1 Tây Mỗ", "index_right": 90, "district": "Phường Tây Mỗ" }, "geometry": { "type": "Point", "coordinates": [ 105.7501024, 21.0033697 ] } },
{ "type": "Feature", "properties": { "id": 9659882254, "name": "UBND phường Tây Mỗ", "index_right": 90, "district": "Phường Tây Mỗ" }, "geometry": { "type": "Point", "coordinates": [ 105.7488512, 21.0057092 ] } },
{ "type": "Feature", "properties": { "id": 9659882255, "name": "150 Tây Mỗ", "index_right": 90, "district": "Phường Tây Mỗ" }, "geometry": { "type": "Point", "coordinates": [ 105.7503139, 21.0023266 ] } },
{ "type": "Feature", "properties": { "id": 9659882256, "name": "210 Tây Mỗ", "index_right": 90, "district": "Phường Tây Mỗ" }, "geometry": { "type": "Point", "coordinates": [ 105.7508449, 21.0010575 ] } },
{ "type": "Feature", "properties": { "id": 9659882257, "name": "Đối diện 301 Tây Mỗ", "index_right": 90, "district": "Phường Tây Mỗ" }, "geometry": { "type": "Point", "coordinates": [ 105.7525655, 20.9961563 ] } },
{ "type": "Feature", "properties": { "id": 11554362830, "name": "KĐT Vinhome Smart City", "index_right": 90, "district": "Phường Tây Mỗ" }, "geometry": { "type": "Point", "coordinates": [ 105.7348309, 21.0062273 ] } },
{ "type": "Feature", "properties": { "id": 11554362831, "name": "Đối diện Trường Trung học cơ sở Tây Mỗ", "index_right": 90, "district": "Phường Tây Mỗ" }, "geometry": { "type": "Point", "coordinates": [ 105.7448981, 21.0060331 ] } },
{ "type": "Feature", "properties": { "id": 11554362832, "name": "Trường Trung học cơ sở Tây Mỗ", "index_right": 90, "district": "Phường Tây Mỗ" }, "geometry": { "type": "Point", "coordinates": [ 105.744793, 21.0062599 ] } },
{ "type": "Feature", "properties": { "id": 11554362833, "name": "Đường Thiên Phúc - Vinhomes Smart City", "index_right": 90, "district": "Phường Tây Mỗ" }, "geometry": { "type": "Point", "coordinates": [ 105.7351022, 21.0064917 ] } },
{ "type": "Feature", "properties": { "id": 11556081245, "name": "Đối diện Cầu Ánh Sáng", "index_right": 90, "district": "Phường Tây Mỗ" }, "geometry": { "type": "Point", "coordinates": [ 105.7391909, 21.0058748 ] } },
{ "type": "Feature", "properties": { "id": 11556081246, "name": "Đối diện tòa nhà SA2", "index_right": 90, "district": "Phường Tây Mỗ" }, "geometry": { "type": "Point", "coordinates": [ 105.7376353, 21.0036683 ] } },
{ "type": "Feature", "properties": { "id": 11556081247, "name": "Tòa nhà I2", "index_right": 90, "district": "Phường Tây Mỗ" }, "geometry": { "type": "Point", "coordinates": [ 105.7398413, 20.9990413 ] } },
{ "type": "Feature", "properties": { "id": 11556081248, "name": "Bể bơi nội khu S4", "index_right": 90, "district": "Phường Tây Mỗ" }, "geometry": { "type": "Point", "coordinates": [ 105.7406458, 21.0034719 ] } },
{ "type": "Feature", "properties": { "id": 11556081249, "name": "Trường Trung học cơ sở Tây Mỗ", "index_right": 90, "district": "Phường Tây Mỗ" }, "geometry": { "type": "Point", "coordinates": [ 105.7452566, 21.0066613 ] } },
{ "type": "Feature", "properties": { "id": 12579123790, "name": "Khu đô thị Geleximco A - Lê Trọng Tấn", "index_right": 90, "district": "Phường Tây Mỗ" }, "geometry": { "type": "Point", "coordinates": [ 105.7324499, 21.0045767 ] } },
{ "type": "Feature", "properties": { "id": 12717509087, "name": "Đối diện Tòa HH2 FLC Garden City - Đường Nội", "index_right": 90, "district": "Phường Tây Mỗ" }, "geometry": { "type": "Point", "coordinates": [ 105.7548384, 20.9918941 ] } },
{ "type": "Feature", "properties": { "id": 12717509088, "name": "ĐD Siêu Thị Aeon Mall Hà Đông - Đường Nội", "index_right": 90, "district": "Phường Tây Mỗ" }, "geometry": { "type": "Point", "coordinates": [ 105.7515507, 20.9914001 ] } },
{ "type": "Feature", "properties": { "id": 12717509092, "name": "Tòa HH2 FLC Garden City - Đường Nội", "index_right": 90, "district": "Phường Tây Mỗ" }, "geometry": { "type": "Point", "coordinates": [ 105.7555961, 20.9918009 ] } }
]
}
