{
"type": "FeatureCollection",
"name": "Phường_Yên_Sở",
"crs": { "type": "name", "properties": { "name": "urn:ogc:def:crs:OGC:1.3:CRS84" } },
"features": [
{ "type": "Feature", "properties": { "id": 1927591119, "name": "Công ty biến thế ABB - Ngọc Hồi", "index_right": 82, "district": "Phường Yên Sở" }, "geometry": { "type": "Point", "coordinates": [ 105.8428638, 20.9579653 ] } },
{ "type": "Feature", "properties": { "id": 1927591121, "name": "Đối diện 184 Ngọc Hồi", "index_right": 82, "district": "Phường Yên Sở" }, "geometry": { "type": "Point", "coordinates": [ 105.8433554, 20.9555667 ] } },
{ "type": "Feature", "properties": { "id": 5169396322, "name": "Bến xe Nước Ngầm", "index_right": 82, "district": "Phường Yên Sở" }, "geometry": { "type": "Point", "coordinates": [ 105.8421432, 20.9638292 ] } },
{ "type": "Feature", "properties": { "id": 8741080063, "name": "Qua đối diện Công ty Cổ phần Điện Công nghiệp Hà Nội 30m", "index_right": 82, "district": "Phường Yên Sở" }, "geometry": { "type": "Point", "coordinates": [ 105.8450371, 20.9612117 ] } },
{ "type": "Feature", "properties": { "id": 8741080064, "name": "Tòa nhà Nơ 3 - Trần Thủ Độ", "index_right": 82, "district": "Phường Yên Sở" }, "geometry": { "type": "Point", "coordinates": [ 105.8460786, 20.9596425 ] } },
{ "type": "Feature", "properties": { "id": 8741080065, "name": "Nhà No9 KĐT Pháp Vân", "index_right": 82, "district": "Phường Yên Sở" }, "geometry": { "type": "Point", "coordinates": [ 105.8469075, 20.9552852 ] } },
{ "type": "Feature", "properties": { "id": 8741080066, "name": "Bệnh viện Nội tiết Trung ương - cơ sở 2", "index_right": 82, "district": "Phường Yên Sở" }, "geometry": { "type": "Point", "coordinates": [ 105.8498265, 20.9524643 ] } },
{ "type": "Feature", "properties": { "id": 8741080067, "name": "Đối diện nhà No9 KĐT Pháp Vân", "index_right": 82, "district": "Phường Yên Sở" }, "geometry": { "type": "Point", "coordinates": [ 105.8469671, 20.9556181 ] } },
{ "type": "Feature", "properties": { "id": 8741080068, "name": "Công viên khu đô thị Tứ Hiệp Pháp Vân (đối diện tòa nhà Nơ 3) - Trần Thủ Độ", "index_right": 82, "district": "Phường Yên Sở" }, "geometry": { "type": "Point", "coordinates": [ 105.8461593, 20.9598288 ] } },
{ "type": "Feature", "properties": { "id": 8741080069, "name": "Công ty Cổ phần Điện Công nghiệp Hà Nội", "index_right": 82, "district": "Phường Yên Sở" }, "geometry": { "type": "Point", "coordinates": [ 105.8446085, 20.961299 ] } },
{ "type": "Feature", "properties": { "id": 8741080070, "name": "Bến xe Nước Ngầm", "index_right": 82, "district": "Phường Yên Sở" }, "geometry": { "type": "Point", "coordinates": [ 105.8422383, 20.9647577 ] } },
{ "type": "Feature", "properties": { "id": 8741080071, "name": "Công Viên Yên Sở, Hoàng Mai", "index_right": 82, "district": "Phường Yên Sở" }, "geometry": { "type": "Point", "coordinates": [ 105.8520585, 20.9652144 ] } },
{ "type": "Feature", "properties": { "id": 8741080072, "name": "Đường vào KĐT Gamuda", "index_right": 82, "district": "Phường Yên Sở" }, "geometry": { "type": "Point", "coordinates": [ 105.8582618, 20.9641961 ] } },
{ "type": "Feature", "properties": { "id": 8741080073, "name": "Qua đường vào khu tái định cư X2A 30m - đường dẫn cầu Thanh Trì", "index_right": 82, "district": "Phường Yên Sở" }, "geometry": { "type": "Point", "coordinates": [ 105.8637764, 20.96364 ] } },
{ "type": "Feature", "properties": { "id": 8741080074, "name": "Số nhà 15 - Tổ 15 - Phường Yên Sở - Đường dẫn cầu Thanh Trì", "index_right": 82, "district": "Phường Yên Sở" }, "geometry": { "type": "Point", "coordinates": [ 105.8756827, 20.9655418 ] } },
{ "type": "Feature", "properties": { "id": 8751624849, "name": "Gần cầu Trần Thủ Độ", "index_right": 82, "district": "Phường Yên Sở" }, "geometry": { "type": "Point", "coordinates": [ 105.848599, 20.9490725 ] } },
{ "type": "Feature", "properties": { "id": 8849027506, "name": "No 23 KĐT Pháp Vân Tứ Hiệp (Điểm đỗ cuối tuyến 60)", "index_right": 82, "district": "Phường Yên Sở" }, "geometry": { "type": "Point", "coordinates": [ 105.8499093, 20.953469 ] } },
{ "type": "Feature", "properties": { "id": 8849027507, "name": "Đối diện tập thể 810 ngõ 83", "index_right": 82, "district": "Phường Yên Sở" }, "geometry": { "type": "Point", "coordinates": [ 105.844219, 20.9576184 ] } },
{ "type": "Feature", "properties": { "id": 8852120926, "name": "Trạm biến áp Pháp Vân 6", "index_right": 82, "district": "Phường Yên Sở" }, "geometry": { "type": "Point", "coordinates": [ 105.8449404, 20.9576868 ] } },
{ "type": "Feature", "properties": { "id": 8856174806, "name": "TCT cơ điện nông nghiệp & Thủy lợi (Văn Điển) - Ngọc Hồi", "index_right": 82, "district": "Phường Yên Sở" }, "geometry": { "type": "Point", "coordinates": [ 105.8442256, 20.9516806 ] } },
{ "type": "Feature", "properties": { "id": 8930639195, "name": "Đối diện Nhà A5-KĐT Pháp Vân (khu nhà ở sinh viên)", "index_right": 82, "district": "Phường Yên Sở" }, "geometry": { "type": "Point", "coordinates": [ 105.8492209, 20.9592385 ] } },
{ "type": "Feature", "properties": { "id": 8930639211, "name": "Nhà A5-KĐT Pháp Vân (khu nhà ở sinh viên)", "index_right": 82, "district": "Phường Yên Sở" }, "geometry": { "type": "Point", "coordinates": [ 105.849062, 20.9594788 ] } },
{ "type": "Feature", "properties": { "id": 8930639215, "name": "Đối diện No 23 KĐT Pháp Vân Tứ Hiệp (Điểm đỗ cuối tuyến 60)", "index_right": 82, "district": "Phường Yên Sở" }, "geometry": { "type": "Point", "coordinates": [ 105.8500549, 20.9534711 ] } },
{ "type": "Feature", "properties": { "id": 8932663264, "name": "Cổng C Bến xe Nước Ngầm", "index_right": 82, "district": "Phường Yên Sở" }, "geometry": { "type": "Point", "coordinates": [ 105.8431545, 20.9654788 ] } },
{ "type": "Feature", "properties": { "id": 8939177166, "name": "Đối diện bãi đỗ xe Công ty Hino", "index_right": 82, "district": "Phường Yên Sở" }, "geometry": { "type": "Point", "coordinates": [ 105.8481389, 20.958562 ] } },
{ "type": "Feature", "properties": { "id": 8939177167, "name": "Tường rào Công ty Hino (gần tòa nhà sinh viên)", "index_right": 82, "district": "Phường Yên Sở" }, "geometry": { "type": "Point", "coordinates": [ 105.8480346, 20.9584227 ] } },
{ "type": "Feature", "properties": { "id": 11525014917, "name": "Trước ngã 3 vào đường Yên Sở 100 m", "index_right": 82, "district": "Phường Yên Sở" }, "geometry": { "type": "Point", "coordinates": [ 105.8716348, 20.9640732 ] } },
{ "type": "Feature", "properties": { "id": 11525014927, "name": "Bến xe Nước Ngầm", "index_right": 82, "district": "Phường Yên Sở" }, "geometry": { "type": "Point", "coordinates": [ 105.8421105, 20.9647676 ] } },
{ "type": "Feature", "properties": { "id": 12511818443, "name": "Đối diện số 8 Trần Thủ Độ gần Công Viên Trần Thủ Độ", "index_right": 82, "district": "Phường Yên Sở" }, "geometry": { "type": "Point", "coordinates": [ 105.8454775, 20.9633325 ] } },
{ "type": "Feature", "properties": { "id": 12511818450, "name": "Chung Cư Phương Đông Green Park - Trần Thủ Độ", "index_right": 82, "district": "Phường Yên Sở" }, "geometry": { "type": "Point", "coordinates": [ 105.845407, 20.963259 ] } }
]
}
