{
"type": "FeatureCollection",
"name": "Phường_Lĩnh_Nam",
"crs": { "type": "name", "properties": { "name": "urn:ogc:def:crs:OGC:1.3:CRS84" } },
"features": [
{ "type": "Feature", "properties": { "id": 738814891, "name": "Gần UBND phường Trần Phú", "index_right": 83, "district": "Phường Lĩnh Nam" }, "geometry": { "type": "Point", "coordinates": [ 105.8846442, 20.971074 ] } },
{ "type": "Feature", "properties": { "id": 738814891, "name": "Gần UBND phường Trần Phú", "index_right": 84, "district": "Phường Lĩnh Nam" }, "geometry": { "type": "Point", "coordinates": [ 105.8846442, 20.971074 ] } },
{ "type": "Feature", "properties": { "id": 738815756, "name": "Trạm Xe Bus Số 48", "index_right": 83, "district": "Phường Lĩnh Nam" }, "geometry": { "type": "Point", "coordinates": [ 105.8831918, 20.9686394 ] } },
{ "type": "Feature", "properties": { "id": 738815756, "name": "Trạm Xe Bus Số 48", "index_right": 84, "district": "Phường Lĩnh Nam" }, "geometry": { "type": "Point", "coordinates": [ 105.8831918, 20.9686394 ] } },
{ "type": "Feature", "properties": { "id": 8741080075, "name": "Trường mầm non Trần Phú - Tổ 8 - Phường Trần Phú - Đường dẫn cầu Thanh Trì", "index_right": 83, "district": "Phường Lĩnh Nam" }, "geometry": { "type": "Point", "coordinates": [ 105.881644, 20.9725457 ] } },
{ "type": "Feature", "properties": { "id": 8741080075, "name": "Trường mầm non Trần Phú - Tổ 8 - Phường Trần Phú - Đường dẫn cầu Thanh Trì", "index_right": 84, "district": "Phường Lĩnh Nam" }, "geometry": { "type": "Point", "coordinates": [ 105.881644, 20.9725457 ] } },
{ "type": "Feature", "properties": { "id": 8741080076, "name": "Trước Nhà máy nước Đông Dư", "index_right": 83, "district": "Phường Lĩnh Nam" }, "geometry": { "type": "Point", "coordinates": [ 105.8869397, 20.9764812 ] } },
{ "type": "Feature", "properties": { "id": 8741080076, "name": "Trước Nhà máy nước Đông Dư", "index_right": 84, "district": "Phường Lĩnh Nam" }, "geometry": { "type": "Point", "coordinates": [ 105.8869397, 20.9764812 ] } },
{ "type": "Feature", "properties": { "id": 8846358769, "name": "Đối diện Đại học Kinh doanh và Công nghệ Hà Nội", "index_right": 83, "district": "Phường Lĩnh Nam" }, "geometry": { "type": "Point", "coordinates": [ 105.878053, 21.0014378 ] } },
{ "type": "Feature", "properties": { "id": 8846358769, "name": "Đối diện Đại học Kinh doanh và Công nghệ Hà Nội", "index_right": 84, "district": "Phường Lĩnh Nam" }, "geometry": { "type": "Point", "coordinates": [ 105.878053, 21.0014378 ] } },
{ "type": "Feature", "properties": { "id": 11525014918, "name": "Trước ngã 3 Nguyễn Khoái - đường vào thôn Khuyến Lương", "index_right": 83, "district": "Phường Lĩnh Nam" }, "geometry": { "type": "Point", "coordinates": [ 105.8808553, 20.9662005 ] } },
{ "type": "Feature", "properties": { "id": 11525014918, "name": "Trước ngã 3 Nguyễn Khoái - đường vào thôn Khuyến Lương", "index_right": 84, "district": "Phường Lĩnh Nam" }, "geometry": { "type": "Point", "coordinates": [ 105.8808553, 20.9662005 ] } },
{ "type": "Feature", "properties": { "id": 11525014919, "name": "Gần ngã tư Thúy Lĩnh - Đê Hữu Hồng", "index_right": 83, "district": "Phường Lĩnh Nam" }, "geometry": { "type": "Point", "coordinates": [ 105.8904144, 20.9770773 ] } },
{ "type": "Feature", "properties": { "id": 11525014919, "name": "Gần ngã tư Thúy Lĩnh - Đê Hữu Hồng", "index_right": 84, "district": "Phường Lĩnh Nam" }, "geometry": { "type": "Point", "coordinates": [ 105.8904144, 20.9770773 ] } },
{ "type": "Feature", "properties": { "id": 11525014920, "name": "Đối diện Công ty Cổ phần Đầu tư & Bê tông Thịnh Liệt", "index_right": 83, "district": "Phường Lĩnh Nam" }, "geometry": { "type": "Point", "coordinates": [ 105.8946872, 20.9820503 ] } },
{ "type": "Feature", "properties": { "id": 11525014920, "name": "Đối diện Công ty Cổ phần Đầu tư & Bê tông Thịnh Liệt", "index_right": 84, "district": "Phường Lĩnh Nam" }, "geometry": { "type": "Point", "coordinates": [ 105.8946872, 20.9820503 ] } },
{ "type": "Feature", "properties": { "id": 11525014921, "name": "Đối diện Công ty TNHH Dương Quang", "index_right": 83, "district": "Phường Lĩnh Nam" }, "geometry": { "type": "Point", "coordinates": [ 105.8942457, 20.9888289 ] } },
{ "type": "Feature", "properties": { "id": 11525014921, "name": "Đối diện Công ty TNHH Dương Quang", "index_right": 84, "district": "Phường Lĩnh Nam" }, "geometry": { "type": "Point", "coordinates": [ 105.8942457, 20.9888289 ] } },
{ "type": "Feature", "properties": { "id": 11525014922, "name": "Đối diện Trường Tiểu học Thanh Trì", "index_right": 83, "district": "Phường Lĩnh Nam" }, "geometry": { "type": "Point", "coordinates": [ 105.892515, 20.9940017 ] } },
{ "type": "Feature", "properties": { "id": 11525014922, "name": "Đối diện Trường Tiểu học Thanh Trì", "index_right": 84, "district": "Phường Lĩnh Nam" }, "geometry": { "type": "Point", "coordinates": [ 105.892515, 20.9940017 ] } },
{ "type": "Feature", "properties": { "id": 11525014923, "name": "Đối diện Công ty Sứ Thanh Trì", "index_right": 83, "district": "Phường Lĩnh Nam" }, "geometry": { "type": "Point", "coordinates": [ 105.8909693, 20.9971773 ] } },
{ "type": "Feature", "properties": { "id": 11525014923, "name": "Đối diện Công ty Sứ Thanh Trì", "index_right": 84, "district": "Phường Lĩnh Nam" }, "geometry": { "type": "Point", "coordinates": [ 105.8909693, 20.9971773 ] } },
{ "type": "Feature", "properties": { "id": 11525014924, "name": "503 Nguyễn Khoái", "index_right": 83, "district": "Phường Lĩnh Nam" }, "geometry": { "type": "Point", "coordinates": [ 105.8861765, 20.9996097 ] } },
{ "type": "Feature", "properties": { "id": 11525014924, "name": "503 Nguyễn Khoái", "index_right": 84, "district": "Phường Lĩnh Nam" }, "geometry": { "type": "Point", "coordinates": [ 105.8861765, 20.9996097 ] } },
{ "type": "Feature", "properties": { "id": 11525014925, "name": "620 Nguyễn Khoái", "index_right": 83, "district": "Phường Lĩnh Nam" }, "geometry": { "type": "Point", "coordinates": [ 105.8804238, 21.0008932 ] } },
{ "type": "Feature", "properties": { "id": 11525014925, "name": "620 Nguyễn Khoái", "index_right": 84, "district": "Phường Lĩnh Nam" }, "geometry": { "type": "Point", "coordinates": [ 105.8804238, 21.0008932 ] } },
{ "type": "Feature", "properties": { "id": 11527164032, "name": "Công ty CP Đầu tư & Bê tông Thịnh Liệt", "index_right": 83, "district": "Phường Lĩnh Nam" }, "geometry": { "type": "Point", "coordinates": [ 105.8946334, 20.9823018 ] } },
{ "type": "Feature", "properties": { "id": 11527164032, "name": "Công ty CP Đầu tư & Bê tông Thịnh Liệt", "index_right": 84, "district": "Phường Lĩnh Nam" }, "geometry": { "type": "Point", "coordinates": [ 105.8946334, 20.9823018 ] } }
]
}
