{
"type": "FeatureCollection",
"name": "Phường_Thanh_Xuân",
"crs": { "type": "name", "properties": { "name": "urn:ogc:def:crs:OGC:1.3:CRS84" } },
"features": [
{ "type": "Feature", "properties": { "id": 444394752, "name": "Tòa nhà King Palace - 108 Nguyễn Trãi", "index_right": 60, "district": "Phường Thanh Xuân" }, "geometry": { "type": "Point", "coordinates": [ 105.8151131, 20.9998526 ] } },
{ "type": "Feature", "properties": { "id": 444394994, "name": "Bách hóa Thanh Xuân - đường Nguyễn Trãi", "index_right": 60, "district": "Phường Thanh Xuân" }, "geometry": { "type": "Point", "coordinates": [ 105.8015185, 20.9905204 ] } },
{ "type": "Feature", "properties": { "id": 444394999, "name": "386 Nguyễn Trãi - Cục Sở hữu Trí tuệ", "index_right": 60, "district": "Phường Thanh Xuân" }, "geometry": { "type": "Point", "coordinates": [ 105.8056706, 20.9934876 ] } },
{ "type": "Feature", "properties": { "id": 444395014, "name": "322 Nguyễn Trãi", "index_right": 60, "district": "Phường Thanh Xuân" }, "geometry": { "type": "Point", "coordinates": [ 105.8091509, 20.995901 ] } },
{ "type": "Feature", "properties": { "id": 738813335, "name": "21T2 Vũ Trọng Phụng", "index_right": 60, "district": "Phường Thanh Xuân" }, "geometry": { "type": "Point", "coordinates": [ 105.8066615, 21.0012912 ] } },
{ "type": "Feature", "properties": { "id": 738813593, "name": "90 Nguyễn Tuân", "index_right": 60, "district": "Phường Thanh Xuân" }, "geometry": { "type": "Point", "coordinates": [ 105.8055336, 20.9957323 ] } },
{ "type": "Feature", "properties": { "id": 738813733, "name": "Chợ Thượng Đình - 224 Nguyễn Trãi", "index_right": 60, "district": "Phường Thanh Xuân" }, "geometry": { "type": "Point", "coordinates": [ 105.8119587, 20.9977522 ] } },
{ "type": "Feature", "properties": { "id": 738813826, "name": "Đối diện nhà N2E Khu đô thị Trung Hòa Nhân Chính", "index_right": 60, "district": "Phường Thanh Xuân" }, "geometry": { "type": "Point", "coordinates": [ 105.8010978, 21.002627 ] } },
{ "type": "Feature", "properties": { "id": 738813831, "name": "57 Vũ Trọng Phụng", "index_right": 60, "district": "Phường Thanh Xuân" }, "geometry": { "type": "Point", "coordinates": [ 105.808979, 20.998413 ] } },
{ "type": "Feature", "properties": { "id": 7617390946, "name": "Làng sinh viên Hacinco", "index_right": 60, "district": "Phường Thanh Xuân" }, "geometry": { "type": "Point", "coordinates": [ 105.801946, 21.0002225 ] } },
{ "type": "Feature", "properties": { "id": 7622910383, "name": "Đối diện nhà N2A Khu đô thị Trung Hòa Nhân Chính", "index_right": 60, "district": "Phường Thanh Xuân" }, "geometry": { "type": "Point", "coordinates": [ 105.7995099, 21.0031418 ] } },
{ "type": "Feature", "properties": { "id": 7622915971, "name": "Trường THPT Nhân Chính - Hoàng Đạo Thúy", "index_right": 60, "district": "Phường Thanh Xuân" }, "geometry": { "type": "Point", "coordinates": [ 105.8065074, 21.0040235 ] } },
{ "type": "Feature", "properties": { "id": 8237661953, "name": "Nhà chờ Hoàng Đạo Thúy", "index_right": 60, "district": "Phường Thanh Xuân" }, "geometry": { "type": "Point", "coordinates": [ 105.8056767, 21.0059904 ] } },
{ "type": "Feature", "properties": { "id": 8237661954, "name": "Nhà chờ Nguyễn Tuân", "index_right": 60, "district": "Phường Thanh Xuân" }, "geometry": { "type": "Point", "coordinates": [ 105.8008074, 21.0025745 ] } },
{ "type": "Feature", "properties": { "id": 8237661955, "name": "Nhà chờ Khuất Duy Tiến", "index_right": 60, "district": "Phường Thanh Xuân" }, "geometry": { "type": "Point", "coordinates": [ 105.7945228, 20.9977708 ] } },
{ "type": "Feature", "properties": { "id": 8755733283, "name": "Qua cổng chính nghĩa trang Quán Dền - Nguyễn Tuân", "index_right": 60, "district": "Phường Thanh Xuân" }, "geometry": { "type": "Point", "coordinates": [ 105.800801, 21.0014918 ] } },
{ "type": "Feature", "properties": { "id": 8755733284, "name": "Viện Khoa học Hình sự - 99 Nguyễn Tuân", "index_right": 60, "district": "Phường Thanh Xuân" }, "geometry": { "type": "Point", "coordinates": [ 105.8048088, 20.9964155 ] } },
{ "type": "Feature", "properties": { "id": 8838269678, "name": "Đối diện 63 Giáp Nhất", "index_right": 60, "district": "Phường Thanh Xuân" }, "geometry": { "type": "Point", "coordinates": [ 105.8173828, 21.0028013 ] } },
{ "type": "Feature", "properties": { "id": 8838269679, "name": "Đối diện 227 Giáp Nhất", "index_right": 60, "district": "Phường Thanh Xuân" }, "geometry": { "type": "Point", "coordinates": [ 105.8145159, 21.0077767 ] } },
{ "type": "Feature", "properties": { "id": 8840893886, "name": "Số nhà 225 đường Giáp Nhất", "index_right": 60, "district": "Phường Thanh Xuân" }, "geometry": { "type": "Point", "coordinates": [ 105.8143814, 21.0077879 ] } },
{ "type": "Feature", "properties": { "id": 8840893887, "name": "21 Đường Giáp Nhất", "index_right": 60, "district": "Phường Thanh Xuân" }, "geometry": { "type": "Point", "coordinates": [ 105.8174656, 21.0024735 ] } },
{ "type": "Feature", "properties": { "id": 8939177168, "name": "90 Khuất Duy Tiến", "index_right": 60, "district": "Phường Thanh Xuân" }, "geometry": { "type": "Point", "coordinates": [ 105.8002281, 20.995703 ] } },
{ "type": "Feature", "properties": { "id": 8939177169, "name": "162 Khuất Duy Tiến (đối diện khu dân cư 11 - Tổ dân phố 32 phường Thanh Xuân Bắc)", "index_right": 60, "district": "Phường Thanh Xuân" }, "geometry": { "type": "Point", "coordinates": [ 105.7982521, 20.9982923 ] } },
{ "type": "Feature", "properties": { "id": 8939177171, "name": "39-41 Khuất Duy Tiến", "index_right": 60, "district": "Phường Thanh Xuân" }, "geometry": { "type": "Point", "coordinates": [ 105.7977888, 20.9978971 ] } },
{ "type": "Feature", "properties": { "id": 8939177172, "name": "Quận uỷ Thanh Xuân - Số 9 Khuất Duy Tiến", "index_right": 60, "district": "Phường Thanh Xuân" }, "geometry": { "type": "Point", "coordinates": [ 105.8003269, 20.9946956 ] } },
{ "type": "Feature", "properties": { "id": 9019312705, "name": "Công trình cảnh quan Công viên Hồ Phùng Khoang", "index_right": 60, "district": "Phường Thanh Xuân" }, "geometry": { "type": "Point", "coordinates": [ 105.7918411, 20.9957242 ] } },
{ "type": "Feature", "properties": { "id": 9342635857, "name": "23 Lê Văn Lương", "index_right": 60, "district": "Phường Thanh Xuân" }, "geometry": { "type": "Point", "coordinates": [ 105.8062514, 21.0062483 ] } },
{ "type": "Feature", "properties": { "id": 9342635858, "name": "33 Lê Văn Lương", "index_right": 60, "district": "Phường Thanh Xuân" }, "geometry": { "type": "Point", "coordinates": [ 105.808123, 21.0075295 ] } },
{ "type": "Feature", "properties": { "id": 10807909703, "name": "Không tên", "index_right": 60, "district": "Phường Thanh Xuân" }, "geometry": { "type": "Point", "coordinates": [ 105.8061717, 21.0023477 ] } },
{ "type": "Feature", "properties": { "id": 11536511328, "name": "Trước chung cư HH2 Bắc Hà 70m", "index_right": 60, "district": "Phường Thanh Xuân" }, "geometry": { "type": "Point", "coordinates": [ 105.7940526, 20.9972763 ] } },
{ "type": "Feature", "properties": { "id": 11554362845, "name": "Royal City R1", "index_right": 60, "district": "Phường Thanh Xuân" }, "geometry": { "type": "Point", "coordinates": [ 105.8146381, 21.0038511 ] } },
{ "type": "Feature", "properties": { "id": 11554362846, "name": "Cổng Vũ Môn - TTTM", "index_right": 60, "district": "Phường Thanh Xuân" }, "geometry": { "type": "Point", "coordinates": [ 105.8164872, 21.0009181 ] } },
{ "type": "Feature", "properties": { "id": 12549076369, "name": "Trường Đại học Công Thương Hà Nội - Vũ Trọng Phụng", "index_right": 60, "district": "Phường Thanh Xuân" }, "geometry": { "type": "Point", "coordinates": [ 105.8089583, 20.9985256 ] } },
{ "type": "Feature", "properties": { "id": 12549076370, "name": "Chợ Nhân Chính - Vũ Trọng Phụng", "index_right": 60, "district": "Phường Thanh Xuân" }, "geometry": { "type": "Point", "coordinates": [ 105.8061777, 21.0023075 ] } },
{ "type": "Feature", "properties": { "id": 12549076371, "name": "118 Hoàng Đạo Thuý", "index_right": 60, "district": "Phường Thanh Xuân" }, "geometry": { "type": "Point", "coordinates": [ 105.8063065, 21.0043381 ] } }
]
}
