{
"type": "FeatureCollection",
"name": "Phường_Dương_Nội",
"crs": { "type": "name", "properties": { "name": "urn:ogc:def:crs:OGC:1.3:CRS84" } },
"features": [
{ "type": "Feature", "properties": { "id": 8237661964, "name": "Nhà chờ KĐT Park City", "index_right": 91, "district": "Phường Dương Nội" }, "geometry": { "type": "Point", "coordinates": [ 105.7554593, 20.9676805 ] } },
{ "type": "Feature", "properties": { "id": 8237661964, "name": "Nhà chờ KĐT Park City", "index_right": 92, "district": "Phường Dương Nội" }, "geometry": { "type": "Point", "coordinates": [ 105.7554593, 20.9676805 ] } },
{ "type": "Feature", "properties": { "id": 8237661965, "name": "Nhà chờ La Khê", "index_right": 91, "district": "Phường Dương Nội" }, "geometry": { "type": "Point", "coordinates": [ 105.7595464, 20.9654082 ] } },
{ "type": "Feature", "properties": { "id": 8237661965, "name": "Nhà chờ La Khê", "index_right": 92, "district": "Phường Dương Nội" }, "geometry": { "type": "Point", "coordinates": [ 105.7595464, 20.9654082 ] } },
{ "type": "Feature", "properties": { "id": 8237661966, "name": "Nhà chờ Văn Phú", "index_right": 91, "district": "Phường Dương Nội" }, "geometry": { "type": "Point", "coordinates": [ 105.7640737, 20.9628298 ] } },
{ "type": "Feature", "properties": { "id": 8237661966, "name": "Nhà chờ Văn Phú", "index_right": 92, "district": "Phường Dương Nội" }, "geometry": { "type": "Point", "coordinates": [ 105.7640737, 20.9628298 ] } },
{ "type": "Feature", "properties": { "id": 8770675684, "name": "Giữa số 428 - 430 Quang Trung (Hà Đông)", "index_right": 91, "district": "Phường Dương Nội" }, "geometry": { "type": "Point", "coordinates": [ 105.7643706, 20.9621001 ] } },
{ "type": "Feature", "properties": { "id": 8770675684, "name": "Giữa số 428 - 430 Quang Trung (Hà Đông)", "index_right": 92, "district": "Phường Dương Nội" }, "geometry": { "type": "Point", "coordinates": [ 105.7643706, 20.9621001 ] } },
{ "type": "Feature", "properties": { "id": 8770675685, "name": "530-532 Quang Trung - Hà Đông", "index_right": 91, "district": "Phường Dương Nội" }, "geometry": { "type": "Point", "coordinates": [ 105.7616027, 20.9599618 ] } },
{ "type": "Feature", "properties": { "id": 8770675685, "name": "530-532 Quang Trung - Hà Đông", "index_right": 92, "district": "Phường Dương Nội" }, "geometry": { "type": "Point", "coordinates": [ 105.7616027, 20.9599618 ] } },
{ "type": "Feature", "properties": { "id": 8770739141, "name": "678 - 680 Quang Trung (Hà Đông)", "index_right": 91, "district": "Phường Dương Nội" }, "geometry": { "type": "Point", "coordinates": [ 105.7592392, 20.9581152 ] } },
{ "type": "Feature", "properties": { "id": 8770739141, "name": "678 - 680 Quang Trung (Hà Đông)", "index_right": 92, "district": "Phường Dương Nội" }, "geometry": { "type": "Point", "coordinates": [ 105.7592392, 20.9581152 ] } },
{ "type": "Feature", "properties": { "id": 8845983490, "name": "Gần đường vào Khu đô thị Dương Nội", "index_right": 91, "district": "Phường Dương Nội" }, "geometry": { "type": "Point", "coordinates": [ 105.7623465, 20.9768358 ] } },
{ "type": "Feature", "properties": { "id": 8845983490, "name": "Gần đường vào Khu đô thị Dương Nội", "index_right": 92, "district": "Phường Dương Nội" }, "geometry": { "type": "Point", "coordinates": [ 105.7623465, 20.9768358 ] } },
{ "type": "Feature", "properties": { "id": 8845983491, "name": "Nhà chờ gần Nam Cường Building", "index_right": 91, "district": "Phường Dương Nội" }, "geometry": { "type": "Point", "coordinates": [ 105.7595383, 20.9747618 ] } },
{ "type": "Feature", "properties": { "id": 8845983491, "name": "Nhà chờ gần Nam Cường Building", "index_right": 92, "district": "Phường Dương Nội" }, "geometry": { "type": "Point", "coordinates": [ 105.7595383, 20.9747618 ] } },
{ "type": "Feature", "properties": { "id": 8845983492, "name": "Nhà chờ gần đường vào Khu đô thị An Hưng", "index_right": 91, "district": "Phường Dương Nội" }, "geometry": { "type": "Point", "coordinates": [ 105.7576242, 20.9732548 ] } },
{ "type": "Feature", "properties": { "id": 8845983492, "name": "Nhà chờ gần đường vào Khu đô thị An Hưng", "index_right": 92, "district": "Phường Dương Nội" }, "geometry": { "type": "Point", "coordinates": [ 105.7576242, 20.9732548 ] } },
{ "type": "Feature", "properties": { "id": 8845983493, "name": "Qua 100m cầu La Khê", "index_right": 91, "district": "Phường Dương Nội" }, "geometry": { "type": "Point", "coordinates": [ 105.754716, 20.9705773 ] } },
{ "type": "Feature", "properties": { "id": 8845983493, "name": "Qua 100m cầu La Khê", "index_right": 92, "district": "Phường Dương Nội" }, "geometry": { "type": "Point", "coordinates": [ 105.754716, 20.9705773 ] } },
{ "type": "Feature", "properties": { "id": 8845983494, "name": "Nghĩa trang La Khê", "index_right": 91, "district": "Phường Dương Nội" }, "geometry": { "type": "Point", "coordinates": [ 105.7519246, 20.9662433 ] } },
{ "type": "Feature", "properties": { "id": 8845983494, "name": "Nghĩa trang La Khê", "index_right": 92, "district": "Phường Dương Nội" }, "geometry": { "type": "Point", "coordinates": [ 105.7519246, 20.9662433 ] } },
{ "type": "Feature", "properties": { "id": 8846689632, "name": "Nhà chờ đối diện cổng The Sparks Nam Cường", "index_right": 91, "district": "Phường Dương Nội" }, "geometry": { "type": "Point", "coordinates": [ 105.7484298, 20.9628509 ] } },
{ "type": "Feature", "properties": { "id": 8846689632, "name": "Nhà chờ đối diện cổng The Sparks Nam Cường", "index_right": 92, "district": "Phường Dương Nội" }, "geometry": { "type": "Point", "coordinates": [ 105.7484298, 20.9628509 ] } },
{ "type": "Feature", "properties": { "id": 8846689633, "name": "Đối diện nghĩa trang La Khê", "index_right": 91, "district": "Phường Dương Nội" }, "geometry": { "type": "Point", "coordinates": [ 105.7525082, 20.9665992 ] } },
{ "type": "Feature", "properties": { "id": 8846689633, "name": "Đối diện nghĩa trang La Khê", "index_right": 92, "district": "Phường Dương Nội" }, "geometry": { "type": "Point", "coordinates": [ 105.7525082, 20.9665992 ] } },
{ "type": "Feature", "properties": { "id": 8939177163, "name": "870 Quang Trung - Ga Văn Khê", "index_right": 91, "district": "Phường Dương Nội" }, "geometry": { "type": "Point", "coordinates": [ 105.7558245, 20.9555787 ] } },
{ "type": "Feature", "properties": { "id": 8939177163, "name": "870 Quang Trung - Ga Văn Khê", "index_right": 92, "district": "Phường Dương Nội" }, "geometry": { "type": "Point", "coordinates": [ 105.7558245, 20.9555787 ] } },
{ "type": "Feature", "properties": { "id": 8943744750, "name": "Cầu vượt đi bộ Park City", "index_right": 91, "district": "Phường Dương Nội" }, "geometry": { "type": "Point", "coordinates": [ 105.7554985, 20.9674745 ] } },
{ "type": "Feature", "properties": { "id": 8943744750, "name": "Cầu vượt đi bộ Park City", "index_right": 92, "district": "Phường Dương Nội" }, "geometry": { "type": "Point", "coordinates": [ 105.7554985, 20.9674745 ] } },
{ "type": "Feature", "properties": { "id": 8943744751, "name": "Đối diện đường vào Chùa Bia Bà", "index_right": 91, "district": "Phường Dương Nội" }, "geometry": { "type": "Point", "coordinates": [ 105.7593502, 20.965398 ] } },
{ "type": "Feature", "properties": { "id": 8943744751, "name": "Đối diện đường vào Chùa Bia Bà", "index_right": 92, "district": "Phường Dương Nội" }, "geometry": { "type": "Point", "coordinates": [ 105.7593502, 20.965398 ] } },
{ "type": "Feature", "properties": { "id": 8944376751, "name": "Tòa nhà CT7F The Sparks Nam Cường", "index_right": 91, "district": "Phường Dương Nội" }, "geometry": { "type": "Point", "coordinates": [ 105.7476031, 20.9626902 ] } },
{ "type": "Feature", "properties": { "id": 8944376751, "name": "Tòa nhà CT7F The Sparks Nam Cường", "index_right": 92, "district": "Phường Dương Nội" }, "geometry": { "type": "Point", "coordinates": [ 105.7476031, 20.9626902 ] } },
{ "type": "Feature", "properties": { "id": 9004787837, "name": "Trước số nhà 35 đường 72", "index_right": 91, "district": "Phường Dương Nội" }, "geometry": { "type": "Point", "coordinates": [ 105.7396682, 20.9942723 ] } },
{ "type": "Feature", "properties": { "id": 9004787837, "name": "Trước số nhà 35 đường 72", "index_right": 92, "district": "Phường Dương Nội" }, "geometry": { "type": "Point", "coordinates": [ 105.7396682, 20.9942723 ] } },
{ "type": "Feature", "properties": { "id": 9004787839, "name": "Quỹ tín dụng nhân dân Dương Nội", "index_right": 91, "district": "Phường Dương Nội" }, "geometry": { "type": "Point", "coordinates": [ 105.734806, 20.9930152 ] } },
{ "type": "Feature", "properties": { "id": 9004787839, "name": "Quỹ tín dụng nhân dân Dương Nội", "index_right": 92, "district": "Phường Dương Nội" }, "geometry": { "type": "Point", "coordinates": [ 105.734806, 20.9930152 ] } },
{ "type": "Feature", "properties": { "id": 9014725458, "name": "Nhà máy SYM Hà Đông", "index_right": 91, "district": "Phường Dương Nội" }, "geometry": { "type": "Point", "coordinates": [ 105.7514195, 20.9700856 ] } },
{ "type": "Feature", "properties": { "id": 9014725458, "name": "Nhà máy SYM Hà Đông", "index_right": 92, "district": "Phường Dương Nội" }, "geometry": { "type": "Point", "coordinates": [ 105.7514195, 20.9700856 ] } },
{ "type": "Feature", "properties": { "id": 9014725459, "name": "Đối diện Nhà máy Sym Hà Đông", "index_right": 91, "district": "Phường Dương Nội" }, "geometry": { "type": "Point", "coordinates": [ 105.7512564, 20.9698676 ] } },
{ "type": "Feature", "properties": { "id": 9014725459, "name": "Đối diện Nhà máy Sym Hà Đông", "index_right": 92, "district": "Phường Dương Nội" }, "geometry": { "type": "Point", "coordinates": [ 105.7512564, 20.9698676 ] } },
{ "type": "Feature", "properties": { "id": 9014725460, "name": "Ngõ 534 Lê Trọng Tấn - Hà Đông", "index_right": 91, "district": "Phường Dương Nội" }, "geometry": { "type": "Point", "coordinates": [ 105.7472431, 20.9766101 ] } },
{ "type": "Feature", "properties": { "id": 9014725460, "name": "Ngõ 534 Lê Trọng Tấn - Hà Đông", "index_right": 92, "district": "Phường Dương Nội" }, "geometry": { "type": "Point", "coordinates": [ 105.7472431, 20.9766101 ] } },
{ "type": "Feature", "properties": { "id": 9014725461, "name": "Đối diện Ngõ 534 Lê Trọng Tấn - Hà Đông", "index_right": 91, "district": "Phường Dương Nội" }, "geometry": { "type": "Point", "coordinates": [ 105.746924, 20.9766696 ] } },
{ "type": "Feature", "properties": { "id": 9014725461, "name": "Đối diện Ngõ 534 Lê Trọng Tấn - Hà Đông", "index_right": 92, "district": "Phường Dương Nội" }, "geometry": { "type": "Point", "coordinates": [ 105.746924, 20.9766696 ] } },
{ "type": "Feature", "properties": { "id": 9014725462, "name": "Ngõ Chùa Phổ Quang", "index_right": 91, "district": "Phường Dương Nội" }, "geometry": { "type": "Point", "coordinates": [ 105.7431548, 20.9814466 ] } },
{ "type": "Feature", "properties": { "id": 9014725462, "name": "Ngõ Chùa Phổ Quang", "index_right": 92, "district": "Phường Dương Nội" }, "geometry": { "type": "Point", "coordinates": [ 105.7431548, 20.9814466 ] } },
{ "type": "Feature", "properties": { "id": 9014725463, "name": "Đối diện Ngõ Chùa Phổ Quang", "index_right": 91, "district": "Phường Dương Nội" }, "geometry": { "type": "Point", "coordinates": [ 105.7420037, 20.9820632 ] } },
{ "type": "Feature", "properties": { "id": 9014725463, "name": "Đối diện Ngõ Chùa Phổ Quang", "index_right": 92, "district": "Phường Dương Nội" }, "geometry": { "type": "Point", "coordinates": [ 105.7420037, 20.9820632 ] } },
{ "type": "Feature", "properties": { "id": 9014725464, "name": "Gần đường vào trường Tiểu học Dương Nội - Lê Trọng Tấn - Hà Đông", "index_right": 91, "district": "Phường Dương Nội" }, "geometry": { "type": "Point", "coordinates": [ 105.7372493, 20.9897841 ] } },
{ "type": "Feature", "properties": { "id": 9014725464, "name": "Gần đường vào trường Tiểu học Dương Nội - Lê Trọng Tấn - Hà Đông", "index_right": 92, "district": "Phường Dương Nội" }, "geometry": { "type": "Point", "coordinates": [ 105.7372493, 20.9897841 ] } },
{ "type": "Feature", "properties": { "id": 9014725465, "name": "Đối diện đường vào trường Tiểu học Dương Nội - Lê Trọng Tấn - Hà Đông", "index_right": 91, "district": "Phường Dương Nội" }, "geometry": { "type": "Point", "coordinates": [ 105.7368921, 20.9897033 ] } },
{ "type": "Feature", "properties": { "id": 9014725465, "name": "Đối diện đường vào trường Tiểu học Dương Nội - Lê Trọng Tấn - Hà Đông", "index_right": 92, "district": "Phường Dương Nội" }, "geometry": { "type": "Point", "coordinates": [ 105.7368921, 20.9897033 ] } },
{ "type": "Feature", "properties": { "id": 12717509089, "name": "Đối diện trường tiểu học Trần Quốc Toản", "index_right": 91, "district": "Phường Dương Nội" }, "geometry": { "type": "Point", "coordinates": [ 105.7446918, 20.9890359 ] } },
{ "type": "Feature", "properties": { "id": 12717509089, "name": "Đối diện trường tiểu học Trần Quốc Toản", "index_right": 92, "district": "Phường Dương Nội" }, "geometry": { "type": "Point", "coordinates": [ 105.7446918, 20.9890359 ] } },
{ "type": "Feature", "properties": { "id": 12717509090, "name": "Trường tiểu học Trần Quốc Toản", "index_right": 91, "district": "Phường Dương Nội" }, "geometry": { "type": "Point", "coordinates": [ 105.744843, 20.9888518 ] } },
{ "type": "Feature", "properties": { "id": 12717509090, "name": "Trường tiểu học Trần Quốc Toản", "index_right": 92, "district": "Phường Dương Nội" }, "geometry": { "type": "Point", "coordinates": [ 105.744843, 20.9888518 ] } },
{ "type": "Feature", "properties": { "id": 12717509091, "name": "Siêu Thị Aeon Mall Hà Đông - Đường Nội", "index_right": 91, "district": "Phường Dương Nội" }, "geometry": { "type": "Point", "coordinates": [ 105.751977, 20.9913088 ] } },
{ "type": "Feature", "properties": { "id": 12717509091, "name": "Siêu Thị Aeon Mall Hà Đông - Đường Nội", "index_right": 92, "district": "Phường Dương Nội" }, "geometry": { "type": "Point", "coordinates": [ 105.751977, 20.9913088 ] } },
{ "type": "Feature", "properties": { "id": 13127898090, "name": "Đường vào An Vương Villa - đường Nguyễn Văn Luyện", "index_right": 91, "district": "Phường Dương Nội" }, "geometry": { "type": "Point", "coordinates": [ 105.7535386, 20.9868 ] } },
{ "type": "Feature", "properties": { "id": 13127898090, "name": "Đường vào An Vương Villa - đường Nguyễn Văn Luyện", "index_right": 92, "district": "Phường Dương Nội" }, "geometry": { "type": "Point", "coordinates": [ 105.7535386, 20.9868 ] } },
{ "type": "Feature", "properties": { "id": 13127898091, "name": "Công viên Thiên văn học - đường Nguyễn Văn Luyện", "index_right": 91, "district": "Phường Dương Nội" }, "geometry": { "type": "Point", "coordinates": [ 105.7595161, 20.9809604 ] } },
{ "type": "Feature", "properties": { "id": 13127898091, "name": "Công viên Thiên văn học - đường Nguyễn Văn Luyện", "index_right": 92, "district": "Phường Dương Nội" }, "geometry": { "type": "Point", "coordinates": [ 105.7595161, 20.9809604 ] } }
]
}
