{
"type": "FeatureCollection",
"name": "Phường_Đại_Mỗ",
"crs": { "type": "name", "properties": { "name": "urn:ogc:def:crs:OGC:1.3:CRS84" } },
"features": [
{ "type": "Feature", "properties": { "id": 444394979, "name": "216 Nguyễn Trãi - Nhà Văn hóa tổ dân phố số 8 & 9 Phường Trung Văn", "index_right": 78, "district": "Phường Đại Mỗ" }, "geometry": { "type": "Point", "coordinates": [ 105.7977904, 20.9878864 ] } },
{ "type": "Feature", "properties": { "id": 8237661956, "name": "Nhà chờ Lương Thế Vinh", "index_right": 78, "district": "Phường Đại Mỗ" }, "geometry": { "type": "Point", "coordinates": [ 105.7909434, 20.9953363 ] } },
{ "type": "Feature", "properties": { "id": 8237661957, "name": "Nhà chờ Trung Văn", "index_right": 78, "district": "Phường Đại Mỗ" }, "geometry": { "type": "Point", "coordinates": [ 105.7836792, 20.9909182 ] } },
{ "type": "Feature", "properties": { "id": 8237661958, "name": "Nhà chờ Mỗ Lao", "index_right": 78, "district": "Phường Đại Mỗ" }, "geometry": { "type": "Point", "coordinates": [ 105.779352, 20.9879074 ] } },
{ "type": "Feature", "properties": { "id": 8770675677, "name": "Công ty CP Công trình GT 873 - Nguyễn Trãi", "index_right": 78, "district": "Phường Đại Mỗ" }, "geometry": { "type": "Point", "coordinates": [ 105.794904, 20.9858628 ] } },
{ "type": "Feature", "properties": { "id": 8808913250, "name": "Trước ngã ba phố Sa Đôi", "index_right": 78, "district": "Phường Đại Mỗ" }, "geometry": { "type": "Point", "coordinates": [ 105.7676587, 21.0047487 ] } },
{ "type": "Feature", "properties": { "id": 8939177170, "name": "246 Khuất Duy Tiến", "index_right": 78, "district": "Phường Đại Mỗ" }, "geometry": { "type": "Point", "coordinates": [ 105.7934435, 21.003289 ] } },
{ "type": "Feature", "properties": { "id": 8943684251, "name": "105 Cương Kiên", "index_right": 78, "district": "Phường Đại Mỗ" }, "geometry": { "type": "Point", "coordinates": [ 105.780531, 20.9988323 ] } },
{ "type": "Feature", "properties": { "id": 8943684252, "name": "Đối diện 105 Cương Kiên", "index_right": 78, "district": "Phường Đại Mỗ" }, "geometry": { "type": "Point", "coordinates": [ 105.7798952, 20.9972759 ] } },
{ "type": "Feature", "properties": { "id": 8943684253, "name": "Khu đô thị Trung Văn", "index_right": 78, "district": "Phường Đại Mỗ" }, "geometry": { "type": "Point", "coordinates": [ 105.7786764, 20.9955812 ] } },
{ "type": "Feature", "properties": { "id": 8943684255, "name": "Trước tòa nhà 17T1 đường Cương Kiên", "index_right": 78, "district": "Phường Đại Mỗ" }, "geometry": { "type": "Point", "coordinates": [ 105.7785908, 20.9950805 ] } },
{ "type": "Feature", "properties": { "id": 8943684256, "name": "Đối diện tòa nhà 17T1 đường Cương Kiên", "index_right": 78, "district": "Phường Đại Mỗ" }, "geometry": { "type": "Point", "coordinates": [ 105.7784954, 20.9952881 ] } },
{ "type": "Feature", "properties": { "id": 9004787821, "name": "Ngã 3 Ngọc Trục - Đại Mỗ", "index_right": 78, "district": "Phường Đại Mỗ" }, "geometry": { "type": "Point", "coordinates": [ 105.7681792, 20.985746 ] } },
{ "type": "Feature", "properties": { "id": 9004787822, "name": "Ngã 3 Ngọc Trục - Ngọc Đại", "index_right": 78, "district": "Phường Đại Mỗ" }, "geometry": { "type": "Point", "coordinates": [ 105.7683662, 20.9852728 ] } },
{ "type": "Feature", "properties": { "id": 9004787823, "name": "Đối diện 167 Ngọc Đại - Trường Trung học cơ sở Đại Mỗ", "index_right": 78, "district": "Phường Đại Mỗ" }, "geometry": { "type": "Point", "coordinates": [ 105.7664394, 20.9880549 ] } },
{ "type": "Feature", "properties": { "id": 9004787824, "name": "Đối diện Trường Trung học cơ sở Đại Mỗ", "index_right": 78, "district": "Phường Đại Mỗ" }, "geometry": { "type": "Point", "coordinates": [ 105.7658753, 20.988577 ] } },
{ "type": "Feature", "properties": { "id": 9004787825, "name": "Số 40-42 Liên Cơ - Đại Mỗ", "index_right": 78, "district": "Phường Đại Mỗ" }, "geometry": { "type": "Point", "coordinates": [ 105.7640761, 20.9902827 ] } },
{ "type": "Feature", "properties": { "id": 9004787826, "name": "Đối diện 80 Đại Mỗ", "index_right": 78, "district": "Phường Đại Mỗ" }, "geometry": { "type": "Point", "coordinates": [ 105.763443, 20.9907719 ] } },
{ "type": "Feature", "properties": { "id": 9004787827, "name": "Số 178 Đại Mỗ - Khu biệt thự Viglacera Đại Mỗ", "index_right": 78, "district": "Phường Đại Mỗ" }, "geometry": { "type": "Point", "coordinates": [ 105.7621183, 20.9923787 ] } },
{ "type": "Feature", "properties": { "id": 9004787828, "name": "Đối diện 190 Đại Mỗ", "index_right": 78, "district": "Phường Đại Mỗ" }, "geometry": { "type": "Point", "coordinates": [ 105.7613053, 20.992974 ] } },
{ "type": "Feature", "properties": { "id": 9013469859, "name": "Qua 100m ngã 3 Đại lộ Thăng Long-Lê Quang Đạo", "index_right": 78, "district": "Phường Đại Mỗ" }, "geometry": { "type": "Point", "coordinates": [ 105.7748632, 21.0032539 ] } },
{ "type": "Feature", "properties": { "id": 9013469860, "name": "Công ty Viễn thông Viettel", "index_right": 78, "district": "Phường Đại Mỗ" }, "geometry": { "type": "Point", "coordinates": [ 105.7807486, 21.0019871 ] } },
{ "type": "Feature", "properties": { "id": 9013469861, "name": "Khu đô thị Vinhomes Green Bay", "index_right": 78, "district": "Phường Đại Mỗ" }, "geometry": { "type": "Point", "coordinates": [ 105.7854993, 21.0014774 ] } },
{ "type": "Feature", "properties": { "id": 9013469862, "name": "Tòa nhà Thăng Long Number One", "index_right": 78, "district": "Phường Đại Mỗ" }, "geometry": { "type": "Point", "coordinates": [ 105.7904455, 21.0031608 ] } },
{ "type": "Feature", "properties": { "id": 9019312704, "name": "Đối diện công trình cảnh quan Công viên Hồ Phùng Khoang", "index_right": 78, "district": "Phường Đại Mỗ" }, "geometry": { "type": "Point", "coordinates": [ 105.7912534, 20.9957342 ] } },
{ "type": "Feature", "properties": { "id": 9019312706, "name": "Gần lối vào trường Trung học phổ thông Trung Văn", "index_right": 78, "district": "Phường Đại Mỗ" }, "geometry": { "type": "Point", "coordinates": [ 105.7887005, 20.9939698 ] } },
{ "type": "Feature", "properties": { "id": 9019312707, "name": "Trung tâm ứng dụng KHCN số 1", "index_right": 78, "district": "Phường Đại Mỗ" }, "geometry": { "type": "Point", "coordinates": [ 105.7893764, 20.994092 ] } },
{ "type": "Feature", "properties": { "id": 9019312708, "name": "Trước ngã 4 Trung Văn - Tố Hữu 100m", "index_right": 78, "district": "Phường Đại Mỗ" }, "geometry": { "type": "Point", "coordinates": [ 105.7842307, 20.9914708 ] } },
{ "type": "Feature", "properties": { "id": 9019312709, "name": "Qua ngã 4 Trung Văn - Tố Hữu 100m", "index_right": 78, "district": "Phường Đại Mỗ" }, "geometry": { "type": "Point", "coordinates": [ 105.7852135, 20.9917773 ] } },
{ "type": "Feature", "properties": { "id": 9019312710, "name": "Trước nhà chờ Mỗ Lao 30m", "index_right": 78, "district": "Phường Đại Mỗ" }, "geometry": { "type": "Point", "coordinates": [ 105.779622, 20.9882876 ] } },
{ "type": "Feature", "properties": { "id": 11166521210, "name": "Đối diện chung cư HH2 Bắc Hà - 48 Tố Hữu", "index_right": 78, "district": "Phường Đại Mỗ" }, "geometry": { "type": "Point", "coordinates": [ 105.7944409, 20.9978992 ] } },
{ "type": "Feature", "properties": { "id": 11522353092, "name": "BT1 Lô số 7 Trung Văn", "index_right": 78, "district": "Phường Đại Mỗ" }, "geometry": { "type": "Point", "coordinates": [ 105.7806581, 20.9935867 ] } },
{ "type": "Feature", "properties": { "id": 11522353093, "name": "Tòa CT1C Vinaconex 3 Trung Văn", "index_right": 78, "district": "Phường Đại Mỗ" }, "geometry": { "type": "Point", "coordinates": [ 105.7799461, 20.9956739 ] } },
{ "type": "Feature", "properties": { "id": 11523863233, "name": "Đối diện số 12BT2 Khu đô thị Trung Văn", "index_right": 78, "district": "Phường Đại Mỗ" }, "geometry": { "type": "Point", "coordinates": [ 105.7779278, 20.9932779 ] } },
{ "type": "Feature", "properties": { "id": 13127898088, "name": "Công viên Thiên văn học - đường Nguyễn Văn Luyện", "index_right": 78, "district": "Phường Đại Mỗ" }, "geometry": { "type": "Point", "coordinates": [ 105.7599819, 20.9809503 ] } },
{ "type": "Feature", "properties": { "id": 13127898089, "name": "Đường vào An Vương Villa - đường Nguyễn Văn Luyện", "index_right": 78, "district": "Phường Đại Mỗ" }, "geometry": { "type": "Point", "coordinates": [ 105.7539328, 20.9863152 ] } }
]
}
