{
"type": "FeatureCollection",
"name": "Phường_Yên_Hòa",
"crs": { "type": "name", "properties": { "name": "urn:ogc:def:crs:OGC:1.3:CRS84" } },
"features": [
{ "type": "Feature", "properties": { "id": 738813552, "name": "Nhà 24T2 KĐT Trung Hoà Nhân Chính - Hoàng Đạo Thúy", "index_right": 61, "district": "Phường Yên Hòa" }, "geometry": { "type": "Point", "coordinates": [ 105.8027109, 21.0075341 ] } },
{ "type": "Feature", "properties": { "id": 738813563, "name": "Đối diện nhà 24T2 KĐT Trung Hoà Nhân Chính - Hoàng Đạo Thúy", "index_right": 61, "district": "Phường Yên Hòa" }, "geometry": { "type": "Point", "coordinates": [ 105.8025938, 21.0072887 ] } },
{ "type": "Feature", "properties": { "id": 738813809, "name": "Đối diện 220 Trần Duy Hưng", "index_right": 61, "district": "Phường Yên Hòa" }, "geometry": { "type": "Point", "coordinates": [ 105.7949999, 21.006845 ] } },
{ "type": "Feature", "properties": { "id": 738814284, "name": "Nhà N2C Khu đô thị Trung Hòa Nhân Chính", "index_right": 61, "district": "Phường Yên Hòa" }, "geometry": { "type": "Point", "coordinates": [ 105.7999062, 21.0028706 ] } },
{ "type": "Feature", "properties": { "id": 738815036, "name": "220 Trần Duy Hưng", "index_right": 61, "district": "Phường Yên Hòa" }, "geometry": { "type": "Point", "coordinates": [ 105.7948, 21.0072724 ] } },
{ "type": "Feature", "properties": { "id": 738815210, "name": "113 Trần Duy Hưng - Bộ Khoa học & Công nghệ", "index_right": 61, "district": "Phường Yên Hòa" }, "geometry": { "type": "Point", "coordinates": [ 105.7989122, 21.0097722 ] } },
{ "type": "Feature", "properties": { "id": 738815286, "name": "Nhà 5-9 lô 18 KĐT Trung Hòa", "index_right": 61, "district": "Phường Yên Hòa" }, "geometry": { "type": "Point", "coordinates": [ 105.7983676, 21.0169826 ] } },
{ "type": "Feature", "properties": { "id": 738815502, "name": "Đối diện Bộ Khoa học & Công nghệ - 146 Trần Duy Hưng", "index_right": 61, "district": "Phường Yên Hòa" }, "geometry": { "type": "Point", "coordinates": [ 105.79876, 21.0101098 ] } },
{ "type": "Feature", "properties": { "id": 738815788, "name": "Đối diện Trường Đại học Lao động & Xã Hội - 48 Trần Duy Hưng", "index_right": 61, "district": "Phường Yên Hòa" }, "geometry": { "type": "Point", "coordinates": [ 105.8013777, 21.0124753 ] } },
{ "type": "Feature", "properties": { "id": 4504060143, "name": "Đối diện 289A Khuất Duy Tiến - Vinaconex1", "index_right": 61, "district": "Phường Yên Hòa" }, "geometry": { "type": "Point", "coordinates": [ 105.7937815, 21.0038233 ] } },
{ "type": "Feature", "properties": { "id": 5485707984, "name": "Trung tâm Lưu trữ Quốc gia 1 - 18 Vũ Phạm Hàm", "index_right": 61, "district": "Phường Yên Hòa" }, "geometry": { "type": "Point", "coordinates": [ 105.7972745, 21.0154612 ] } },
{ "type": "Feature", "properties": { "id": 7617390947, "name": "Trường THPT chuyên Hà Nội - Amsterdam", "index_right": 61, "district": "Phường Yên Hòa" }, "geometry": { "type": "Point", "coordinates": [ 105.7967832, 21.0066991 ] } },
{ "type": "Feature", "properties": { "id": 7617390955, "name": "Trường tiểu học Trung Yên - đường Nguyễn Chánh", "index_right": 61, "district": "Phường Yên Hòa" }, "geometry": { "type": "Point", "coordinates": [ 105.7934274, 21.0108037 ] } },
{ "type": "Feature", "properties": { "id": 7617390956, "name": "Đối diện nhà B6C - Khu đô thị Nam Trung Yên", "index_right": 61, "district": "Phường Yên Hòa" }, "geometry": { "type": "Point", "coordinates": [ 105.7899094, 21.0150482 ] } },
{ "type": "Feature", "properties": { "id": 7617390957, "name": "C23-24 ô đất A10 - Khu đô thị Nam Trung Yên", "index_right": 61, "district": "Phường Yên Hòa" }, "geometry": { "type": "Point", "coordinates": [ 105.7870479, 21.0186267 ] } },
{ "type": "Feature", "properties": { "id": 7622885212, "name": "Qua trường Tiểu học Nam Trung Yên 100m", "index_right": 61, "district": "Phường Yên Hòa" }, "geometry": { "type": "Point", "coordinates": [ 105.7868978, 21.0185962 ] } },
{ "type": "Feature", "properties": { "id": 7622885213, "name": "Nhà B6C - Khu đô thị Nam Trung Yên", "index_right": 61, "district": "Phường Yên Hòa" }, "geometry": { "type": "Point", "coordinates": [ 105.7899448, 21.0147852 ] } },
{ "type": "Feature", "properties": { "id": 7622910381, "name": "Đối diện trường tiểu học Trung Yên - đường Nguyễn Chánh", "index_right": 61, "district": "Phường Yên Hòa" }, "geometry": { "type": "Point", "coordinates": [ 105.7933035, 21.0107179 ] } },
{ "type": "Feature", "properties": { "id": 7622910382, "name": "Đối diện Trường THPT chuyên Hà Nội - Amsterdam", "index_right": 61, "district": "Phường Yên Hòa" }, "geometry": { "type": "Point", "coordinates": [ 105.7967515, 21.0063808 ] } },
{ "type": "Feature", "properties": { "id": 8236289492, "name": "Đối diện Đại học Phương Đông - 102 Trung Kính", "index_right": 61, "district": "Phường Yên Hòa" }, "geometry": { "type": "Point", "coordinates": [ 105.7942775, 21.0165562 ] } },
{ "type": "Feature", "properties": { "id": 8236289502, "name": "Trước trường THCS Yên Hòa 30m - Trung Kính", "index_right": 61, "district": "Phường Yên Hòa" }, "geometry": { "type": "Point", "coordinates": [ 105.7909232, 21.0220791 ] } },
{ "type": "Feature", "properties": { "id": 8236303241, "name": "54 Mạc Thái Tông", "index_right": 61, "district": "Phường Yên Hòa" }, "geometry": { "type": "Point", "coordinates": [ 105.7950695, 21.0137335 ] } },
{ "type": "Feature", "properties": { "id": 8755733280, "name": "Đối diện Trường THCS Yên Hòa - 282 Trung Kính", "index_right": 61, "district": "Phường Yên Hòa" }, "geometry": { "type": "Point", "coordinates": [ 105.7905786, 21.0220836 ] } },
{ "type": "Feature", "properties": { "id": 8755733281, "name": "Đại học Phương Đông - 201B Trung Kinh", "index_right": 61, "district": "Phường Yên Hòa" }, "geometry": { "type": "Point", "coordinates": [ 105.7941958, 21.0160897 ] } },
{ "type": "Feature", "properties": { "id": 8755733282, "name": "Cty CP xây lắp bưu điện - đường Vũ Phạm Hàm", "index_right": 61, "district": "Phường Yên Hòa" }, "geometry": { "type": "Point", "coordinates": [ 105.7944162, 21.0134872 ] } },
{ "type": "Feature", "properties": { "id": 8821681976, "name": "Ngã 4 Phạm Hùng - Khuất Duy Tiến (Đối diện Trung tâm Hội nghị Quốc gia)", "index_right": 61, "district": "Phường Yên Hòa" }, "geometry": { "type": "Point", "coordinates": [ 105.7912502, 21.0069085 ] } },
{ "type": "Feature", "properties": { "id": 8821681977, "name": "Qua 130m Doanh trại Bộ chỉ huy quân sự HN - 99A Phạm Hùng", "index_right": 61, "district": "Phường Yên Hòa" }, "geometry": { "type": "Point", "coordinates": [ 105.7864751, 21.0128139 ] } },
{ "type": "Feature", "properties": { "id": 8821681978, "name": "Tòa nhà Landmark 72 - đường Phạm Hùng", "index_right": 61, "district": "Phường Yên Hòa" }, "geometry": { "type": "Point", "coordinates": [ 105.7842702, 21.0155409 ] } },
{ "type": "Feature", "properties": { "id": 8829926856, "name": "Nhà N2E Khu đô thị Trung Hòa Nhân Chính", "index_right": 61, "district": "Phường Yên Hòa" }, "geometry": { "type": "Point", "coordinates": [ 105.8009114, 21.0028538 ] } },
{ "type": "Feature", "properties": { "id": 8838269680, "name": "Đối diện 139 Nguyễn Ngọc Vũ", "index_right": 61, "district": "Phường Yên Hòa" }, "geometry": { "type": "Point", "coordinates": [ 105.809118, 21.0113407 ] } },
{ "type": "Feature", "properties": { "id": 8838269681, "name": "Đối diện 221 Nguyễn Khang", "index_right": 61, "district": "Phường Yên Hòa" }, "geometry": { "type": "Point", "coordinates": [ 105.8055571, 21.0140949 ] } },
{ "type": "Feature", "properties": { "id": 8838269682, "name": "Đối diện 83 Nguyễn Khang", "index_right": 61, "district": "Phường Yên Hòa" }, "geometry": { "type": "Point", "coordinates": [ 105.8024241, 21.0177459 ] } },
{ "type": "Feature", "properties": { "id": 8838269683, "name": "Số 5 Lô 4C - Vũ Phạm Hàm", "index_right": 61, "district": "Phường Yên Hòa" }, "geometry": { "type": "Point", "coordinates": [ 105.7996706, 21.0192156 ] } },
{ "type": "Feature", "properties": { "id": 8840893881, "name": "16 Dương Đình Nghệ", "index_right": 61, "district": "Phường Yên Hòa" }, "geometry": { "type": "Point", "coordinates": [ 105.7850099, 21.0194519 ] } },
{ "type": "Feature", "properties": { "id": 8840893882, "name": "Tường rào Tổng cục Hải quan", "index_right": 61, "district": "Phường Yên Hòa" }, "geometry": { "type": "Point", "coordinates": [ 105.7888895, 21.0221943 ] } },
{ "type": "Feature", "properties": { "id": 8840893883, "name": "81B Nguyễn Khang", "index_right": 61, "district": "Phường Yên Hòa" }, "geometry": { "type": "Point", "coordinates": [ 105.8022276, 21.0178862 ] } },
{ "type": "Feature", "properties": { "id": 8840893884, "name": "225 Nguyễn Khang", "index_right": 61, "district": "Phường Yên Hòa" }, "geometry": { "type": "Point", "coordinates": [ 105.8054223, 21.0141018 ] } },
{ "type": "Feature", "properties": { "id": 8840893885, "name": "Ngõ 141 Nguyễn Ngọc Vũ", "index_right": 61, "district": "Phường Yên Hòa" }, "geometry": { "type": "Point", "coordinates": [ 105.8089419, 21.0113302 ] } },
{ "type": "Feature", "properties": { "id": 8841276448, "name": "Tòa nhà G3D Vũ Phạm Hàm", "index_right": 61, "district": "Phường Yên Hòa" }, "geometry": { "type": "Point", "coordinates": [ 105.7997074, 21.0191335 ] } },
{ "type": "Feature", "properties": { "id": 8903312065, "name": "Đại học Lao động & Xã hội - 43 Trần Duy Hưng", "index_right": 61, "district": "Phường Yên Hòa" }, "geometry": { "type": "Point", "coordinates": [ 105.8021006, 21.0126482 ] } },
{ "type": "Feature", "properties": { "id": 8950695174, "name": "Số 1 Lô 11B Khu đô thị Trung Yên, đường Trung Yên 10 - Trung Hoà", "index_right": 61, "district": "Phường Yên Hòa" }, "geometry": { "type": "Point", "coordinates": [ 105.801834, 21.0145393 ] } },
{ "type": "Feature", "properties": { "id": 8950695175, "name": "Lô 14B Khu đô thị Trung Yên - Qua ngõ 36 Trung Hoà", "index_right": 61, "district": "Phường Yên Hòa" }, "geometry": { "type": "Point", "coordinates": [ 105.8011859, 21.0149996 ] } },
{ "type": "Feature", "properties": { "id": 8950695176, "name": "Cách cầu Cót 120m đường Bờ sông Tô Lịch", "index_right": 61, "district": "Phường Yên Hòa" }, "geometry": { "type": "Point", "coordinates": [ 105.7985936, 21.023042 ] } },
{ "type": "Feature", "properties": { "id": 8950695177, "name": "UBND Phường Yên Hòa (Qua cầu Cót khoảng 100m) - Nguyễn Khang", "index_right": 61, "district": "Phường Yên Hòa" }, "geometry": { "type": "Point", "coordinates": [ 105.7981326, 21.0233217 ] } },
{ "type": "Feature", "properties": { "id": 9342635854, "name": "Trường Mầm non Quốc tế Global", "index_right": 61, "district": "Phường Yên Hòa" }, "geometry": { "type": "Point", "coordinates": [ 105.7962936, 21.0178907 ] } },
{ "type": "Feature", "properties": { "id": 9342635855, "name": "Trường Tiểu học Lý Thái Tổ", "index_right": 61, "district": "Phường Yên Hòa" }, "geometry": { "type": "Point", "coordinates": [ 105.8046082, 21.0093566 ] } },
{ "type": "Feature", "properties": { "id": 9342635856, "name": "Nhà 18T1 Khu đô thị Trung Hòa Nhân Chính", "index_right": 61, "district": "Phường Yên Hòa" }, "geometry": { "type": "Point", "coordinates": [ 105.8054642, 21.0060801 ] } },
{ "type": "Feature", "properties": { "id": 9342635874, "name": "Sư đoàn Phòng không 361", "index_right": 61, "district": "Phường Yên Hòa" }, "geometry": { "type": "Point", "coordinates": [ 105.8072726, 21.0073333 ] } },
{ "type": "Feature", "properties": { "id": 9342635875, "name": "Đối diện trường tiểu học Lý Thái Tổ", "index_right": 61, "district": "Phường Yên Hòa" }, "geometry": { "type": "Point", "coordinates": [ 105.8047191, 21.0093526 ] } },
{ "type": "Feature", "properties": { "id": 9342635876, "name": "18 Trần Kim Xuyến", "index_right": 61, "district": "Phường Yên Hòa" }, "geometry": { "type": "Point", "coordinates": [ 105.7963825, 21.0180286 ] } },
{ "type": "Feature", "properties": { "id": 11536511314, "name": "Tập thể 27/7 Yên Hòa", "index_right": 61, "district": "Phường Yên Hòa" }, "geometry": { "type": "Point", "coordinates": [ 105.7912359, 21.0184382 ] } },
{ "type": "Feature", "properties": { "id": 11536511329, "name": "Đối diện Tập thể 27/7 Yên Hòa", "index_right": 61, "district": "Phường Yên Hòa" }, "geometry": { "type": "Point", "coordinates": [ 105.7911451, 21.0180428 ] } },
{ "type": "Feature", "properties": { "id": 12730943461, "name": "Nhà N6A Trung Hòa - Nguyễn Thị Thập", "index_right": 61, "district": "Phường Yên Hòa" }, "geometry": { "type": "Point", "coordinates": [ 105.8018342, 21.0061952 ] } }
]
}
