{
"type": "FeatureCollection",
"name": "Phường_Yên_Nghĩa",
"crs": { "type": "name", "properties": { "name": "urn:ogc:def:crs:OGC:1.3:CRS84" } },
"features": [
{ "type": "Feature", "properties": { "id": 5128206021, "name": "Chợ Cầu Mai Lĩnh - 1529 Quang Trung", "index_right": 96, "district": "Phường Yên Nghĩa" }, "geometry": { "type": "Point", "coordinates": [ 105.7299882, 20.937939 ] } },
{ "type": "Feature", "properties": { "id": 5128206022, "name": "Chợ Cầu Mai Lĩnh - 1392 Quang Trung", "index_right": 96, "district": "Phường Yên Nghĩa" }, "geometry": { "type": "Point", "coordinates": [ 105.7303239, 20.9383131 ] } },
{ "type": "Feature", "properties": { "id": 7893470208, "name": "Đối diện Công ty Cổ phần Gỗ thép Đại Lộc", "index_right": 96, "district": "Phường Yên Nghĩa" }, "geometry": { "type": "Point", "coordinates": [ 105.7368332, 20.9416233 ] } },
{ "type": "Feature", "properties": { "id": 8770739142, "name": "Nissan Hà Đông", "index_right": 96, "district": "Phường Yên Nghĩa" }, "geometry": { "type": "Point", "coordinates": [ 105.7538504, 20.9540907 ] } },
{ "type": "Feature", "properties": { "id": 8770739143, "name": "Đối diện Trường Tiểu học Kinh tế Hà Tây - Quốc lộ 6", "index_right": 96, "district": "Phường Yên Nghĩa" }, "geometry": { "type": "Point", "coordinates": [ 105.7511694, 20.9520365 ] } },
{ "type": "Feature", "properties": { "id": 8770739145, "name": "Đối diện Nissan Hà Đông - Nhà ga Văn Khê", "index_right": 96, "district": "Phường Yên Nghĩa" }, "geometry": { "type": "Point", "coordinates": [ 105.7543367, 20.9542553 ] } },
{ "type": "Feature", "properties": { "id": 8943744747, "name": "Đối diện Công ty Cây xanh Việt Nam", "index_right": 96, "district": "Phường Yên Nghĩa" }, "geometry": { "type": "Point", "coordinates": [ 105.7403907, 20.9582747 ] } },
{ "type": "Feature", "properties": { "id": 8943744748, "name": "Trường Trung học cơ sở Yên Nghĩa", "index_right": 96, "district": "Phường Yên Nghĩa" }, "geometry": { "type": "Point", "coordinates": [ 105.7367725, 20.9563681 ] } },
{ "type": "Feature", "properties": { "id": 8943744749, "name": "Điểm đỗ xe buýt Đô Nghĩa", "index_right": 96, "district": "Phường Yên Nghĩa" }, "geometry": { "type": "Point", "coordinates": [ 105.7328199, 20.9584267 ] } },
{ "type": "Feature", "properties": { "id": 8944376752, "name": "Công ty Cây xanh Việt Nam", "index_right": 96, "district": "Phường Yên Nghĩa" }, "geometry": { "type": "Point", "coordinates": [ 105.740241, 20.9585071 ] } },
{ "type": "Feature", "properties": { "id": 8944376753, "name": "Trường Tiểu học Yên Nghĩa", "index_right": 96, "district": "Phường Yên Nghĩa" }, "geometry": { "type": "Point", "coordinates": [ 105.7367144, 20.9564517 ] } },
{ "type": "Feature", "properties": { "id": 8948067789, "name": "Ao làng Do Lộ - đối diện 1099 Quang Trung", "index_right": 96, "district": "Phường Yên Nghĩa" }, "geometry": { "type": "Point", "coordinates": [ 105.7427394, 20.945494 ] } },
{ "type": "Feature", "properties": { "id": 8948071448, "name": "Qua cây xăng Cổ Bản - 1235 Quang Trung", "index_right": 96, "district": "Phường Yên Nghĩa" }, "geometry": { "type": "Point", "coordinates": [ 105.7377462, 20.9419513 ] } },
{ "type": "Feature", "properties": { "id": 8948071449, "name": "Đối diện giếng cổ thôn Do Lộ - 1115 Quang Trung", "index_right": 96, "district": "Phường Yên Nghĩa" }, "geometry": { "type": "Point", "coordinates": [ 105.7420498, 20.9448537 ] } },
{ "type": "Feature", "properties": { "id": 8948071450, "name": "Đối diện cổng làng Nghĩa Lộ", "index_right": 96, "district": "Phường Yên Nghĩa" }, "geometry": { "type": "Point", "coordinates": [ 105.7458452, 20.9476736 ] } },
{ "type": "Feature", "properties": { "id": 10022468853, "name": "Giáp hàng rào Bến xe Yên Nghĩa", "index_right": 96, "district": "Phường Yên Nghĩa" }, "geometry": { "type": "Point", "coordinates": [ 105.7477552, 20.9494752 ] } },
{ "type": "Feature", "properties": { "id": 10028987068, "name": "Bến xe Yên Nghĩa", "index_right": 96, "district": "Phường Yên Nghĩa" }, "geometry": { "type": "Point", "coordinates": [ 105.7476153, 20.9496053 ] } },
{ "type": "Feature", "properties": { "id": 11549233070, "name": "Hội Trường tổ dân phố số 5 phường Đồng Mai", "index_right": 96, "district": "Phường Yên Nghĩa" }, "geometry": { "type": "Point", "coordinates": [ 105.7300354, 20.9350492 ] } },
{ "type": "Feature", "properties": { "id": 11549233071, "name": "Trước lối vào tổ dân phố số 6 khoảng 30m", "index_right": 96, "district": "Phường Yên Nghĩa" }, "geometry": { "type": "Point", "coordinates": [ 105.7316433, 20.9325237 ] } },
{ "type": "Feature", "properties": { "id": 11549233072, "name": "Qua lối vào trường Trung học cơ sở Đồng Mai khoảng 20m", "index_right": 96, "district": "Phường Yên Nghĩa" }, "geometry": { "type": "Point", "coordinates": [ 105.7339534, 20.9289802 ] } },
{ "type": "Feature", "properties": { "id": 11549233073, "name": "Qua lối vào tổ dân phố số 14 khoảng 70m", "index_right": 96, "district": "Phường Yên Nghĩa" }, "geometry": { "type": "Point", "coordinates": [ 105.7367723, 20.9220121 ] } },
{ "type": "Feature", "properties": { "id": 11549233074, "name": "Qua lối vào tổ dân phố số 15 khoảng 20m", "index_right": 96, "district": "Phường Yên Nghĩa" }, "geometry": { "type": "Point", "coordinates": [ 105.7378174, 20.9183324 ] } },
{ "type": "Feature", "properties": { "id": 11549233117, "name": "Trước lối vào tổ dân phố số 15 khoảng 20m", "index_right": 96, "district": "Phường Yên Nghĩa" }, "geometry": { "type": "Point", "coordinates": [ 105.738027, 20.918107 ] } },
{ "type": "Feature", "properties": { "id": 11549233118, "name": "Trước lối vào tổ dân phố số 14 khoảng 50m", "index_right": 96, "district": "Phường Yên Nghĩa" }, "geometry": { "type": "Point", "coordinates": [ 105.7368466, 20.9223434 ] } },
{ "type": "Feature", "properties": { "id": 11549233119, "name": "Trước lối vào trường Trung học cơ sở Đồng Mai khoảng 50m", "index_right": 96, "district": "Phường Yên Nghĩa" }, "geometry": { "type": "Point", "coordinates": [ 105.7340355, 20.9287472 ] } },
{ "type": "Feature", "properties": { "id": 11549233120, "name": "Qua lối vào tổ dân phố số 6 khoảng 50m", "index_right": 96, "district": "Phường Yên Nghĩa" }, "geometry": { "type": "Point", "coordinates": [ 105.7318955, 20.9324802 ] } },
{ "type": "Feature", "properties": { "id": 11549233121, "name": "Trước lối vào xóm Chùa khoảng 50m", "index_right": 96, "district": "Phường Yên Nghĩa" }, "geometry": { "type": "Point", "coordinates": [ 105.7301311, 20.9349327 ] } },
{ "type": "Feature", "properties": { "id": 12717509081, "name": "Đô Nghĩa - Tuyến 22B", "index_right": 96, "district": "Phường Yên Nghĩa" }, "geometry": { "type": "Point", "coordinates": [ 105.7354459, 20.9603645 ] } },
{ "type": "Feature", "properties": { "id": 13344525648, "name": "Đối diện Cổng làng Nghĩa Lộ, đường vào thôn Thanh Lãm - Quang Trung (Hà Đông), Quốc lộ 6", "index_right": 96, "district": "Phường Yên Nghĩa" }, "geometry": { "type": "Point", "coordinates": [ 105.748126, 20.9493539 ] } }
]
}
