{
"type": "FeatureCollection",
"name": "Phường_Việt_Hưng",
"crs": { "type": "name", "properties": { "name": "urn:ogc:def:crs:OGC:1.3:CRS84" } },
"features": [
{ "type": "Feature", "properties": { "id": 7178788658, "name": "Bưu cục Long Biên - 79 Ngô Gia Tự", "index_right": 23, "district": "Phường Việt Hưng" }, "geometry": { "type": "Point", "coordinates": [ 105.8904504, 21.0580584 ] } },
{ "type": "Feature", "properties": { "id": 7178789816, "name": "18-20 Ngô Gia Tự", "index_right": 23, "district": "Phường Việt Hưng" }, "geometry": { "type": "Point", "coordinates": [ 105.8896192, 21.0565871 ] } },
{ "type": "Feature", "properties": { "id": 7178793083, "name": "713-715 Ngô Gia Tự", "index_right": 23, "district": "Phường Việt Hưng" }, "geometry": { "type": "Point", "coordinates": [ 105.9003641, 21.0682183 ] } },
{ "type": "Feature", "properties": { "id": 7178795558, "name": "608 - 610 Ngô Gia Tự - gần đường lên Cầu Đuống", "index_right": 23, "district": "Phường Việt Hưng" }, "geometry": { "type": "Point", "coordinates": [ 105.9069278, 21.0743677 ] } },
{ "type": "Feature", "properties": { "id": 7178800459, "name": "285 Ngô Gia Tự", "index_right": 23, "district": "Phường Việt Hưng" }, "geometry": { "type": "Point", "coordinates": [ 105.8936403, 21.0612215 ] } },
{ "type": "Feature", "properties": { "id": 7178803638, "name": "505-507 Ngô Gia Tự", "index_right": 23, "district": "Phường Việt Hưng" }, "geometry": { "type": "Point", "coordinates": [ 105.8973622, 21.0650734 ] } },
{ "type": "Feature", "properties": { "id": 7178810616, "name": "316-318 Ngô Gia Tự", "index_right": 23, "district": "Phường Việt Hưng" }, "geometry": { "type": "Point", "coordinates": [ 105.897369, 21.0645599 ] } },
{ "type": "Feature", "properties": { "id": 7178811680, "name": "1095 Ngô Gia Tự", "index_right": 23, "district": "Phường Việt Hưng" }, "geometry": { "type": "Point", "coordinates": [ 105.9065482, 21.0744611 ] } },
{ "type": "Feature", "properties": { "id": 8739945242, "name": "Hè trước Savico Megamall - Nguyễn Văn Linh", "index_right": 23, "district": "Phường Việt Hưng" }, "geometry": { "type": "Point", "coordinates": [ 105.892018, 21.0505117 ] } },
{ "type": "Feature", "properties": { "id": 8739945243, "name": "MediaMart Long Biên - Nguyễn Văn Linh", "index_right": 23, "district": "Phường Việt Hưng" }, "geometry": { "type": "Point", "coordinates": [ 105.8898412, 21.0535004 ] } },
{ "type": "Feature", "properties": { "id": 8772715696, "name": "170-172 Ngô Gia Tự", "index_right": 23, "district": "Phường Việt Hưng" }, "geometry": { "type": "Point", "coordinates": [ 105.8940866, 21.0611635 ] } },
{ "type": "Feature", "properties": { "id": 8772715697, "name": "Đối diện 59 Đức Giang", "index_right": 23, "district": "Phường Việt Hưng" }, "geometry": { "type": "Point", "coordinates": [ 105.890858, 21.0674355 ] } },
{ "type": "Feature", "properties": { "id": 8772715698, "name": "59 Đức Giang (Công ty May Đức Giang)", "index_right": 23, "district": "Phường Việt Hưng" }, "geometry": { "type": "Point", "coordinates": [ 105.890359, 21.0676544 ] } },
{ "type": "Feature", "properties": { "id": 8895558463, "name": "Gần ngõ 1 đường Phúc Lợi", "index_right": 23, "district": "Phường Việt Hưng" }, "geometry": { "type": "Point", "coordinates": [ 105.9150588, 21.0585007 ] } },
{ "type": "Feature", "properties": { "id": 8895558464, "name": "Trước cửa hàng sửa chữa xe máy Hùng Phi 15m", "index_right": 23, "district": "Phường Việt Hưng" }, "geometry": { "type": "Point", "coordinates": [ 105.9152146, 21.0609641 ] } },
{ "type": "Feature", "properties": { "id": 8895558467, "name": "Điểm đỗ xe buýt Giang Biên", "index_right": 23, "district": "Phường Việt Hưng" }, "geometry": { "type": "Point", "coordinates": [ 105.918982, 21.0634059 ] } },
{ "type": "Feature", "properties": { "id": 8895558469, "name": "Qua đối diện cửa hàng sữa chữa xe máy Hùng Phi 30m", "index_right": 23, "district": "Phường Việt Hưng" }, "geometry": { "type": "Point", "coordinates": [ 105.9152442, 21.0614166 ] } },
{ "type": "Feature", "properties": { "id": 8895558470, "name": "Đối diện qua ngõ 1 đường Phúc Lợi", "index_right": 23, "district": "Phường Việt Hưng" }, "geometry": { "type": "Point", "coordinates": [ 105.9152636, 21.0582361 ] } },
{ "type": "Feature", "properties": { "id": 8919509903, "name": "368 Ngô Gia Tự - Ngã 3 đường vào công An quận Long Biên", "index_right": 23, "district": "Phường Việt Hưng" }, "geometry": { "type": "Point", "coordinates": [ 105.9009782, 21.0683279 ] } },
{ "type": "Feature", "properties": { "id": 9003315143, "name": "203-205 Đức Giang", "index_right": 23, "district": "Phường Việt Hưng" }, "geometry": { "type": "Point", "coordinates": [ 105.8817564, 21.0695983 ] } },
{ "type": "Feature", "properties": { "id": 9003315144, "name": "198 Đức Giang", "index_right": 23, "district": "Phường Việt Hưng" }, "geometry": { "type": "Point", "coordinates": [ 105.8822437, 21.0689767 ] } },
{ "type": "Feature", "properties": { "id": 9003315145, "name": "Đối diện Công ty Chế tạo Máy biến áp Hà Nội", "index_right": 23, "district": "Phường Việt Hưng" }, "geometry": { "type": "Point", "coordinates": [ 105.8850191, 21.0672367 ] } },
{ "type": "Feature", "properties": { "id": 9003315146, "name": "Công ty Chế tạo Máy biến áp Hà Nội", "index_right": 23, "district": "Phường Việt Hưng" }, "geometry": { "type": "Point", "coordinates": [ 105.8852916, 21.0675925 ] } },
{ "type": "Feature", "properties": { "id": 9003315147, "name": "Trước cổng Bệnh viện Đa khoa Đức Giang 15m", "index_right": 23, "district": "Phường Việt Hưng" }, "geometry": { "type": "Point", "coordinates": [ 105.8981376, 21.0622195 ] } },
{ "type": "Feature", "properties": { "id": 9003315148, "name": "Qua đối diện cổng bệnh viện đa khoa Đức Giang 10m", "index_right": 23, "district": "Phường Việt Hưng" }, "geometry": { "type": "Point", "coordinates": [ 105.8978256, 21.0623056 ] } },
{ "type": "Feature", "properties": { "id": 9003315149, "name": "Đối diện UBND quận Long Biên", "index_right": 23, "district": "Phường Việt Hưng" }, "geometry": { "type": "Point", "coordinates": [ 105.9026809, 21.0623341 ] } },
{ "type": "Feature", "properties": { "id": 9003315150, "name": "Trước cổng UBND quận Long Biên 15m", "index_right": 23, "district": "Phường Việt Hưng" }, "geometry": { "type": "Point", "coordinates": [ 105.9028545, 21.0628422 ] } },
{ "type": "Feature", "properties": { "id": 9003315151, "name": "Chung cư H1 Khu đô thị Việt Hưng", "index_right": 23, "district": "Phường Việt Hưng" }, "geometry": { "type": "Point", "coordinates": [ 105.9080825, 21.0680478 ] } },
{ "type": "Feature", "properties": { "id": 9003315153, "name": "132 Phố Vạn Hạnh", "index_right": 23, "district": "Phường Việt Hưng" }, "geometry": { "type": "Point", "coordinates": [ 105.9077842, 21.0681059 ] } },
{ "type": "Feature", "properties": { "id": 9003315154, "name": "Tòa nhà CT15 Khu đô thị Việt Hưng", "index_right": 23, "district": "Phường Việt Hưng" }, "geometry": { "type": "Point", "coordinates": [ 105.9105243, 21.0652154 ] } },
{ "type": "Feature", "properties": { "id": 9003315155, "name": "Trường Tiểu học Việt Hưng", "index_right": 23, "district": "Phường Việt Hưng" }, "geometry": { "type": "Point", "coordinates": [ 105.9105286, 21.0647248 ] } },
{ "type": "Feature", "properties": { "id": 9003315156, "name": "Đối diện khu BT6 - KĐT Việt Hưng - Lưu Khánh Đàm", "index_right": 23, "district": "Phường Việt Hưng" }, "geometry": { "type": "Point", "coordinates": [ 105.9107409, 21.060077 ] } },
{ "type": "Feature", "properties": { "id": 9003315157, "name": "Khu BT6 - KĐT Việt Hưng - Lưu Khánh Đàm", "index_right": 23, "district": "Phường Việt Hưng" }, "geometry": { "type": "Point", "coordinates": [ 105.9114146, 21.0599869 ] } },
{ "type": "Feature", "properties": { "id": 9580030938, "name": "Trạm Xe Bus Ngã 4 Nguyễn Cao Luyện - Đoàn Khuê", "index_right": 23, "district": "Phường Việt Hưng" }, "geometry": { "type": "Point", "coordinates": [ 105.9041907, 21.0571585 ] } },
{ "type": "Feature", "properties": { "id": 9582411773, "name": "Qua Ngã 4 Nguyễn Cao Luyện - Đoàn Khuê", "index_right": 23, "district": "Phường Việt Hưng" }, "geometry": { "type": "Point", "coordinates": [ 105.9043881, 21.0574495 ] } },
{ "type": "Feature", "properties": { "id": 11246285577, "name": "Đối diện nhà CT9 A - Phố Nguyễn Cao Luyện", "index_right": 23, "district": "Phường Việt Hưng" }, "geometry": { "type": "Point", "coordinates": [ 105.9031083, 21.0688695 ] } },
{ "type": "Feature", "properties": { "id": 11246285578, "name": "Đối diện Nhà K2 - KĐT Việt Hưng", "index_right": 23, "district": "Phường Việt Hưng" }, "geometry": { "type": "Point", "coordinates": [ 105.9068143, 21.0657879 ] } },
{ "type": "Feature", "properties": { "id": 11246285579, "name": "Đối diện nhà P6 - KĐT Việt Hưng", "index_right": 23, "district": "Phường Việt Hưng" }, "geometry": { "type": "Point", "coordinates": [ 105.9079782, 21.0624227 ] } },
{ "type": "Feature", "properties": { "id": 11246285580, "name": "Đối diện Tòa Nhà GH1 - Nguyễn Cao Luyện", "index_right": 23, "district": "Phường Việt Hưng" }, "geometry": { "type": "Point", "coordinates": [ 105.9058379, 21.0592565 ] } },
{ "type": "Feature", "properties": { "id": 11246285581, "name": "6 Việt Hưng", "index_right": 23, "district": "Phường Việt Hưng" }, "geometry": { "type": "Point", "coordinates": [ 105.9045367, 21.0548947 ] } },
{ "type": "Feature", "properties": { "id": 11246285582, "name": "68-70 Việt Hưng", "index_right": 23, "district": "Phường Việt Hưng" }, "geometry": { "type": "Point", "coordinates": [ 105.9017521, 21.0537401 ] } },
{ "type": "Feature", "properties": { "id": 11246285583, "name": "134 Việt Hưng", "index_right": 23, "district": "Phường Việt Hưng" }, "geometry": { "type": "Point", "coordinates": [ 105.8984772, 21.0523651 ] } },
{ "type": "Feature", "properties": { "id": 11246285584, "name": "Gần ngã tư Vũ Đức Thận - Việt Hưng", "index_right": 23, "district": "Phường Việt Hưng" }, "geometry": { "type": "Point", "coordinates": [ 105.895807, 21.0507953 ] } },
{ "type": "Feature", "properties": { "id": 11527164026, "name": "Nhà P6 - KĐT Việt Hưng", "index_right": 23, "district": "Phường Việt Hưng" }, "geometry": { "type": "Point", "coordinates": [ 105.9080922, 21.0622177 ] } },
{ "type": "Feature", "properties": { "id": 11531107946, "name": "Đối diện 144 Việt Hưng", "index_right": 23, "district": "Phường Việt Hưng" }, "geometry": { "type": "Point", "coordinates": [ 105.8983413, 21.0521432 ] } },
{ "type": "Feature", "properties": { "id": 11531107947, "name": "95 Việt Hưng", "index_right": 23, "district": "Phường Việt Hưng" }, "geometry": { "type": "Point", "coordinates": [ 105.9025105, 21.0539557 ] } },
{ "type": "Feature", "properties": { "id": 11531107948, "name": "11 Việt Hưng", "index_right": 23, "district": "Phường Việt Hưng" }, "geometry": { "type": "Point", "coordinates": [ 105.9044388, 21.0547054 ] } },
{ "type": "Feature", "properties": { "id": 11531107949, "name": "Tòa Nhà GH1 - Nguyễn Cao Luyện", "index_right": 23, "district": "Phường Việt Hưng" }, "geometry": { "type": "Point", "coordinates": [ 105.9059136, 21.0590181 ] } },
{ "type": "Feature", "properties": { "id": 11531107950, "name": "Tòa nhà CT9 A - Nguyễn Cao Luyện", "index_right": 23, "district": "Phường Việt Hưng" }, "geometry": { "type": "Point", "coordinates": [ 105.9033454, 21.0689675 ] } },
{ "type": "Feature", "properties": { "id": 11533516173, "name": "UBND phường Thượng Thanh", "index_right": 23, "district": "Phường Việt Hưng" }, "geometry": { "type": "Point", "coordinates": [ 105.8845105, 21.0586767 ] } },
{ "type": "Feature", "properties": { "id": 12307277457, "name": "Qua 50m ngã tư Vũ Đức Thận - Việt Hưng", "index_right": 23, "district": "Phường Việt Hưng" }, "geometry": { "type": "Point", "coordinates": [ 105.8956499, 21.0505389 ] } },
{ "type": "Feature", "properties": { "id": 12579123793, "name": "Nhà K2 - KĐT Việt Hưng", "index_right": 23, "district": "Phường Việt Hưng" }, "geometry": { "type": "Point", "coordinates": [ 105.9071871, 21.0657435 ] } },
{ "type": "Feature", "properties": { "id": 12717509075, "name": "Trường liên cấp Marie Curie - Bùi Thiện Ngộ", "index_right": 23, "district": "Phường Việt Hưng" }, "geometry": { "type": "Point", "coordinates": [ 105.9081695, 21.0581299 ] } },
{ "type": "Feature", "properties": { "id": 12717509076, "name": "Đối diện Trường Liên cấp Marie Curie - Bùi Thiện Ngộ", "index_right": 23, "district": "Phường Việt Hưng" }, "geometry": { "type": "Point", "coordinates": [ 105.9081835, 21.0582394 ] } },
{ "type": "Feature", "properties": { "id": 12887824216, "name": "Đối diện 65 Lý Sơn", "index_right": 23, "district": "Phường Việt Hưng" }, "geometry": { "type": "Point", "coordinates": [ 105.8819201, 21.0639798 ] } },
{ "type": "Feature", "properties": { "id": 13158088127, "name": "Trước Trường tiểu học Giang Biên 10m", "index_right": 23, "district": "Phường Việt Hưng" }, "geometry": { "type": "Point", "coordinates": [ 105.9172604, 21.0638068 ] } },
{ "type": "Feature", "properties": { "id": 13158088128, "name": "Qua đối diện Trường tiểu học Giang Biên 20m", "index_right": 23, "district": "Phường Việt Hưng" }, "geometry": { "type": "Point", "coordinates": [ 105.9175809, 21.0640207 ] } }
]
}
