{
"type": "FeatureCollection",
"name": "Phường_Cửa_Nam",
"crs": { "type": "name", "properties": { "name": "urn:ogc:def:crs:OGC:1.3:CRS84" } },
"features": [
{ "type": "Feature", "properties": { "id": 738813580, "name": "80 Trần Hưng Đạo - Bộ Giao thông Vận tải", "index_right": 39, "district": "Phường Cửa Nam" }, "geometry": { "type": "Point", "coordinates": [ 105.8458686, 21.0230126 ] } },
{ "type": "Feature", "properties": { "id": 738813822, "name": "24A Bà Triệu", "index_right": 39, "district": "Phường Cửa Nam" }, "geometry": { "type": "Point", "coordinates": [ 105.8513904, 21.0251233 ] } },
{ "type": "Feature", "properties": { "id": 738814524, "name": "Đối diện 16 Hai Bà Trưng (Ngã 4 Hai Bà Trưng- Ngô Quyền)", "index_right": 39, "district": "Phường Cửa Nam" }, "geometry": { "type": "Point", "coordinates": [ 105.8539959, 21.0238501 ] } },
{ "type": "Feature", "properties": { "id": 738814528, "name": "18 Lý Thường Kiệt", "index_right": 39, "district": "Phường Cửa Nam" }, "geometry": { "type": "Point", "coordinates": [ 105.855276, 21.0219947 ] } },
{ "type": "Feature", "properties": { "id": 738814750, "name": "61 Phan Chu Trinh", "index_right": 39, "district": "Phường Cửa Nam" }, "geometry": { "type": "Point", "coordinates": [ 105.8552593, 21.0186738 ] } },
{ "type": "Feature", "properties": { "id": 738814946, "name": "22B Hai Bà Trưng - Cạnh Tràng Tiền Plaza", "index_right": 39, "district": "Phường Cửa Nam" }, "geometry": { "type": "Point", "coordinates": [ 105.8536362, 21.0240849 ] } },
{ "type": "Feature", "properties": { "id": 738815124, "name": "Thư viện Hà Nội - 54E Trần Hưng Đạo", "index_right": 39, "district": "Phường Cửa Nam" }, "geometry": { "type": "Point", "coordinates": [ 105.8506652, 21.0215815 ] } },
{ "type": "Feature", "properties": { "id": 738815169, "name": "37 Hai Bà Trưng - Bệnh viện Việt Nam Cu Ba", "index_right": 39, "district": "Phường Cửa Nam" }, "geometry": { "type": "Point", "coordinates": [ 105.8501378, 21.024976 ] } },
{ "type": "Feature", "properties": { "id": 738815312, "name": "58B Bà Triệu", "index_right": 39, "district": "Phường Cửa Nam" }, "geometry": { "type": "Point", "coordinates": [ 105.8503463, 21.0219618 ] } },
{ "type": "Feature", "properties": { "id": 738815334, "name": "Đối diện Bệnh Viện Trung ương Quân đội 108 - Trần Hưng Đạo", "index_right": 39, "district": "Phường Cửa Nam" }, "geometry": { "type": "Point", "coordinates": [ 105.8607092, 21.0185284 ] } },
{ "type": "Feature", "properties": { "id": 738815407, "name": "Đối diện Đại học Dược Hà Nội - 15 Lê Thánh Tông", "index_right": 39, "district": "Phường Cửa Nam" }, "geometry": { "type": "Point", "coordinates": [ 105.8578377, 21.0215034 ] } },
{ "type": "Feature", "properties": { "id": 738815474, "name": "Trường Tiểu học Võ Thị Sáu - 35 Trần Hưng Đạo", "index_right": 39, "district": "Phường Cửa Nam" }, "geometry": { "type": "Point", "coordinates": [ 105.8541393, 21.020342 ] } },
{ "type": "Feature", "properties": { "id": 738815678, "name": "29 Hàng Bài", "index_right": 39, "district": "Phường Cửa Nam" }, "geometry": { "type": "Point", "coordinates": [ 105.852711, 21.0230605 ] } },
{ "type": "Feature", "properties": { "id": 738815771, "name": "Nhà hát Lớn Hà Nội", "index_right": 39, "district": "Phường Cửa Nam" }, "geometry": { "type": "Point", "coordinates": [ 105.857231, 21.0233761 ] } },
{ "type": "Feature", "properties": { "id": 738815776, "name": "65 Quán Sứ (Đối diện 80 Quán Sứ)", "index_right": 39, "district": "Phường Cửa Nam" }, "geometry": { "type": "Point", "coordinates": [ 105.8448452, 21.0237936 ] } },
{ "type": "Feature", "properties": { "id": 738815783, "name": "54 Lý Thường Kiệt", "index_right": 39, "district": "Phường Cửa Nam" }, "geometry": { "type": "Point", "coordinates": [ 105.8455685, 21.0248407 ] } },
{ "type": "Feature", "properties": { "id": 738815820, "name": "7 Nguyễn Thái Học - Cửa Nam", "index_right": 39, "district": "Phường Cửa Nam" }, "geometry": { "type": "Point", "coordinates": [ 105.8430069, 21.0283427 ] } },
{ "type": "Feature", "properties": { "id": 1008753034, "name": "92-94 Bà Triệu", "index_right": 39, "district": "Phường Cửa Nam" }, "geometry": { "type": "Point", "coordinates": [ 105.8494294, 21.0191699 ] } },
{ "type": "Feature", "properties": { "id": 3146565103, "name": "Đối diện 39 Lý Thường Kiệt", "index_right": 39, "district": "Phường Cửa Nam" }, "geometry": { "type": "Point", "coordinates": [ 105.8517426, 21.0230367 ] } },
{ "type": "Feature", "properties": { "id": 3887711843, "name": "49 Hai Bà Trưng - Tháp Hà Nội", "index_right": 39, "district": "Phường Cửa Nam" }, "geometry": { "type": "Point", "coordinates": [ 105.8465567, 21.0260364 ] } },
{ "type": "Feature", "properties": { "id": 4153286091, "name": "Trạm Xe Bus Vietnam Airlines Minibus", "index_right": 39, "district": "Phường Cửa Nam" }, "geometry": { "type": "Point", "coordinates": [ 105.8499938, 21.0262081 ] } },
{ "type": "Feature", "properties": { "id": 4539039489, "name": "48 Hai Bà Trưng - Viện Kiểm Nghiệm thuốc Trung ương", "index_right": 39, "district": "Phường Cửa Nam" }, "geometry": { "type": "Point", "coordinates": [ 105.8508194, 21.0249112 ] } },
{ "type": "Feature", "properties": { "id": 5061374323, "name": "Bệnh viện Phụ sản Trung ương - Đối diện số 4 Triệu Quốc Đạt", "index_right": 39, "district": "Phường Cửa Nam" }, "geometry": { "type": "Point", "coordinates": [ 105.8476217, 21.0266503 ] } },
{ "type": "Feature", "properties": { "id": 5061383221, "name": "25A-25B Phố Huế", "index_right": 39, "district": "Phường Cửa Nam" }, "geometry": { "type": "Point", "coordinates": [ 105.8517873, 21.0188689 ] } },
{ "type": "Feature", "properties": { "id": 5362040321, "name": "40 Ngô Quyền - TT Giao Dịch Công Nghệ", "index_right": 39, "district": "Phường Cửa Nam" }, "geometry": { "type": "Point", "coordinates": [ 105.8544445, 21.0228643 ] } },
{ "type": "Feature", "properties": { "id": 5462421044, "name": "16 Trần Hưng Đạo", "index_right": 39, "district": "Phường Cửa Nam" }, "geometry": { "type": "Point", "coordinates": [ 105.8574381, 21.0195048 ] } },
{ "type": "Feature", "properties": { "id": 5561070622, "name": "Đối diện 6C Phan Chu Trinh", "index_right": 39, "district": "Phường Cửa Nam" }, "geometry": { "type": "Point", "coordinates": [ 105.8568734, 21.0235986 ] } },
{ "type": "Feature", "properties": { "id": 6206929385, "name": "KS Melia (Lý Thường Kiệt)", "index_right": 39, "district": "Phường Cửa Nam" }, "geometry": { "type": "Point", "coordinates": [ 105.8478345, 21.0241676 ] } },
{ "type": "Feature", "properties": { "id": 6257442385, "name": "59 Lý Thường Kiệt", "index_right": 39, "district": "Phường Cửa Nam" }, "geometry": { "type": "Point", "coordinates": [ 105.8478521, 21.0240466 ] } },
{ "type": "Feature", "properties": { "id": 7185567066, "name": "Đối diện tháp Hà Nội - Hai Bà Trưng (cạnh 56 Hai Bà Trưng)", "index_right": 39, "district": "Phường Cửa Nam" }, "geometry": { "type": "Point", "coordinates": [ 105.8466533, 21.0261411 ] } },
{ "type": "Feature", "properties": { "id": 7825858603, "name": "Đại học Khoa học tự nhiên - 19 Lê Thánh Tông", "index_right": 39, "district": "Phường Cửa Nam" }, "geometry": { "type": "Point", "coordinates": [ 105.8583207, 21.020498 ] } },
{ "type": "Feature", "properties": { "id": 8205232247, "name": "67 Trần Hưng Đạo", "index_right": 39, "district": "Phường Cửa Nam" }, "geometry": { "type": "Point", "coordinates": [ 105.8489463, 21.0218851 ] } },
{ "type": "Feature", "properties": { "id": 8209169359, "name": "13A Trần Hưng Đạo", "index_right": 39, "district": "Phường Cửa Nam" }, "geometry": { "type": "Point", "coordinates": [ 105.8574139, 21.0193961 ] } },
{ "type": "Feature", "properties": { "id": 8822946769, "name": "25 Lý Thường Kiệt", "index_right": 39, "district": "Phường Cửa Nam" }, "geometry": { "type": "Point", "coordinates": [ 105.8547847, 21.0219448 ] } },
{ "type": "Feature", "properties": { "id": 8837631356, "name": "Hè cạnh vườn hoa 19-8, đường Hai Bà Trưng", "index_right": 39, "district": "Phường Cửa Nam" }, "geometry": { "type": "Point", "coordinates": [ 105.857025, 21.0231148 ] } },
{ "type": "Feature", "properties": { "id": 8895558436, "name": "32 Trần Hưng Đạo", "index_right": 39, "district": "Phường Cửa Nam" }, "geometry": { "type": "Point", "coordinates": [ 105.8545074, 21.02039 ] } },
{ "type": "Feature", "properties": { "id": 8923111206, "name": "44 Lý Thường Kiệt", "index_right": 39, "district": "Phường Cửa Nam" }, "geometry": { "type": "Point", "coordinates": [ 105.8488793, 21.0238525 ] } },
{ "type": "Feature", "properties": { "id": 8925798722, "name": "Đối diện số 1A Tràng Tiền - Tập đoàn Hóa chất Việt Nam", "index_right": 39, "district": "Phường Cửa Nam" }, "geometry": { "type": "Point", "coordinates": [ 105.8587472, 21.0248072 ] } },
{ "type": "Feature", "properties": { "id": 10134844431, "name": "84 Nguyễn Du", "index_right": 39, "district": "Phường Cửa Nam" }, "geometry": { "type": "Point", "coordinates": [ 105.8434947, 21.0201393 ] } },
{ "type": "Feature", "properties": { "id": 11521595975, "name": "29 Hàn Thuyên", "index_right": 39, "district": "Phường Cửa Nam" }, "geometry": { "type": "Point", "coordinates": [ 105.8554835, 21.01851 ] } },
{ "type": "Feature", "properties": { "id": 11524039231, "name": "37 Quang Trung", "index_right": 39, "district": "Phường Cửa Nam" }, "geometry": { "type": "Point", "coordinates": [ 105.8482921, 21.0207615 ] } },
{ "type": "Feature", "properties": { "id": 11524859513, "name": "Trước ngã 3 Lê Thánh Tông 100m", "index_right": 39, "district": "Phường Cửa Nam" }, "geometry": { "type": "Point", "coordinates": [ 105.8565292, 21.0215201 ] } },
{ "type": "Feature", "properties": { "id": 11527164033, "name": "69 Lý Thường Kiệt", "index_right": 39, "district": "Phường Cửa Nam" }, "geometry": { "type": "Point", "coordinates": [ 105.8454054, 21.0247902 ] } },
{ "type": "Feature", "properties": { "id": 11586827706, "name": "Đối diện 52 Nguyễn Du", "index_right": 39, "district": "Phường Cửa Nam" }, "geometry": { "type": "Point", "coordinates": [ 105.8461108, 21.0193719 ] } },
{ "type": "Feature", "properties": { "id": 12887824214, "name": "Bảo tàng Công an Nhân dân - Trần Bình Trọng", "index_right": 39, "district": "Phường Cửa Nam" }, "geometry": { "type": "Point", "coordinates": [ 105.8452842, 21.0223672 ] } },
{ "type": "Feature", "properties": { "id": 12887824215, "name": "Trường Trung học phổ thông Việt Đức", "index_right": 39, "district": "Phường Cửa Nam" }, "geometry": { "type": "Point", "coordinates": [ 105.8494616, 21.0235982 ] } }
]
}
