{
"type": "FeatureCollection",
"name": "Phường_Giảng_Võ",
"crs": { "type": "name", "properties": { "name": "urn:ogc:def:crs:OGC:1.3:CRS84" } },
"features": [
{ "type": "Feature", "properties": { "id": 738813553, "name": "Ga Cầu Giấy - Thủ Lệ 02", "index_right": 47, "district": "Phường Giảng Võ" }, "geometry": { "type": "Point", "coordinates": [ 105.8037637, 21.0292567 ] } },
{ "type": "Feature", "properties": { "id": 738813654, "name": "Bộ Y tế - 138A Giảng Võ", "index_right": 47, "district": "Phường Giảng Võ" }, "geometry": { "type": "Point", "coordinates": [ 105.8254007, 21.0284341 ] } },
{ "type": "Feature", "properties": { "id": 738813690, "name": "Đối diện Đài Truyền hình Hà Nội - 5 Huỳnh Thúc Kháng", "index_right": 47, "district": "Phường Giảng Võ" }, "geometry": { "type": "Point", "coordinates": [ 105.8140382, 21.0171372 ] } },
{ "type": "Feature", "properties": { "id": 738813748, "name": "211 Kim Mã", "index_right": 47, "district": "Phường Giảng Võ" }, "geometry": { "type": "Point", "coordinates": [ 105.8232502, 21.0313778 ] } },
{ "type": "Feature", "properties": { "id": 738813910, "name": "Đối diện nhà H2 Thành Công", "index_right": 47, "district": "Phường Giảng Võ" }, "geometry": { "type": "Point", "coordinates": [ 105.8165088, 21.0197879 ] } },
{ "type": "Feature", "properties": { "id": 738814364, "name": "116 A5 Tập thể Giảng Võ - Kim Mã", "index_right": 47, "district": "Phường Giảng Võ" }, "geometry": { "type": "Point", "coordinates": [ 105.8188373, 21.0306611 ] } },
{ "type": "Feature", "properties": { "id": 738814414, "name": "73 Nguyễn Chí Thanh - Đối diện Khách sạn Bảo Sơn", "index_right": 47, "district": "Phường Giảng Võ" }, "geometry": { "type": "Point", "coordinates": [ 105.8107222, 21.023904 ] } },
{ "type": "Feature", "properties": { "id": 738814805, "name": "Ngõ 1072 Đê La Thành", "index_right": 47, "district": "Phường Giảng Võ" }, "geometry": { "type": "Point", "coordinates": [ 105.8093791, 21.0274079 ] } },
{ "type": "Feature", "properties": { "id": 738814976, "name": "666-668 Đê La Thành", "index_right": 47, "district": "Phường Giảng Võ" }, "geometry": { "type": "Point", "coordinates": [ 105.816826, 21.0238812 ] } },
{ "type": "Feature", "properties": { "id": 738815241, "name": "Đối diện Công viên Thủ Lệ - Đường Bưởi dưới", "index_right": 47, "district": "Phường Giảng Võ" }, "geometry": { "type": "Point", "coordinates": [ 105.8025463, 21.031306 ] } },
{ "type": "Feature", "properties": { "id": 738815328, "name": "89 Nguyễn Chí Thanh - KTX Đại học Luật", "index_right": 47, "district": "Phường Giảng Võ" }, "geometry": { "type": "Point", "coordinates": [ 105.8092943, 21.0213987 ] } },
{ "type": "Feature", "properties": { "id": 738815727, "name": "Hè trước tòa nhà PTA - Số 1 Kim Mã", "index_right": 47, "district": "Phường Giảng Võ" }, "geometry": { "type": "Point", "coordinates": [ 105.8293636, 21.0322421 ] } },
{ "type": "Feature", "properties": { "id": 738815746, "name": "20 Huỳnh Thúc Kháng", "index_right": 47, "district": "Phường Giảng Võ" }, "geometry": { "type": "Point", "coordinates": [ 105.8096446, 21.0192395 ] } },
{ "type": "Feature", "properties": { "id": 738815835, "name": "593-595 Kim Mã", "index_right": 47, "district": "Phường Giảng Võ" }, "geometry": { "type": "Point", "coordinates": [ 105.8088608, 21.0293967 ] } },
{ "type": "Feature", "properties": { "id": 738815843, "name": "Đối diện 702 Đê La Thành", "index_right": 47, "district": "Phường Giảng Võ" }, "geometry": { "type": "Point", "coordinates": [ 105.8160749, 21.0238909 ] } },
{ "type": "Feature", "properties": { "id": 8237661949, "name": "Nhà chờ Núi Trúc", "index_right": 47, "district": "Phường Giảng Võ" }, "geometry": { "type": "Point", "coordinates": [ 105.8263062, 21.0288444 ] } },
{ "type": "Feature", "properties": { "id": 8237661950, "name": "Nhà chờ Giảng Võ", "index_right": 47, "district": "Phường Giảng Võ" }, "geometry": { "type": "Point", "coordinates": [ 105.821045, 21.0245766 ] } },
{ "type": "Feature", "properties": { "id": 8237661951, "name": "Nhà chờ Thành Công", "index_right": 47, "district": "Phường Giảng Võ" }, "geometry": { "type": "Point", "coordinates": [ 105.8159898, 21.0181324 ] } },
{ "type": "Feature", "properties": { "id": 8741294706, "name": "Trường Quốc tế Hà Nội - 48 Liễu Giai", "index_right": 47, "district": "Phường Giảng Võ" }, "geometry": { "type": "Point", "coordinates": [ 105.8136145, 21.0332216 ] } },
{ "type": "Feature", "properties": { "id": 8741294707, "name": "Hồ Ngọc Khánh - Đối diện 37 Nguyễn Chí Thanh", "index_right": 47, "district": "Phường Giảng Võ" }, "geometry": { "type": "Point", "coordinates": [ 105.8119181, 21.0269795 ] } },
{ "type": "Feature", "properties": { "id": 8741294708, "name": "Công viên Thủ Lệ - Đường Bưởi tránh mới (gần ngõ 32 đường Bưởi)", "index_right": 47, "district": "Phường Giảng Võ" }, "geometry": { "type": "Point", "coordinates": [ 105.8034833, 21.0316418 ] } },
{ "type": "Feature", "properties": { "id": 8741294709, "name": "Dốc tập lái - 202 đường Bưởi trên", "index_right": 47, "district": "Phường Giảng Võ" }, "geometry": { "type": "Point", "coordinates": [ 105.8060156, 21.0353685 ] } },
{ "type": "Feature", "properties": { "id": 8757875260, "name": "251 Giảng Võ", "index_right": 47, "district": "Phường Giảng Võ" }, "geometry": { "type": "Point", "coordinates": [ 105.8210418, 21.024785 ] } },
{ "type": "Feature", "properties": { "id": 8807115913, "name": "Số 9 Đào Tấn (đối diện 22 Đào Tấn)", "index_right": 47, "district": "Phường Giảng Võ" }, "geometry": { "type": "Point", "coordinates": [ 105.8086909, 21.0324136 ] } },
{ "type": "Feature", "properties": { "id": 8856174813, "name": "35-35A Nguyễn Chí Thanh", "index_right": 47, "district": "Phường Giảng Võ" }, "geometry": { "type": "Point", "coordinates": [ 105.8122395, 21.0273198 ] } },
{ "type": "Feature", "properties": { "id": 8856174814, "name": "10 Đào Tấn - Viện Vật lý", "index_right": 47, "district": "Phường Giảng Võ" }, "geometry": { "type": "Point", "coordinates": [ 105.8102774, 21.032256 ] } },
{ "type": "Feature", "properties": { "id": 8954351028, "name": "172 Ngọc Khánh", "index_right": 47, "district": "Phường Giảng Võ" }, "geometry": { "type": "Point", "coordinates": [ 105.8196818, 21.0242162 ] } },
{ "type": "Feature", "properties": { "id": 8954351029, "name": "29 Ngọc Khánh", "index_right": 47, "district": "Phường Giảng Võ" }, "geometry": { "type": "Point", "coordinates": [ 105.8194238, 21.0246895 ] } },
{ "type": "Feature", "properties": { "id": 8954351030, "name": "104 nhà B Tập thể Ngọc Khánh - Đối diện Khách sạn Lake Side", "index_right": 47, "district": "Phường Giảng Võ" }, "geometry": { "type": "Point", "coordinates": [ 105.8176026, 21.0279401 ] } },
{ "type": "Feature", "properties": { "id": 8954351031, "name": "Đối diện 70 Ngọc Khánh", "index_right": 47, "district": "Phường Giảng Võ" }, "geometry": { "type": "Point", "coordinates": [ 105.8176184, 21.028739 ] } },
{ "type": "Feature", "properties": { "id": 11294871986, "name": "Bến xe Kim Mã", "index_right": 47, "district": "Phường Giảng Võ" }, "geometry": { "type": "Point", "coordinates": [ 105.8293578, 21.0319692 ] } },
{ "type": "Feature", "properties": { "id": 11294871987, "name": "Kim Mã (nhà chờ BRT Kim Mã) - Biển trước", "index_right": 47, "district": "Phường Giảng Võ" }, "geometry": { "type": "Point", "coordinates": [ 105.8291721, 21.0320888 ] } },
{ "type": "Feature", "properties": { "id": 11294871988, "name": "Kim Mã (nhà chờ BRT Kim Mã) - Biển sau", "index_right": 47, "district": "Phường Giảng Võ" }, "geometry": { "type": "Point", "coordinates": [ 105.8295907, 21.0319667 ] } },
{ "type": "Feature", "properties": { "id": 11524039230, "name": "Trường Trung học cơ sở Giảng Võ", "index_right": 47, "district": "Phường Giảng Võ" }, "geometry": { "type": "Point", "coordinates": [ 105.821342, 21.0285309 ] } },
{ "type": "Feature", "properties": { "id": 11680376018, "name": "Ga Cầu Giấy - Thủ Lệ 01", "index_right": 47, "district": "Phường Giảng Võ" }, "geometry": { "type": "Point", "coordinates": [ 105.8040213, 21.0291151 ] } },
{ "type": "Feature", "properties": { "id": 11934861065, "name": "Điểm đỗ xe buýt Ga Cầu Giấy", "index_right": 47, "district": "Phường Giảng Võ" }, "geometry": { "type": "Point", "coordinates": [ 105.80409, 21.0288148 ] } },
{ "type": "Feature", "properties": { "id": 11934861068, "name": "Dải giữa điểm trung chuyển Cầu Giấy - Nhà ga S8-01", "index_right": 47, "district": "Phường Giảng Võ" }, "geometry": { "type": "Point", "coordinates": [ 105.8032174, 21.0292367 ] } },
{ "type": "Feature", "properties": { "id": 11934934470, "name": "Dải giữa Điểm trung chuyển Cầu Giấy 04", "index_right": 47, "district": "Phường Giảng Võ" }, "geometry": { "type": "Point", "coordinates": [ 105.8027634, 21.0294603 ] } }
]
}
