{
"type": "FeatureCollection",
"name": "Phường_Thanh_Liệt",
"crs": { "type": "name", "properties": { "name": "urn:ogc:def:crs:OGC:1.3:CRS84" } },
"features": [
{ "type": "Feature", "properties": { "id": 444394809, "name": "477 Nguyễn Trãi - Học viện Khoa học Xã hội", "index_right": 79, "district": "Phường Thanh Liệt" }, "geometry": { "type": "Point", "coordinates": [ 105.8017304, 20.9901876 ] } },
{ "type": "Feature", "properties": { "id": 444394809, "name": "477 Nguyễn Trãi - Học viện Khoa học Xã hội", "index_right": 80, "district": "Phường Thanh Liệt" }, "geometry": { "type": "Point", "coordinates": [ 105.8017304, 20.9901876 ] } },
{ "type": "Feature", "properties": { "id": 738814455, "name": "495 Nguyễn Trãi", "index_right": 79, "district": "Phường Thanh Liệt" }, "geometry": { "type": "Point", "coordinates": [ 105.7991672, 20.9883915 ] } },
{ "type": "Feature", "properties": { "id": 738814455, "name": "495 Nguyễn Trãi", "index_right": 80, "district": "Phường Thanh Liệt" }, "geometry": { "type": "Point", "coordinates": [ 105.7991672, 20.9883915 ] } },
{ "type": "Feature", "properties": { "id": 8770739156, "name": "517 Nguyễn Trãi - Đối diện Đại học Hà Nội", "index_right": 79, "district": "Phường Thanh Liệt" }, "geometry": { "type": "Point", "coordinates": [ 105.7960698, 20.9862326 ] } },
{ "type": "Feature", "properties": { "id": 8770739156, "name": "517 Nguyễn Trãi - Đối diện Đại học Hà Nội", "index_right": 80, "district": "Phường Thanh Liệt" }, "geometry": { "type": "Point", "coordinates": [ 105.7960698, 20.9862326 ] } },
{ "type": "Feature", "properties": { "id": 8846358757, "name": "Đối diện Trung tâm XNK Xây dựng Vimeco", "index_right": 79, "district": "Phường Thanh Liệt" }, "geometry": { "type": "Point", "coordinates": [ 105.8115729, 20.9593784 ] } },
{ "type": "Feature", "properties": { "id": 8846358757, "name": "Đối diện Trung tâm XNK Xây dựng Vimeco", "index_right": 80, "district": "Phường Thanh Liệt" }, "geometry": { "type": "Point", "coordinates": [ 105.8115729, 20.9593784 ] } },
{ "type": "Feature", "properties": { "id": 8846358758, "name": "Đối diện UBND xã Thanh Liệt", "index_right": 79, "district": "Phường Thanh Liệt" }, "geometry": { "type": "Point", "coordinates": [ 105.8176208, 20.9632368 ] } },
{ "type": "Feature", "properties": { "id": 8846358758, "name": "Đối diện UBND xã Thanh Liệt", "index_right": 80, "district": "Phường Thanh Liệt" }, "geometry": { "type": "Point", "coordinates": [ 105.8176208, 20.9632368 ] } },
{ "type": "Feature", "properties": { "id": 8846358786, "name": "Nhà văn hoá xã Thanh Liệt", "index_right": 79, "district": "Phường Thanh Liệt" }, "geometry": { "type": "Point", "coordinates": [ 105.8173642, 20.9632178 ] } },
{ "type": "Feature", "properties": { "id": 8846358786, "name": "Nhà văn hoá xã Thanh Liệt", "index_right": 80, "district": "Phường Thanh Liệt" }, "geometry": { "type": "Point", "coordinates": [ 105.8173642, 20.9632178 ] } },
{ "type": "Feature", "properties": { "id": 8846358787, "name": "Trung tâm XNK Xây dựng Vimeco", "index_right": 79, "district": "Phường Thanh Liệt" }, "geometry": { "type": "Point", "coordinates": [ 105.8120698, 20.9599191 ] } },
{ "type": "Feature", "properties": { "id": 8846358787, "name": "Trung tâm XNK Xây dựng Vimeco", "index_right": 80, "district": "Phường Thanh Liệt" }, "geometry": { "type": "Point", "coordinates": [ 105.8120698, 20.9599191 ] } },
{ "type": "Feature", "properties": { "id": 8846358788, "name": "30 Cầu Bươu", "index_right": 79, "district": "Phường Thanh Liệt" }, "geometry": { "type": "Point", "coordinates": [ 105.8078695, 20.9572258 ] } },
{ "type": "Feature", "properties": { "id": 8846358788, "name": "30 Cầu Bươu", "index_right": 80, "district": "Phường Thanh Liệt" }, "geometry": { "type": "Point", "coordinates": [ 105.8078695, 20.9572258 ] } },
{ "type": "Feature", "properties": { "id": 8846358789, "name": "12 Cầu Bươu", "index_right": 79, "district": "Phường Thanh Liệt" }, "geometry": { "type": "Point", "coordinates": [ 105.8038293, 20.9593502 ] } },
{ "type": "Feature", "properties": { "id": 8846358789, "name": "12 Cầu Bươu", "index_right": 80, "district": "Phường Thanh Liệt" }, "geometry": { "type": "Point", "coordinates": [ 105.8038293, 20.9593502 ] } },
{ "type": "Feature", "properties": { "id": 8846358790, "name": "Bệnh viện K - Cơ sở Tân Triều", "index_right": 79, "district": "Phường Thanh Liệt" }, "geometry": { "type": "Point", "coordinates": [ 105.7989745, 20.9619706 ] } },
{ "type": "Feature", "properties": { "id": 8846358790, "name": "Bệnh viện K - Cơ sở Tân Triều", "index_right": 80, "district": "Phường Thanh Liệt" }, "geometry": { "type": "Point", "coordinates": [ 105.7989745, 20.9619706 ] } },
{ "type": "Feature", "properties": { "id": 8846689642, "name": "100 Nguyễn Xiển", "index_right": 79, "district": "Phường Thanh Liệt" }, "geometry": { "type": "Point", "coordinates": [ 105.8044675, 20.989465 ] } },
{ "type": "Feature", "properties": { "id": 8846689642, "name": "100 Nguyễn Xiển", "index_right": 80, "district": "Phường Thanh Liệt" }, "geometry": { "type": "Point", "coordinates": [ 105.8044675, 20.989465 ] } },
{ "type": "Feature", "properties": { "id": 8846689643, "name": "Công ty Cổ phần Thiên Phú", "index_right": 79, "district": "Phường Thanh Liệt" }, "geometry": { "type": "Point", "coordinates": [ 105.8072368, 20.985645 ] } },
{ "type": "Feature", "properties": { "id": 8846689643, "name": "Công ty Cổ phần Thiên Phú", "index_right": 80, "district": "Phường Thanh Liệt" }, "geometry": { "type": "Point", "coordinates": [ 105.8072368, 20.985645 ] } },
{ "type": "Feature", "properties": { "id": 8897455250, "name": "534 Kim Giang", "index_right": 79, "district": "Phường Thanh Liệt" }, "geometry": { "type": "Point", "coordinates": [ 105.82355, 20.9689509 ] } },
{ "type": "Feature", "properties": { "id": 8897455250, "name": "534 Kim Giang", "index_right": 80, "district": "Phường Thanh Liệt" }, "geometry": { "type": "Point", "coordinates": [ 105.82355, 20.9689509 ] } },
{ "type": "Feature", "properties": { "id": 8897455251, "name": "704 Kim Giang", "index_right": 79, "district": "Phường Thanh Liệt" }, "geometry": { "type": "Point", "coordinates": [ 105.8201492, 20.9654763 ] } },
{ "type": "Feature", "properties": { "id": 8897455251, "name": "704 Kim Giang", "index_right": 80, "district": "Phường Thanh Liệt" }, "geometry": { "type": "Point", "coordinates": [ 105.8201492, 20.9654763 ] } },
{ "type": "Feature", "properties": { "id": 8897455253, "name": "Qua TT giáo dục TX Huyện Thanh Trì 100m", "index_right": 79, "district": "Phường Thanh Liệt" }, "geometry": { "type": "Point", "coordinates": [ 105.8172327, 20.9521145 ] } },
{ "type": "Feature", "properties": { "id": 8897455253, "name": "Qua TT giáo dục TX Huyện Thanh Trì 100m", "index_right": 80, "district": "Phường Thanh Liệt" }, "geometry": { "type": "Point", "coordinates": [ 105.8172327, 20.9521145 ] } },
{ "type": "Feature", "properties": { "id": 8897455261, "name": "Trường CĐ Kỹ Thuật Công Nghiệp HN", "index_right": 79, "district": "Phường Thanh Liệt" }, "geometry": { "type": "Point", "coordinates": [ 105.8115436, 20.9552754 ] } },
{ "type": "Feature", "properties": { "id": 8897455261, "name": "Trường CĐ Kỹ Thuật Công Nghiệp HN", "index_right": 80, "district": "Phường Thanh Liệt" }, "geometry": { "type": "Point", "coordinates": [ 105.8115436, 20.9552754 ] } },
{ "type": "Feature", "properties": { "id": 8897455262, "name": "Đối diện 690 Kim Giang", "index_right": 79, "district": "Phường Thanh Liệt" }, "geometry": { "type": "Point", "coordinates": [ 105.8207222, 20.9658309 ] } },
{ "type": "Feature", "properties": { "id": 8897455262, "name": "Đối diện 690 Kim Giang", "index_right": 80, "district": "Phường Thanh Liệt" }, "geometry": { "type": "Point", "coordinates": [ 105.8207222, 20.9658309 ] } },
{ "type": "Feature", "properties": { "id": 8897455263, "name": "Đối diện 534 Kim Giang", "index_right": 79, "district": "Phường Thanh Liệt" }, "geometry": { "type": "Point", "coordinates": [ 105.8237338, 20.9690746 ] } },
{ "type": "Feature", "properties": { "id": 8897455263, "name": "Đối diện 534 Kim Giang", "index_right": 80, "district": "Phường Thanh Liệt" }, "geometry": { "type": "Point", "coordinates": [ 105.8237338, 20.9690746 ] } },
{ "type": "Feature", "properties": { "id": 8939177164, "name": "Ga Phùng Khoang - 81 Trần Phú", "index_right": 79, "district": "Phường Thanh Liệt" }, "geometry": { "type": "Point", "coordinates": [ 105.7929032, 20.9839593 ] } },
{ "type": "Feature", "properties": { "id": 8939177164, "name": "Ga Phùng Khoang - 81 Trần Phú", "index_right": 80, "district": "Phường Thanh Liệt" }, "geometry": { "type": "Point", "coordinates": [ 105.7929032, 20.9839593 ] } },
{ "type": "Feature", "properties": { "id": 11524039227, "name": "Đối diện cổng viện K", "index_right": 79, "district": "Phường Thanh Liệt" }, "geometry": { "type": "Point", "coordinates": [ 105.7990649, 20.9654074 ] } },
{ "type": "Feature", "properties": { "id": 11524039227, "name": "Đối diện cổng viện K", "index_right": 80, "district": "Phường Thanh Liệt" }, "geometry": { "type": "Point", "coordinates": [ 105.7990649, 20.9654074 ] } },
{ "type": "Feature", "properties": { "id": 11524039228, "name": "Cách cổng sau viện K 50m", "index_right": 79, "district": "Phường Thanh Liệt" }, "geometry": { "type": "Point", "coordinates": [ 105.7985447, 20.9645942 ] } },
{ "type": "Feature", "properties": { "id": 11524039228, "name": "Cách cổng sau viện K 50m", "index_right": 80, "district": "Phường Thanh Liệt" }, "geometry": { "type": "Point", "coordinates": [ 105.7985447, 20.9645942 ] } }
]
}
