{
"type": "FeatureCollection",
"name": "Phường_Tây_Hồ",
"crs": { "type": "name", "properties": { "name": "urn:ogc:def:crs:OGC:1.3:CRS84" } },
"features": [
{ "type": "Feature", "properties": { "id": 481837146, "name": "Đối diện Đền Quán Thánh", "index_right": 49, "district": "Phường Tây Hồ" }, "geometry": { "type": "Point", "coordinates": [ 105.8359731, 21.0434842 ] } },
{ "type": "Feature", "properties": { "id": 738813372, "name": "325 Âu Cơ", "index_right": 49, "district": "Phường Tây Hồ" }, "geometry": { "type": "Point", "coordinates": [ 105.8249077, 21.0735062 ] } },
{ "type": "Feature", "properties": { "id": 738813432, "name": "Đối diện UBND phường Nhật Tân", "index_right": 49, "district": "Phường Tây Hồ" }, "geometry": { "type": "Point", "coordinates": [ 105.8215967, 21.0762848 ] } },
{ "type": "Feature", "properties": { "id": 738813684, "name": "Trụ sở Quận uỷ Tây Hồ - 657 Lạc Long Quân", "index_right": 49, "district": "Phường Tây Hồ" }, "geometry": { "type": "Point", "coordinates": [ 105.8112191, 21.068583 ] } },
{ "type": "Feature", "properties": { "id": 738814289, "name": "579 Lạc Long Quân", "index_right": 49, "district": "Phường Tây Hồ" }, "geometry": { "type": "Point", "coordinates": [ 105.8103201, 21.0660204 ] } },
{ "type": "Feature", "properties": { "id": 738814350, "name": "Qua ngã 3 Xuân La 70m - Lạc Long Quân (Hồ Tây)", "index_right": 49, "district": "Phường Tây Hồ" }, "geometry": { "type": "Point", "coordinates": [ 105.8087335, 21.0588888 ] } },
{ "type": "Feature", "properties": { "id": 738814378, "name": "215 Âu Cơ", "index_right": 49, "district": "Phường Tây Hồ" }, "geometry": { "type": "Point", "coordinates": [ 105.8281083, 21.0660154 ] } },
{ "type": "Feature", "properties": { "id": 738815384, "name": "Chùa Trấn Quốc", "index_right": 49, "district": "Phường Tây Hồ" }, "geometry": { "type": "Point", "coordinates": [ 105.837727, 21.0479698 ] } },
{ "type": "Feature", "properties": { "id": 738815447, "name": "545 Lạc Long Quân", "index_right": 49, "district": "Phường Tây Hồ" }, "geometry": { "type": "Point", "coordinates": [ 105.8094533, 21.0637847 ] } },
{ "type": "Feature", "properties": { "id": 963363896, "name": "523 Âu Cơ", "index_right": 49, "district": "Phường Tây Hồ" }, "geometry": { "type": "Point", "coordinates": [ 105.8185201, 21.0804053 ] } },
{ "type": "Feature", "properties": { "id": 5118690560, "name": "Gần ngã 3 Võng Thị - 313 Lạc Long Quân", "index_right": 49, "district": "Phường Tây Hồ" }, "geometry": { "type": "Point", "coordinates": [ 105.8089302, 21.0530441 ] } },
{ "type": "Feature", "properties": { "id": 8741294712, "name": "Cầu vượt đi bộ Võ Chí Công", "index_right": 49, "district": "Phường Tây Hồ" }, "geometry": { "type": "Point", "coordinates": [ 105.804757, 21.0505439 ] } },
{ "type": "Feature", "properties": { "id": 8741294713, "name": "Đối diện Nhà hàng Ngọc Được 3 - Võ Chí Công", "index_right": 49, "district": "Phường Tây Hồ" }, "geometry": { "type": "Point", "coordinates": [ 105.8046867, 21.055715 ] } },
{ "type": "Feature", "properties": { "id": 8741294714, "name": "41 Võ Chí Công (Cửa hàng Lập 4 mùa)", "index_right": 49, "district": "Phường Tây Hồ" }, "geometry": { "type": "Point", "coordinates": [ 105.8046536, 21.0613349 ] } },
{ "type": "Feature", "properties": { "id": 8741294715, "name": "Khu liên cơ quan sở ngành - 258 Võ Chí Công", "index_right": 49, "district": "Phường Tây Hồ" }, "geometry": { "type": "Point", "coordinates": [ 105.8082419, 21.0683142 ] } },
{ "type": "Feature", "properties": { "id": 8741301523, "name": "239-241 Hoàng Hoa Thám", "index_right": 49, "district": "Phường Tây Hồ" }, "geometry": { "type": "Point", "coordinates": [ 105.8195458, 21.0420786 ] } },
{ "type": "Feature", "properties": { "id": 8807115912, "name": "105 - 111 Lạc Long Quân (Gần đối diện ngã 3 Thụy Khuê)", "index_right": 49, "district": "Phường Tây Hồ" }, "geometry": { "type": "Point", "coordinates": [ 105.8065599, 21.0490566 ] } },
{ "type": "Feature", "properties": { "id": 8807115917, "name": "Đối diện Phòng Cảnh sát Phòng cháy chữa cháy", "index_right": 49, "district": "Phường Tây Hồ" }, "geometry": { "type": "Point", "coordinates": [ 105.8097926, 21.071614 ] } },
{ "type": "Feature", "properties": { "id": 8807115918, "name": "Đối diện Khu đô thị Nam Thăng Long", "index_right": 49, "district": "Phường Tây Hồ" }, "geometry": { "type": "Point", "coordinates": [ 105.811063, 21.0745566 ] } },
{ "type": "Feature", "properties": { "id": 8807115919, "name": "Trước 50m ngõ 689 Lạc Long Quân", "index_right": 49, "district": "Phường Tây Hồ" }, "geometry": { "type": "Point", "coordinates": [ 105.8132398, 21.0786594 ] } },
{ "type": "Feature", "properties": { "id": 8822946811, "name": "197 Nghi Tàm", "index_right": 49, "district": "Phường Tây Hồ" }, "geometry": { "type": "Point", "coordinates": [ 105.835605, 21.0568255 ] } },
{ "type": "Feature", "properties": { "id": 8822946812, "name": "115-117 Nghi Tàm", "index_right": 49, "district": "Phường Tây Hồ" }, "geometry": { "type": "Point", "coordinates": [ 105.8371558, 21.0541024 ] } },
{ "type": "Feature", "properties": { "id": 8850985962, "name": "Trường Trung học cơ sở Nhật Tân - 474 Lạc Long Quân", "index_right": 49, "district": "Phường Tây Hồ" }, "geometry": { "type": "Point", "coordinates": [ 105.8129339, 21.0735269 ] } },
{ "type": "Feature", "properties": { "id": 8850985964, "name": "Công viên nước Hồ Tây", "index_right": 49, "district": "Phường Tây Hồ" }, "geometry": { "type": "Point", "coordinates": [ 105.8159082, 21.0759396 ] } },
{ "type": "Feature", "properties": { "id": 8852120920, "name": "Qua 50m ngõ 677 Lạc Long Quân (Đối diện trường Trung học cơ sở Nhật Tân - 474 Lạc Long Quân)", "index_right": 49, "district": "Phường Tây Hồ" }, "geometry": { "type": "Point", "coordinates": [ 105.8121107, 21.071529 ] } },
{ "type": "Feature", "properties": { "id": 8900275039, "name": "50-52 Lạc Long Quân", "index_right": 49, "district": "Phường Tây Hồ" }, "geometry": { "type": "Point", "coordinates": [ 105.8072734, 21.0497565 ] } },
{ "type": "Feature", "properties": { "id": 8900275040, "name": "196 Lạc Long Quân - Trường mầm non Hoa Hồng", "index_right": 49, "district": "Phường Tây Hồ" }, "geometry": { "type": "Point", "coordinates": [ 105.8092017, 21.0526947 ] } },
{ "type": "Feature", "properties": { "id": 8900275041, "name": "Gần ngã 3 Xuân La 40m - Lạc Long Quân (Hồ Tây)", "index_right": 49, "district": "Phường Tây Hồ" }, "geometry": { "type": "Point", "coordinates": [ 105.8089712, 21.0593246 ] } },
{ "type": "Feature", "properties": { "id": 8900275042, "name": "312 Lạc Long Quân - Chùa Thiên Niên (Chùa Sài)", "index_right": 49, "district": "Phường Tây Hồ" }, "geometry": { "type": "Point", "coordinates": [ 105.8093078, 21.0621725 ] } },
{ "type": "Feature", "properties": { "id": 8900275043, "name": "360 Lạc Long Quân", "index_right": 49, "district": "Phường Tây Hồ" }, "geometry": { "type": "Point", "coordinates": [ 105.8105256, 21.0657927 ] } },
{ "type": "Feature", "properties": { "id": 8900275044, "name": "Đối diện Quận uỷ Tây Hồ - Lạc Long Quân", "index_right": 49, "district": "Phường Tây Hồ" }, "geometry": { "type": "Point", "coordinates": [ 105.8114925, 21.0686794 ] } },
{ "type": "Feature", "properties": { "id": 8920049618, "name": "12 Thụy Khuê", "index_right": 49, "district": "Phường Tây Hồ" }, "geometry": { "type": "Point", "coordinates": [ 105.8315491, 21.0424091 ] } },
{ "type": "Feature", "properties": { "id": 8920049619, "name": "72-74 Thụy Khuê", "index_right": 49, "district": "Phường Tây Hồ" }, "geometry": { "type": "Point", "coordinates": [ 105.8265178, 21.0415029 ] } },
{ "type": "Feature", "properties": { "id": 8920049620, "name": "130E-132A Thụy Khuê", "index_right": 49, "district": "Phường Tây Hồ" }, "geometry": { "type": "Point", "coordinates": [ 105.8236287, 21.0429709 ] } },
{ "type": "Feature", "properties": { "id": 8920049621, "name": "278 Thụy Khuê", "index_right": 49, "district": "Phường Tây Hồ" }, "geometry": { "type": "Point", "coordinates": [ 105.8151268, 21.0443411 ] } },
{ "type": "Feature", "properties": { "id": 8920049622, "name": "382-384 Thụy Khuê", "index_right": 49, "district": "Phường Tây Hồ" }, "geometry": { "type": "Point", "coordinates": [ 105.8119576, 21.0467063 ] } },
{ "type": "Feature", "properties": { "id": 8920049623, "name": "528 Thụy Khuê", "index_right": 49, "district": "Phường Tây Hồ" }, "geometry": { "type": "Point", "coordinates": [ 105.8087276, 21.0482901 ] } },
{ "type": "Feature", "properties": { "id": 8925900874, "name": "Khu liên cơ quan Sở ngành Hà Nội", "index_right": 49, "district": "Phường Tây Hồ" }, "geometry": { "type": "Point", "coordinates": [ 105.8117624, 21.0692699 ] } },
{ "type": "Feature", "properties": { "id": 8934749260, "name": "Đối diện 634 - 636 Lạc Long Quân (Lotte Lạc Long Quân)", "index_right": 49, "district": "Phường Tây Hồ" }, "geometry": { "type": "Point", "coordinates": [ 105.8142219, 21.0761989 ] } },
{ "type": "Feature", "properties": { "id": 8934749270, "name": "596 Lạc Long Quân - Cạnh đường vào Công viên Nước Hồ Tây", "index_right": 49, "district": "Phường Tây Hồ" }, "geometry": { "type": "Point", "coordinates": [ 105.814433, 21.0761416 ] } },
{ "type": "Feature", "properties": { "id": 11516291186, "name": "256 Thụy Khuê", "index_right": 49, "district": "Phường Tây Hồ" }, "geometry": { "type": "Point", "coordinates": [ 105.8177148, 21.0435008 ] } },
{ "type": "Feature", "properties": { "id": 11522353094, "name": "Đối diện UBND Quận Tây Hồ - Nguyễn Hoàng Tôn", "index_right": 49, "district": "Phường Tây Hồ" }, "geometry": { "type": "Point", "coordinates": [ 105.8100158, 21.0701912 ] } },
{ "type": "Feature", "properties": { "id": 11523863232, "name": "UBND Quận Tây Hồ - Nguyễn Hoàng Tôn", "index_right": 49, "district": "Phường Tây Hồ" }, "geometry": { "type": "Point", "coordinates": [ 105.8099324, 21.0699628 ] } },
{ "type": "Feature", "properties": { "id": 12151587819, "name": "27-29 Âu Cơ", "index_right": 49, "district": "Phường Tây Hồ" }, "geometry": { "type": "Point", "coordinates": [ 105.8332368, 21.060259 ] } },
{ "type": "Feature", "properties": { "id": 12176717407, "name": "111 Âu Cơ", "index_right": 49, "district": "Phường Tây Hồ" }, "geometry": { "type": "Point", "coordinates": [ 105.8320171, 21.0630045 ] } },
{ "type": "Feature", "properties": { "id": 13076788490, "name": "Đối diện Công viên Bách Thảo", "index_right": 49, "district": "Phường Tây Hồ" }, "geometry": { "type": "Point", "coordinates": [ 105.8294158, 21.0403824 ] } }
]
}
