{
"type": "FeatureCollection",
"name": "Phường_Phúc_Yên",
"crs": { "type": "name", "properties": { "name": "urn:ogc:def:crs:OGC:1.3:CRS84" } },
"features": [
{ "type": "Feature", "properties": { "id": 1858361517, "name": "58", "index_right": 210, "district": "Phường Phúc Yên" }, "geometry": { "type": "Point", "coordinates": [ 105.7110239, 21.231236 ] } },
{ "type": "Feature", "properties": { "id": 1858361522, "name": "Cổng BVĐK khu vực Phúc Yên", "index_right": 210, "district": "Phường Phúc Yên" }, "geometry": { "type": "Point", "coordinates": [ 105.7120159, 21.2319157 ] } },
{ "type": "Feature", "properties": { "id": 11528593153, "name": "Ngã 3 đường Nguyễn Tất Thành - Thành phố Phúc Yên", "index_right": 210, "district": "Phường Phúc Yên" }, "geometry": { "type": "Point", "coordinates": [ 105.7270533, 21.2392265 ] } },
{ "type": "Feature", "properties": { "id": 11528593154, "name": "Đối diện công ty Honda Việt Nam", "index_right": 210, "district": "Phường Phúc Yên" }, "geometry": { "type": "Point", "coordinates": [ 105.7215662, 21.2367415 ] } },
{ "type": "Feature", "properties": { "id": 11528593155, "name": "82-84 Nguyễn Trãi, Thành phố Phúc Yên", "index_right": 210, "district": "Phường Phúc Yên" }, "geometry": { "type": "Point", "coordinates": [ 105.705603, 21.2281564 ] } },
{ "type": "Feature", "properties": { "id": 11528593156, "name": "202 Nguyễn Trãi, Thành phố Phúc Yên", "index_right": 210, "district": "Phường Phúc Yên" }, "geometry": { "type": "Point", "coordinates": [ 105.7044288, 21.2239837 ] } },
{ "type": "Feature", "properties": { "id": 11531107934, "name": "Nhà văn hóa tố 15 phường Hùng Vương, đường Nguyễn Trãi - Thành phố Phúc Yên", "index_right": 210, "district": "Phường Phúc Yên" }, "geometry": { "type": "Point", "coordinates": [ 105.7046899, 21.2242576 ] } },
{ "type": "Feature", "properties": { "id": 11531107935, "name": "105 Nguyễn Trãi, Thành phố Phúc Yên", "index_right": 210, "district": "Phường Phúc Yên" }, "geometry": { "type": "Point", "coordinates": [ 105.7058824, 21.2287295 ] } },
{ "type": "Feature", "properties": { "id": 11531107936, "name": "Ngã tư Nguyễn Trãi - đường Hai Bà Trưng - Thành phố Phúc Yên", "index_right": 210, "district": "Phường Phúc Yên" }, "geometry": { "type": "Point", "coordinates": [ 105.70641, 21.2306832 ] } },
{ "type": "Feature", "properties": { "id": 11531107937, "name": "Siêu thị điện máy Việt Lâm", "index_right": 210, "district": "Phường Phúc Yên" }, "geometry": { "type": "Point", "coordinates": [ 105.7110288, 21.2313358 ] } },
{ "type": "Feature", "properties": { "id": 11531107938, "name": "Công ty Honda Việt Nam", "index_right": 210, "district": "Phường Phúc Yên" }, "geometry": { "type": "Point", "coordinates": [ 105.7216207, 21.2364321 ] } },
{ "type": "Feature", "properties": { "id": 11531107939, "name": "75 Hai Bà Trưng, Thành phố Phúc Yên", "index_right": 210, "district": "Phường Phúc Yên" }, "geometry": { "type": "Point", "coordinates": [ 105.7261626, 21.2386727 ] } },
{ "type": "Feature", "properties": { "id": 11533397300, "name": "Nghĩa trang liệt sĩ Thành phố Phúc Yên", "index_right": 210, "district": "Phường Phúc Yên" }, "geometry": { "type": "Point", "coordinates": [ 105.7025361, 21.2310376 ] } }
]
}
