{
"type": "FeatureCollection",
"name": "Phường_Hà_Đông",
"crs": { "type": "name", "properties": { "name": "urn:ogc:def:crs:OGC:1.3:CRS84" } },
"features": [
{ "type": "Feature", "properties": { "id": 444394880, "name": "Đại học Kiến Trúc - Trần Phú (Hà Đông)", "index_right": 93, "district": "Phường Hà Đông" }, "geometry": { "type": "Point", "coordinates": [ 105.7892235, 20.9810908 ] } },
{ "type": "Feature", "properties": { "id": 444394880, "name": "Đại học Kiến Trúc - Trần Phú (Hà Đông)", "index_right": 94, "district": "Phường Hà Đông" }, "geometry": { "type": "Point", "coordinates": [ 105.7892235, 20.9810908 ] } },
{ "type": "Feature", "properties": { "id": 444394950, "name": "Học viện công nghệ bưu chính viễn thông - Trần Phú (Hà Đông)", "index_right": 93, "district": "Phường Hà Đông" }, "geometry": { "type": "Point", "coordinates": [ 105.7880024, 20.9805232 ] } },
{ "type": "Feature", "properties": { "id": 444394950, "name": "Học viện công nghệ bưu chính viễn thông - Trần Phú (Hà Đông)", "index_right": 94, "district": "Phường Hà Đông" }, "geometry": { "type": "Point", "coordinates": [ 105.7880024, 20.9805232 ] } },
{ "type": "Feature", "properties": { "id": 444394956, "name": "Số 10 Trần Phú - Siêu thị Việt Long", "index_right": 93, "district": "Phường Hà Đông" }, "geometry": { "type": "Point", "coordinates": [ 105.79154, 20.9833568 ] } },
{ "type": "Feature", "properties": { "id": 444394956, "name": "Số 10 Trần Phú - Siêu thị Việt Long", "index_right": 94, "district": "Phường Hà Đông" }, "geometry": { "type": "Point", "coordinates": [ 105.79154, 20.9833568 ] } },
{ "type": "Feature", "properties": { "id": 738814236, "name": "Đối diện Trung tâm Văn hóa Thông tin Tỉnh Hà Tây - Phùng Hưng (Hà Đông)", "index_right": 93, "district": "Phường Hà Đông" }, "geometry": { "type": "Point", "coordinates": [ 105.7825312, 20.9723019 ] } },
{ "type": "Feature", "properties": { "id": 738814236, "name": "Đối diện Trung tâm Văn hóa Thông tin Tỉnh Hà Tây - Phùng Hưng (Hà Đông)", "index_right": 94, "district": "Phường Hà Đông" }, "geometry": { "type": "Point", "coordinates": [ 105.7825312, 20.9723019 ] } },
{ "type": "Feature", "properties": { "id": 738814732, "name": "Trung tâm Văn hóa Thông tin - Phùng Hưng (Hà Đông)", "index_right": 93, "district": "Phường Hà Đông" }, "geometry": { "type": "Point", "coordinates": [ 105.782636, 20.9726907 ] } },
{ "type": "Feature", "properties": { "id": 738814732, "name": "Trung tâm Văn hóa Thông tin - Phùng Hưng (Hà Đông)", "index_right": 94, "district": "Phường Hà Đông" }, "geometry": { "type": "Point", "coordinates": [ 105.782636, 20.9726907 ] } },
{ "type": "Feature", "properties": { "id": 6666528584, "name": "Nhà chờ Vạn Phúc 2", "index_right": 93, "district": "Phường Hà Đông" }, "geometry": { "type": "Point", "coordinates": [ 105.7748336, 20.9848186 ] } },
{ "type": "Feature", "properties": { "id": 6666528584, "name": "Nhà chờ Vạn Phúc 2", "index_right": 94, "district": "Phường Hà Đông" }, "geometry": { "type": "Point", "coordinates": [ 105.7748336, 20.9848186 ] } },
{ "type": "Feature", "properties": { "id": 8237661959, "name": "Nhà chờ Vạn Phúc 1", "index_right": 93, "district": "Phường Hà Đông" }, "geometry": { "type": "Point", "coordinates": [ 105.7697899, 20.9822771 ] } },
{ "type": "Feature", "properties": { "id": 8237661959, "name": "Nhà chờ Vạn Phúc 1", "index_right": 94, "district": "Phường Hà Đông" }, "geometry": { "type": "Point", "coordinates": [ 105.7697899, 20.9822771 ] } },
{ "type": "Feature", "properties": { "id": 8237661960, "name": "Nhà chờ Dương Nội", "index_right": 93, "district": "Phường Hà Đông" }, "geometry": { "type": "Point", "coordinates": [ 105.7658813, 20.9794492 ] } },
{ "type": "Feature", "properties": { "id": 8237661960, "name": "Nhà chờ Dương Nội", "index_right": 94, "district": "Phường Hà Đông" }, "geometry": { "type": "Point", "coordinates": [ 105.7658813, 20.9794492 ] } },
{ "type": "Feature", "properties": { "id": 8237661961, "name": "Nhà chờ Văn Khê", "index_right": 93, "district": "Phường Hà Đông" }, "geometry": { "type": "Point", "coordinates": [ 105.7622311, 20.9765799 ] } },
{ "type": "Feature", "properties": { "id": 8237661961, "name": "Nhà chờ Văn Khê", "index_right": 94, "district": "Phường Hà Đông" }, "geometry": { "type": "Point", "coordinates": [ 105.7622311, 20.9765799 ] } },
{ "type": "Feature", "properties": { "id": 8237661962, "name": "Nhà chờ An Hưng", "index_right": 93, "district": "Phường Hà Đông" }, "geometry": { "type": "Point", "coordinates": [ 105.7579152, 20.9732321 ] } },
{ "type": "Feature", "properties": { "id": 8237661962, "name": "Nhà chờ An Hưng", "index_right": 94, "district": "Phường Hà Đông" }, "geometry": { "type": "Point", "coordinates": [ 105.7579152, 20.9732321 ] } },
{ "type": "Feature", "properties": { "id": 8237661963, "name": "Nhà chờ Cầu La Khê", "index_right": 93, "district": "Phường Hà Đông" }, "geometry": { "type": "Point", "coordinates": [ 105.7546847, 20.9702597 ] } },
{ "type": "Feature", "properties": { "id": 8237661963, "name": "Nhà chờ Cầu La Khê", "index_right": 94, "district": "Phường Hà Đông" }, "geometry": { "type": "Point", "coordinates": [ 105.7546847, 20.9702597 ] } },
{ "type": "Feature", "properties": { "id": 8770675678, "name": "Ga Văn Quán", "index_right": 93, "district": "Phường Hà Đông" }, "geometry": { "type": "Point", "coordinates": [ 105.7844422, 20.9776701 ] } },
{ "type": "Feature", "properties": { "id": 8770675678, "name": "Ga Văn Quán", "index_right": 94, "district": "Phường Hà Đông" }, "geometry": { "type": "Point", "coordinates": [ 105.7844422, 20.9776701 ] } },
{ "type": "Feature", "properties": { "id": 8770675679, "name": "Khách sạn Sông Nhuệ (148 Trần Phú- Hà Đông)", "index_right": 93, "district": "Phường Hà Đông" }, "geometry": { "type": "Point", "coordinates": [ 105.7815367, 20.9754725 ] } },
{ "type": "Feature", "properties": { "id": 8770675679, "name": "Khách sạn Sông Nhuệ (148 Trần Phú- Hà Đông)", "index_right": 94, "district": "Phường Hà Đông" }, "geometry": { "type": "Point", "coordinates": [ 105.7815367, 20.9754725 ] } },
{ "type": "Feature", "properties": { "id": 8770675680, "name": "8 Quang Trung - Hà Đông", "index_right": 93, "district": "Phường Hà Đông" }, "geometry": { "type": "Point", "coordinates": [ 105.7774888, 20.9724842 ] } },
{ "type": "Feature", "properties": { "id": 8770675680, "name": "8 Quang Trung - Hà Đông", "index_right": 94, "district": "Phường Hà Đông" }, "geometry": { "type": "Point", "coordinates": [ 105.7774888, 20.9724842 ] } },
{ "type": "Feature", "properties": { "id": 8770675681, "name": "80 Quang Trung - Hà Đông", "index_right": 93, "district": "Phường Hà Đông" }, "geometry": { "type": "Point", "coordinates": [ 105.7745353, 20.9700844 ] } },
{ "type": "Feature", "properties": { "id": 8770675681, "name": "80 Quang Trung - Hà Đông", "index_right": 94, "district": "Phường Hà Đông" }, "geometry": { "type": "Point", "coordinates": [ 105.7745353, 20.9700844 ] } },
{ "type": "Feature", "properties": { "id": 8770675682, "name": "Nhà thi đấu Hà Đông - 182 Quang Trung (Hà Đông)", "index_right": 93, "district": "Phường Hà Đông" }, "geometry": { "type": "Point", "coordinates": [ 105.7713388, 20.9675815 ] } },
{ "type": "Feature", "properties": { "id": 8770675682, "name": "Nhà thi đấu Hà Đông - 182 Quang Trung (Hà Đông)", "index_right": 94, "district": "Phường Hà Đông" }, "geometry": { "type": "Point", "coordinates": [ 105.7713388, 20.9675815 ] } },
{ "type": "Feature", "properties": { "id": 8770675683, "name": "350-352 Quang Trung - Ga La Khê", "index_right": 93, "district": "Phường Hà Đông" }, "geometry": { "type": "Point", "coordinates": [ 105.7664842, 20.9637698 ] } },
{ "type": "Feature", "properties": { "id": 8770675683, "name": "350-352 Quang Trung - Ga La Khê", "index_right": 94, "district": "Phường Hà Đông" }, "geometry": { "type": "Point", "coordinates": [ 105.7664842, 20.9637698 ] } },
{ "type": "Feature", "properties": { "id": 8770739150, "name": "Công ty CPLH Thực Phẩm - 267 Quang Trung - Hà Đông", "index_right": 93, "district": "Phường Hà Đông" }, "geometry": { "type": "Point", "coordinates": [ 105.7715052, 20.9673548 ] } },
{ "type": "Feature", "properties": { "id": 8770739150, "name": "Công ty CPLH Thực Phẩm - 267 Quang Trung - Hà Đông", "index_right": 94, "district": "Phường Hà Đông" }, "geometry": { "type": "Point", "coordinates": [ 105.7715052, 20.9673548 ] } },
{ "type": "Feature", "properties": { "id": 8770739151, "name": "85 Quang Trung (Hà Đông) - Đình Cầu Đơ", "index_right": 93, "district": "Phường Hà Đông" }, "geometry": { "type": "Point", "coordinates": [ 105.77571, 20.9706443 ] } },
{ "type": "Feature", "properties": { "id": 8770739151, "name": "85 Quang Trung (Hà Đông) - Đình Cầu Đơ", "index_right": 94, "district": "Phường Hà Đông" }, "geometry": { "type": "Point", "coordinates": [ 105.77571, 20.9706443 ] } },
{ "type": "Feature", "properties": { "id": 8770739152, "name": "Đối diện Bưu Điện Hà Đông(15 Quang Trung Hà Đông)", "index_right": 93, "district": "Phường Hà Đông" }, "geometry": { "type": "Point", "coordinates": [ 105.7778582, 20.9723471 ] } },
{ "type": "Feature", "properties": { "id": 8770739152, "name": "Đối diện Bưu Điện Hà Đông(15 Quang Trung Hà Đông)", "index_right": 94, "district": "Phường Hà Đông" }, "geometry": { "type": "Point", "coordinates": [ 105.7778582, 20.9723471 ] } },
{ "type": "Feature", "properties": { "id": 8770739153, "name": "Liên minh các HTX Hà Nội - Số 1 Trần Phú (Hà Đông)", "index_right": 93, "district": "Phường Hà Đông" }, "geometry": { "type": "Point", "coordinates": [ 105.7826505, 20.9758276 ] } },
{ "type": "Feature", "properties": { "id": 8770739153, "name": "Liên minh các HTX Hà Nội - Số 1 Trần Phú (Hà Đông)", "index_right": 94, "district": "Phường Hà Đông" }, "geometry": { "type": "Point", "coordinates": [ 105.7826505, 20.9758276 ] } },
{ "type": "Feature", "properties": { "id": 8770739154, "name": "Siêu thị Nguyễn Kim - Km10 Nguyễn Trãi (Hà Đông)", "index_right": 93, "district": "Phường Hà Đông" }, "geometry": { "type": "Point", "coordinates": [ 105.7871797, 20.9794507 ] } },
{ "type": "Feature", "properties": { "id": 8770739154, "name": "Siêu thị Nguyễn Kim - Km10 Nguyễn Trãi (Hà Đông)", "index_right": 94, "district": "Phường Hà Đông" }, "geometry": { "type": "Point", "coordinates": [ 105.7871797, 20.9794507 ] } },
{ "type": "Feature", "properties": { "id": 8770739155, "name": "Học viện An ninh nhân dân - Trần Phú (Hà Đông)", "index_right": 93, "district": "Phường Hà Đông" }, "geometry": { "type": "Point", "coordinates": [ 105.7915149, 20.9828792 ] } },
{ "type": "Feature", "properties": { "id": 8770739155, "name": "Học viện An ninh nhân dân - Trần Phú (Hà Đông)", "index_right": 94, "district": "Phường Hà Đông" }, "geometry": { "type": "Point", "coordinates": [ 105.7915149, 20.9828792 ] } },
{ "type": "Feature", "properties": { "id": 8845983485, "name": "Số 2 Chu Văn An - Hà Đông", "index_right": 93, "district": "Phường Hà Đông" }, "geometry": { "type": "Point", "coordinates": [ 105.778333, 20.9740715 ] } },
{ "type": "Feature", "properties": { "id": 8845983485, "name": "Số 2 Chu Văn An - Hà Đông", "index_right": 94, "district": "Phường Hà Đông" }, "geometry": { "type": "Point", "coordinates": [ 105.778333, 20.9740715 ] } },
{ "type": "Feature", "properties": { "id": 8845983486, "name": "Cầu Cong - Vạn Phúc", "index_right": 93, "district": "Phường Hà Đông" }, "geometry": { "type": "Point", "coordinates": [ 105.7756967, 20.9773691 ] } },
{ "type": "Feature", "properties": { "id": 8845983486, "name": "Cầu Cong - Vạn Phúc", "index_right": 94, "district": "Phường Hà Đông" }, "geometry": { "type": "Point", "coordinates": [ 105.7756967, 20.9773691 ] } },
{ "type": "Feature", "properties": { "id": 8845983487, "name": "Chùa Vạn Phúc - Hà Đông", "index_right": 93, "district": "Phường Hà Đông" }, "geometry": { "type": "Point", "coordinates": [ 105.7725289, 20.979804 ] } },
{ "type": "Feature", "properties": { "id": 8845983487, "name": "Chùa Vạn Phúc - Hà Đông", "index_right": 94, "district": "Phường Hà Đông" }, "geometry": { "type": "Point", "coordinates": [ 105.7725289, 20.979804 ] } },
{ "type": "Feature", "properties": { "id": 8845983488, "name": "Số 170 - 172 Vạn Phúc - Hà Đông", "index_right": 93, "district": "Phường Hà Đông" }, "geometry": { "type": "Point", "coordinates": [ 105.77086, 20.9821791 ] } },
{ "type": "Feature", "properties": { "id": 8845983488, "name": "Số 170 - 172 Vạn Phúc - Hà Đông", "index_right": 94, "district": "Phường Hà Đông" }, "geometry": { "type": "Point", "coordinates": [ 105.77086, 20.9821791 ] } },
{ "type": "Feature", "properties": { "id": 8845983489, "name": "Điểm xén hè qua ngã 4 Vạn Phúc - Tố Hữu", "index_right": 93, "district": "Phường Hà Đông" }, "geometry": { "type": "Point", "coordinates": [ 105.7675586, 20.980925 ] } },
{ "type": "Feature", "properties": { "id": 8845983489, "name": "Điểm xén hè qua ngã 4 Vạn Phúc - Tố Hữu", "index_right": 94, "district": "Phường Hà Đông" }, "geometry": { "type": "Point", "coordinates": [ 105.7675586, 20.980925 ] } },
{ "type": "Feature", "properties": { "id": 8846358749, "name": "Khu Đô Thị Mỗ Lao", "index_right": 93, "district": "Phường Hà Đông" }, "geometry": { "type": "Point", "coordinates": [ 105.78423, 20.9810567 ] } },
{ "type": "Feature", "properties": { "id": 8846358749, "name": "Khu Đô Thị Mỗ Lao", "index_right": 94, "district": "Phường Hà Đông" }, "geometry": { "type": "Point", "coordinates": [ 105.78423, 20.9810567 ] } },
{ "type": "Feature", "properties": { "id": 8846358751, "name": "70 Phùng Hưng (Hà Đông)", "index_right": 93, "district": "Phường Hà Đông" }, "geometry": { "type": "Point", "coordinates": [ 105.7853689, 20.9690364 ] } },
{ "type": "Feature", "properties": { "id": 8846358751, "name": "70 Phùng Hưng (Hà Đông)", "index_right": 94, "district": "Phường Hà Đông" }, "geometry": { "type": "Point", "coordinates": [ 105.7853689, 20.9690364 ] } },
{ "type": "Feature", "properties": { "id": 8846358752, "name": "Viện 103 - Phùng Hưng (Hà Đông)", "index_right": 93, "district": "Phường Hà Đông" }, "geometry": { "type": "Point", "coordinates": [ 105.7893275, 20.9672333 ] } },
{ "type": "Feature", "properties": { "id": 8846358752, "name": "Viện 103 - Phùng Hưng (Hà Đông)", "index_right": 94, "district": "Phường Hà Đông" }, "geometry": { "type": "Point", "coordinates": [ 105.7893275, 20.9672333 ] } },
{ "type": "Feature", "properties": { "id": 8846358753, "name": "Cổng thôn Yên Xá - 89 Cầu Bươu", "index_right": 93, "district": "Phường Hà Đông" }, "geometry": { "type": "Point", "coordinates": [ 105.7940097, 20.9644947 ] } },
{ "type": "Feature", "properties": { "id": 8846358753, "name": "Cổng thôn Yên Xá - 89 Cầu Bươu", "index_right": 94, "district": "Phường Hà Đông" }, "geometry": { "type": "Point", "coordinates": [ 105.7940097, 20.9644947 ] } },
{ "type": "Feature", "properties": { "id": 8846358791, "name": "Đối diện Tòa nhà CT2 Chung cư viện bỏng, gần ngã ba Yên Xá - Phùng Hưng (Hà Đông)", "index_right": 93, "district": "Phường Hà Đông" }, "geometry": { "type": "Point", "coordinates": [ 105.7939392, 20.9647214 ] } },
{ "type": "Feature", "properties": { "id": 8846358791, "name": "Đối diện Tòa nhà CT2 Chung cư viện bỏng, gần ngã ba Yên Xá - Phùng Hưng (Hà Đông)", "index_right": 94, "district": "Phường Hà Đông" }, "geometry": { "type": "Point", "coordinates": [ 105.7939392, 20.9647214 ] } },
{ "type": "Feature", "properties": { "id": 8846358793, "name": "Công ty CP Xây lắp điện Hà Tây - 113 Phùng Hưng (Hà Đông)", "index_right": 93, "district": "Phường Hà Đông" }, "geometry": { "type": "Point", "coordinates": [ 105.7845057, 20.970236 ] } },
{ "type": "Feature", "properties": { "id": 8846358793, "name": "Công ty CP Xây lắp điện Hà Tây - 113 Phùng Hưng (Hà Đông)", "index_right": 94, "district": "Phường Hà Đông" }, "geometry": { "type": "Point", "coordinates": [ 105.7845057, 20.970236 ] } },
{ "type": "Feature", "properties": { "id": 8846358794, "name": "Ga Văn Quán - 149 Trần Phú", "index_right": 93, "district": "Phường Hà Đông" }, "geometry": { "type": "Point", "coordinates": [ 105.7848055, 20.9775138 ] } },
{ "type": "Feature", "properties": { "id": 8846358794, "name": "Ga Văn Quán - 149 Trần Phú", "index_right": 94, "district": "Phường Hà Đông" }, "geometry": { "type": "Point", "coordinates": [ 105.7848055, 20.9775138 ] } },
{ "type": "Feature", "properties": { "id": 8846689634, "name": "350 Tố Hữu", "index_right": 93, "district": "Phường Hà Đông" }, "geometry": { "type": "Point", "coordinates": [ 105.755225, 20.9707691 ] } },
{ "type": "Feature", "properties": { "id": 8846689634, "name": "350 Tố Hữu", "index_right": 94, "district": "Phường Hà Đông" }, "geometry": { "type": "Point", "coordinates": [ 105.755225, 20.9707691 ] } },
{ "type": "Feature", "properties": { "id": 8846689635, "name": "Đối diện đường vào Khu đô thị An Hưng", "index_right": 93, "district": "Phường Hà Đông" }, "geometry": { "type": "Point", "coordinates": [ 105.7573853, 20.9726758 ] } },
{ "type": "Feature", "properties": { "id": 8846689635, "name": "Đối diện đường vào Khu đô thị An Hưng", "index_right": 94, "district": "Phường Hà Đông" }, "geometry": { "type": "Point", "coordinates": [ 105.7573853, 20.9726758 ] } },
{ "type": "Feature", "properties": { "id": 8846689636, "name": "Đối diện Nam Cường Building", "index_right": 93, "district": "Phường Hà Đông" }, "geometry": { "type": "Point", "coordinates": [ 105.7606998, 20.9752113 ] } },
{ "type": "Feature", "properties": { "id": 8846689636, "name": "Đối diện Nam Cường Building", "index_right": 94, "district": "Phường Hà Đông" }, "geometry": { "type": "Point", "coordinates": [ 105.7606998, 20.9752113 ] } },
{ "type": "Feature", "properties": { "id": 8846689637, "name": "Điểm xén hè gần đường vào KĐT Dương Nội - Tố Hữu", "index_right": 93, "district": "Phường Hà Đông" }, "geometry": { "type": "Point", "coordinates": [ 105.7647909, 20.9783795 ] } },
{ "type": "Feature", "properties": { "id": 8846689637, "name": "Điểm xén hè gần đường vào KĐT Dương Nội - Tố Hữu", "index_right": 94, "district": "Phường Hà Đông" }, "geometry": { "type": "Point", "coordinates": [ 105.7647909, 20.9783795 ] } },
{ "type": "Feature", "properties": { "id": 8846689638, "name": "Trước ngã 4 Vạn Phúc - Tố Hữu 50m", "index_right": 93, "district": "Phường Hà Đông" }, "geometry": { "type": "Point", "coordinates": [ 105.7688103, 20.9814815 ] } },
{ "type": "Feature", "properties": { "id": 8846689638, "name": "Trước ngã 4 Vạn Phúc - Tố Hữu 50m", "index_right": 94, "district": "Phường Hà Đông" }, "geometry": { "type": "Point", "coordinates": [ 105.7688103, 20.9814815 ] } },
{ "type": "Feature", "properties": { "id": 8846689639, "name": "Số 51 Vạn Phúc (Hà Đông) - Tòa nhà Landmark", "index_right": 93, "district": "Phường Hà Đông" }, "geometry": { "type": "Point", "coordinates": [ 105.7708398, 20.9817721 ] } },
{ "type": "Feature", "properties": { "id": 8846689639, "name": "Số 51 Vạn Phúc (Hà Đông) - Tòa nhà Landmark", "index_right": 94, "district": "Phường Hà Đông" }, "geometry": { "type": "Point", "coordinates": [ 105.7708398, 20.9817721 ] } },
{ "type": "Feature", "properties": { "id": 8846689640, "name": "Số 63 Vạn Phúc (Hà Đông) - Siêu thị Vinmart Vạn Phúc", "index_right": 93, "district": "Phường Hà Đông" }, "geometry": { "type": "Point", "coordinates": [ 105.7740311, 20.9783549 ] } },
{ "type": "Feature", "properties": { "id": 8846689640, "name": "Số 63 Vạn Phúc (Hà Đông) - Siêu thị Vinmart Vạn Phúc", "index_right": 94, "district": "Phường Hà Đông" }, "geometry": { "type": "Point", "coordinates": [ 105.7740311, 20.9783549 ] } },
{ "type": "Feature", "properties": { "id": 8846689641, "name": "Nhà văn hóa Công đoàn Hà Nội", "index_right": 93, "district": "Phường Hà Đông" }, "geometry": { "type": "Point", "coordinates": [ 105.7782516, 20.973828 ] } },
{ "type": "Feature", "properties": { "id": 8846689641, "name": "Nhà văn hóa Công đoàn Hà Nội", "index_right": 94, "district": "Phường Hà Đông" }, "geometry": { "type": "Point", "coordinates": [ 105.7782516, 20.973828 ] } },
{ "type": "Feature", "properties": { "id": 8930987737, "name": "Trung tâm thương mại Mê Linh Plaza Hà Đông", "index_right": 93, "district": "Phường Hà Đông" }, "geometry": { "type": "Point", "coordinates": [ 105.7719143, 20.9647557 ] } },
{ "type": "Feature", "properties": { "id": 8930987737, "name": "Trung tâm thương mại Mê Linh Plaza Hà Đông", "index_right": 94, "district": "Phường Hà Đông" }, "geometry": { "type": "Point", "coordinates": [ 105.7719143, 20.9647557 ] } },
{ "type": "Feature", "properties": { "id": 8943684257, "name": "Đối diện Nhà CT2A Khu đô thị Xa La - Đường Phúc La", "index_right": 93, "district": "Phường Hà Đông" }, "geometry": { "type": "Point", "coordinates": [ 105.7945202, 20.9623912 ] } },
{ "type": "Feature", "properties": { "id": 8943684257, "name": "Đối diện Nhà CT2A Khu đô thị Xa La - Đường Phúc La", "index_right": 94, "district": "Phường Hà Đông" }, "geometry": { "type": "Point", "coordinates": [ 105.7945202, 20.9623912 ] } },
{ "type": "Feature", "properties": { "id": 8943684258, "name": "Nhà CT2B - Khu đô thị Xa La", "index_right": 93, "district": "Phường Hà Đông" }, "geometry": { "type": "Point", "coordinates": [ 105.7947846, 20.9622896 ] } },
{ "type": "Feature", "properties": { "id": 8943684258, "name": "Nhà CT2B - Khu đô thị Xa La", "index_right": 94, "district": "Phường Hà Đông" }, "geometry": { "type": "Point", "coordinates": [ 105.7947846, 20.9622896 ] } },
{ "type": "Feature", "properties": { "id": 8943684259, "name": "Tường rào khách sạn Mường Thanh - KĐT Xa La - Đường Phúc La", "index_right": 93, "district": "Phường Hà Đông" }, "geometry": { "type": "Point", "coordinates": [ 105.7922887, 20.9605836 ] } },
{ "type": "Feature", "properties": { "id": 8943684259, "name": "Tường rào khách sạn Mường Thanh - KĐT Xa La - Đường Phúc La", "index_right": 94, "district": "Phường Hà Đông" }, "geometry": { "type": "Point", "coordinates": [ 105.7922887, 20.9605836 ] } },
{ "type": "Feature", "properties": { "id": 8943684260, "name": "Đối diện Nhà CT4B Khu đô thị Xa La - Phúc La", "index_right": 93, "district": "Phường Hà Đông" }, "geometry": { "type": "Point", "coordinates": [ 105.7935194, 20.9612475 ] } },
{ "type": "Feature", "properties": { "id": 8943684260, "name": "Đối diện Nhà CT4B Khu đô thị Xa La - Phúc La", "index_right": 94, "district": "Phường Hà Đông" }, "geometry": { "type": "Point", "coordinates": [ 105.7935194, 20.9612475 ] } },
{ "type": "Feature", "properties": { "id": 8943744752, "name": "Đường vào Chùa Bia Bà", "index_right": 93, "district": "Phường Hà Đông" }, "geometry": { "type": "Point", "coordinates": [ 105.7594353, 20.9656296 ] } },
{ "type": "Feature", "properties": { "id": 8943744752, "name": "Đường vào Chùa Bia Bà", "index_right": 94, "district": "Phường Hà Đông" }, "geometry": { "type": "Point", "coordinates": [ 105.7594353, 20.9656296 ] } },
{ "type": "Feature", "properties": { "id": 8943744753, "name": "Trước 30m đối diện ngõ 5 Lê Hồng Phong (Hà Đông)", "index_right": 93, "district": "Phường Hà Đông" }, "geometry": { "type": "Point", "coordinates": [ 105.7730457, 20.9655038 ] } },
{ "type": "Feature", "properties": { "id": 8943744753, "name": "Trước 30m đối diện ngõ 5 Lê Hồng Phong (Hà Đông)", "index_right": 94, "district": "Phường Hà Đông" }, "geometry": { "type": "Point", "coordinates": [ 105.7730457, 20.9655038 ] } },
{ "type": "Feature", "properties": { "id": 8943744754, "name": "Qua 40m ngõ 5 Lê Hồng Phong (Hà Đông)", "index_right": 93, "district": "Phường Hà Đông" }, "geometry": { "type": "Point", "coordinates": [ 105.7729997, 20.9655716 ] } },
{ "type": "Feature", "properties": { "id": 8943744754, "name": "Qua 40m ngõ 5 Lê Hồng Phong (Hà Đông)", "index_right": 94, "district": "Phường Hà Đông" }, "geometry": { "type": "Point", "coordinates": [ 105.7729997, 20.9655716 ] } },
{ "type": "Feature", "properties": { "id": 8943744755, "name": "Trường Trung học cơ sở Lê Hồng Phong", "index_right": 93, "district": "Phường Hà Đông" }, "geometry": { "type": "Point", "coordinates": [ 105.7767332, 20.9680982 ] } },
{ "type": "Feature", "properties": { "id": 8943744755, "name": "Trường Trung học cơ sở Lê Hồng Phong", "index_right": 94, "district": "Phường Hà Đông" }, "geometry": { "type": "Point", "coordinates": [ 105.7767332, 20.9680982 ] } },
{ "type": "Feature", "properties": { "id": 8943744756, "name": "Bộ Tư Lệnh Cảnh Sát Biển Việt Nam", "index_right": 93, "district": "Phường Hà Đông" }, "geometry": { "type": "Point", "coordinates": [ 105.779483, 20.9689792 ] } },
{ "type": "Feature", "properties": { "id": 8943744756, "name": "Bộ Tư Lệnh Cảnh Sát Biển Việt Nam", "index_right": 94, "district": "Phường Hà Đông" }, "geometry": { "type": "Point", "coordinates": [ 105.779483, 20.9689792 ] } },
{ "type": "Feature", "properties": { "id": 8943744757, "name": "Chợ Hà Đông", "index_right": 93, "district": "Phường Hà Đông" }, "geometry": { "type": "Point", "coordinates": [ 105.7795155, 20.9690666 ] } },
{ "type": "Feature", "properties": { "id": 8943744757, "name": "Chợ Hà Đông", "index_right": 94, "district": "Phường Hà Đông" }, "geometry": { "type": "Point", "coordinates": [ 105.7795155, 20.9690666 ] } },
{ "type": "Feature", "properties": { "id": 8943744758, "name": "Trường Trung học cơ sở Lê Lợi - Số 160 Lê Lợi (Hà Đông)", "index_right": 93, "district": "Phường Hà Đông" }, "geometry": { "type": "Point", "coordinates": [ 105.7820665, 20.9660002 ] } },
{ "type": "Feature", "properties": { "id": 8943744758, "name": "Trường Trung học cơ sở Lê Lợi - Số 160 Lê Lợi (Hà Đông)", "index_right": 94, "district": "Phường Hà Đông" }, "geometry": { "type": "Point", "coordinates": [ 105.7820665, 20.9660002 ] } },
{ "type": "Feature", "properties": { "id": 8943744759, "name": "Bảo Hiểm Xã Hội Quận Hà Đông", "index_right": 93, "district": "Phường Hà Đông" }, "geometry": { "type": "Point", "coordinates": [ 105.7819277, 20.966159 ] } },
{ "type": "Feature", "properties": { "id": 8943744759, "name": "Bảo Hiểm Xã Hội Quận Hà Đông", "index_right": 94, "district": "Phường Hà Đông" }, "geometry": { "type": "Point", "coordinates": [ 105.7819277, 20.966159 ] } },
{ "type": "Feature", "properties": { "id": 8943744760, "name": "Ngã Tư Đa Sỹ - Hà Trì", "index_right": 93, "district": "Phường Hà Đông" }, "geometry": { "type": "Point", "coordinates": [ 105.782935, 20.9651641 ] } },
{ "type": "Feature", "properties": { "id": 8943744760, "name": "Ngã Tư Đa Sỹ - Hà Trì", "index_right": 94, "district": "Phường Hà Đông" }, "geometry": { "type": "Point", "coordinates": [ 105.782935, 20.9651641 ] } },
{ "type": "Feature", "properties": { "id": 8944376750, "name": "Cầu vượt đi bộ Park City", "index_right": 93, "district": "Phường Hà Đông" }, "geometry": { "type": "Point", "coordinates": [ 105.755668, 20.9677164 ] } },
{ "type": "Feature", "properties": { "id": 8944376750, "name": "Cầu vượt đi bộ Park City", "index_right": 94, "district": "Phường Hà Đông" }, "geometry": { "type": "Point", "coordinates": [ 105.755668, 20.9677164 ] } },
{ "type": "Feature", "properties": { "id": 8944376754, "name": "Học viện Quân Y - Phùng Hưng (Hà Đông)", "index_right": 93, "district": "Phường Hà Đông" }, "geometry": { "type": "Point", "coordinates": [ 105.7901426, 20.9665909 ] } },
{ "type": "Feature", "properties": { "id": 8944376754, "name": "Học viện Quân Y - Phùng Hưng (Hà Đông)", "index_right": 94, "district": "Phường Hà Đông" }, "geometry": { "type": "Point", "coordinates": [ 105.7901426, 20.9665909 ] } },
{ "type": "Feature", "properties": { "id": 8956568592, "name": "Tòa nhà Thủy Lợi Tower - 128 Lê Trọng Tấn (Hà Đông)", "index_right": 93, "district": "Phường Hà Đông" }, "geometry": { "type": "Point", "coordinates": [ 105.7644663, 20.9627618 ] } },
{ "type": "Feature", "properties": { "id": 8956568592, "name": "Tòa nhà Thủy Lợi Tower - 128 Lê Trọng Tấn (Hà Đông)", "index_right": 94, "district": "Phường Hà Đông" }, "geometry": { "type": "Point", "coordinates": [ 105.7644663, 20.9627618 ] } },
{ "type": "Feature", "properties": { "id": 8956568593, "name": "Miếu Và Chùa Cầu Đơ", "index_right": 93, "district": "Phường Hà Đông" }, "geometry": { "type": "Point", "coordinates": [ 105.7762095, 20.9676698 ] } },
{ "type": "Feature", "properties": { "id": 8956568593, "name": "Miếu Và Chùa Cầu Đơ", "index_right": 94, "district": "Phường Hà Đông" }, "geometry": { "type": "Point", "coordinates": [ 105.7762095, 20.9676698 ] } },
{ "type": "Feature", "properties": { "id": 9019312712, "name": "Qua ngã 3 Thanh Bình - Mỗ Lao 70m", "index_right": 93, "district": "Phường Hà Đông" }, "geometry": { "type": "Point", "coordinates": [ 105.7800799, 20.9857046 ] } },
{ "type": "Feature", "properties": { "id": 9019312712, "name": "Qua ngã 3 Thanh Bình - Mỗ Lao 70m", "index_right": 94, "district": "Phường Hà Đông" }, "geometry": { "type": "Point", "coordinates": [ 105.7800799, 20.9857046 ] } },
{ "type": "Feature", "properties": { "id": 9019312713, "name": "Trước cầu Mỗ Lao 100m", "index_right": 93, "district": "Phường Hà Đông" }, "geometry": { "type": "Point", "coordinates": [ 105.7803412, 20.9858501 ] } },
{ "type": "Feature", "properties": { "id": 9019312713, "name": "Trước cầu Mỗ Lao 100m", "index_right": 94, "district": "Phường Hà Đông" }, "geometry": { "type": "Point", "coordinates": [ 105.7803412, 20.9858501 ] } },
{ "type": "Feature", "properties": { "id": 9019312714, "name": "UBND Phường Mỗ Lao", "index_right": 93, "district": "Phường Hà Đông" }, "geometry": { "type": "Point", "coordinates": [ 105.7838582, 20.9856143 ] } },
{ "type": "Feature", "properties": { "id": 9019312714, "name": "UBND Phường Mỗ Lao", "index_right": 94, "district": "Phường Hà Đông" }, "geometry": { "type": "Point", "coordinates": [ 105.7838582, 20.9856143 ] } },
{ "type": "Feature", "properties": { "id": 9019312715, "name": "Đối diện UBND Phường Mỗ Lao", "index_right": 93, "district": "Phường Hà Đông" }, "geometry": { "type": "Point", "coordinates": [ 105.7826748, 20.9856964 ] } },
{ "type": "Feature", "properties": { "id": 9019312715, "name": "Đối diện UBND Phường Mỗ Lao", "index_right": 94, "district": "Phường Hà Đông" }, "geometry": { "type": "Point", "coordinates": [ 105.7826748, 20.9856964 ] } },
{ "type": "Feature", "properties": { "id": 9019312716, "name": "Nhà LK3C-6 Bắc Hà", "index_right": 93, "district": "Phường Hà Đông" }, "geometry": { "type": "Point", "coordinates": [ 105.7882192, 20.9835763 ] } },
{ "type": "Feature", "properties": { "id": 9019312716, "name": "Nhà LK3C-6 Bắc Hà", "index_right": 94, "district": "Phường Hà Đông" }, "geometry": { "type": "Point", "coordinates": [ 105.7882192, 20.9835763 ] } },
{ "type": "Feature", "properties": { "id": 9019312717, "name": "Nhà BT01 Bắc Hà", "index_right": 93, "district": "Phường Hà Đông" }, "geometry": { "type": "Point", "coordinates": [ 105.7885739, 20.9834548 ] } },
{ "type": "Feature", "properties": { "id": 9019312717, "name": "Nhà BT01 Bắc Hà", "index_right": 94, "district": "Phường Hà Đông" }, "geometry": { "type": "Point", "coordinates": [ 105.7885739, 20.9834548 ] } },
{ "type": "Feature", "properties": { "id": 9759331213, "name": "Cạnh tường rào Đài truyền hình Hà Tây cũ", "index_right": 93, "district": "Phường Hà Đông" }, "geometry": { "type": "Point", "coordinates": [ 105.7816525, 20.9701338 ] } },
{ "type": "Feature", "properties": { "id": 9759331213, "name": "Cạnh tường rào Đài truyền hình Hà Tây cũ", "index_right": 94, "district": "Phường Hà Đông" }, "geometry": { "type": "Point", "coordinates": [ 105.7816525, 20.9701338 ] } },
{ "type": "Feature", "properties": { "id": 10022468850, "name": "Văn phòng 2 \"Trung tâm dạy nghề\"", "index_right": 93, "district": "Phường Hà Đông" }, "geometry": { "type": "Point", "coordinates": [ 105.7787939, 20.9677902 ] } },
{ "type": "Feature", "properties": { "id": 10022468850, "name": "Văn phòng 2 \"Trung tâm dạy nghề\"", "index_right": 94, "district": "Phường Hà Đông" }, "geometry": { "type": "Point", "coordinates": [ 105.7787939, 20.9677902 ] } },
{ "type": "Feature", "properties": { "id": 10022468851, "name": "Đối diện 29 Tô Hiệu (Hà Đông)", "index_right": 93, "district": "Phường Hà Đông" }, "geometry": { "type": "Point", "coordinates": [ 105.7751356, 20.9649818 ] } },
{ "type": "Feature", "properties": { "id": 10022468851, "name": "Đối diện 29 Tô Hiệu (Hà Đông)", "index_right": 94, "district": "Phường Hà Đông" }, "geometry": { "type": "Point", "coordinates": [ 105.7751356, 20.9649818 ] } },
{ "type": "Feature", "properties": { "id": 10022468852, "name": "Đối diện Metro Hà Đông - đường Tô Hiệu (Hà Đông)", "index_right": 93, "district": "Phường Hà Đông" }, "geometry": { "type": "Point", "coordinates": [ 105.7729782, 20.9648961 ] } },
{ "type": "Feature", "properties": { "id": 10022468852, "name": "Đối diện Metro Hà Đông - đường Tô Hiệu (Hà Đông)", "index_right": 94, "district": "Phường Hà Đông" }, "geometry": { "type": "Point", "coordinates": [ 105.7729782, 20.9648961 ] } },
{ "type": "Feature", "properties": { "id": 10024786180, "name": "Metro Hà Đông - Tô Hiệu (Hà Đông)", "index_right": 93, "district": "Phường Hà Đông" }, "geometry": { "type": "Point", "coordinates": [ 105.772701, 20.9647184 ] } },
{ "type": "Feature", "properties": { "id": 10024786180, "name": "Metro Hà Đông - Tô Hiệu (Hà Đông)", "index_right": 94, "district": "Phường Hà Đông" }, "geometry": { "type": "Point", "coordinates": [ 105.772701, 20.9647184 ] } },
{ "type": "Feature", "properties": { "id": 10024786182, "name": "27 Tô Hiệu", "index_right": 93, "district": "Phường Hà Đông" }, "geometry": { "type": "Point", "coordinates": [ 105.7766686, 20.966062 ] } },
{ "type": "Feature", "properties": { "id": 10024786182, "name": "27 Tô Hiệu", "index_right": 94, "district": "Phường Hà Đông" }, "geometry": { "type": "Point", "coordinates": [ 105.7766686, 20.966062 ] } },
{ "type": "Feature", "properties": { "id": 10024786183, "name": "Trung tâm Y tế quận Hà Đông", "index_right": 93, "district": "Phường Hà Đông" }, "geometry": { "type": "Point", "coordinates": [ 105.7791056, 20.9679336 ] } },
{ "type": "Feature", "properties": { "id": 10024786183, "name": "Trung tâm Y tế quận Hà Đông", "index_right": 94, "district": "Phường Hà Đông" }, "geometry": { "type": "Point", "coordinates": [ 105.7791056, 20.9679336 ] } },
{ "type": "Feature", "properties": { "id": 10024786184, "name": "Sân vận động Hà Đông", "index_right": 93, "district": "Phường Hà Đông" }, "geometry": { "type": "Point", "coordinates": [ 105.7814156, 20.9697463 ] } },
{ "type": "Feature", "properties": { "id": 10024786184, "name": "Sân vận động Hà Đông", "index_right": 94, "district": "Phường Hà Đông" }, "geometry": { "type": "Point", "coordinates": [ 105.7814156, 20.9697463 ] } },
{ "type": "Feature", "properties": { "id": 11166521211, "name": "Qua nhà chờ BRT Vạn Phúc 2 30m (chiều về)", "index_right": 93, "district": "Phường Hà Đông" }, "geometry": { "type": "Point", "coordinates": [ 105.7743051, 20.9846739 ] } },
{ "type": "Feature", "properties": { "id": 11166521211, "name": "Qua nhà chờ BRT Vạn Phúc 2 30m (chiều về)", "index_right": 94, "district": "Phường Hà Đông" }, "geometry": { "type": "Point", "coordinates": [ 105.7743051, 20.9846739 ] } },
{ "type": "Feature", "properties": { "id": 11522308674, "name": "Qua nhà chờ BRT Vạn Phúc 2 30m (chiều đi)", "index_right": 93, "district": "Phường Hà Đông" }, "geometry": { "type": "Point", "coordinates": [ 105.7757315, 20.985267 ] } },
{ "type": "Feature", "properties": { "id": 11522308674, "name": "Qua nhà chờ BRT Vạn Phúc 2 30m (chiều đi)", "index_right": 94, "district": "Phường Hà Đông" }, "geometry": { "type": "Point", "coordinates": [ 105.7757315, 20.985267 ] } },
{ "type": "Feature", "properties": { "id": 11536511315, "name": "Đối diện chung cư Hesco", "index_right": 93, "district": "Phường Hà Đông" }, "geometry": { "type": "Point", "coordinates": [ 105.7870436, 20.9784742 ] } },
{ "type": "Feature", "properties": { "id": 11536511315, "name": "Đối diện chung cư Hesco", "index_right": 94, "district": "Phường Hà Đông" }, "geometry": { "type": "Point", "coordinates": [ 105.7870436, 20.9784742 ] } },
{ "type": "Feature", "properties": { "id": 11536511316, "name": "Đối diện chung cư New Skyline", "index_right": 93, "district": "Phường Hà Đông" }, "geometry": { "type": "Point", "coordinates": [ 105.7888541, 20.9761294 ] } },
{ "type": "Feature", "properties": { "id": 11536511316, "name": "Đối diện chung cư New Skyline", "index_right": 94, "district": "Phường Hà Đông" }, "geometry": { "type": "Point", "coordinates": [ 105.7888541, 20.9761294 ] } },
{ "type": "Feature", "properties": { "id": 11536511317, "name": "Đình Văn Quán", "index_right": 93, "district": "Phường Hà Đông" }, "geometry": { "type": "Point", "coordinates": [ 105.7866912, 20.9743208 ] } },
{ "type": "Feature", "properties": { "id": 11536511317, "name": "Đình Văn Quán", "index_right": 94, "district": "Phường Hà Đông" }, "geometry": { "type": "Point", "coordinates": [ 105.7866912, 20.9743208 ] } },
{ "type": "Feature", "properties": { "id": 11536511318, "name": "Đối diện KĐT Văn Phú", "index_right": 93, "district": "Phường Hà Đông" }, "geometry": { "type": "Point", "coordinates": [ 105.7713857, 20.9648229 ] } },
{ "type": "Feature", "properties": { "id": 11536511318, "name": "Đối diện KĐT Văn Phú", "index_right": 94, "district": "Phường Hà Đông" }, "geometry": { "type": "Point", "coordinates": [ 105.7713857, 20.9648229 ] } },
{ "type": "Feature", "properties": { "id": 11536511326, "name": "UBND phường Văn Quán", "index_right": 93, "district": "Phường Hà Đông" }, "geometry": { "type": "Point", "coordinates": [ 105.7873803, 20.9745886 ] } },
{ "type": "Feature", "properties": { "id": 11536511326, "name": "UBND phường Văn Quán", "index_right": 94, "district": "Phường Hà Đông" }, "geometry": { "type": "Point", "coordinates": [ 105.7873803, 20.9745886 ] } },
{ "type": "Feature", "properties": { "id": 11536511327, "name": "Chung cư New Skyline", "index_right": 93, "district": "Phường Hà Đông" }, "geometry": { "type": "Point", "coordinates": [ 105.7885728, 20.9769554 ] } },
{ "type": "Feature", "properties": { "id": 11536511327, "name": "Chung cư New Skyline", "index_right": 94, "district": "Phường Hà Đông" }, "geometry": { "type": "Point", "coordinates": [ 105.7885728, 20.9769554 ] } },
{ "type": "Feature", "properties": { "id": 11542708651, "name": "Kiot 19-20 CT7B KĐT Văn Quán", "index_right": 93, "district": "Phường Hà Đông" }, "geometry": { "type": "Point", "coordinates": [ 105.7896775, 20.9742119 ] } },
{ "type": "Feature", "properties": { "id": 11542708651, "name": "Kiot 19-20 CT7B KĐT Văn Quán", "index_right": 94, "district": "Phường Hà Đông" }, "geometry": { "type": "Point", "coordinates": [ 105.7896775, 20.9742119 ] } },
{ "type": "Feature", "properties": { "id": 11542708652, "name": "Giữa số nhà B20 - B22 Nguyễn Khuyến", "index_right": 93, "district": "Phường Hà Đông" }, "geometry": { "type": "Point", "coordinates": [ 105.7915792, 20.9702272 ] } },
{ "type": "Feature", "properties": { "id": 11542708652, "name": "Giữa số nhà B20 - B22 Nguyễn Khuyến", "index_right": 94, "district": "Phường Hà Đông" }, "geometry": { "type": "Point", "coordinates": [ 105.7915792, 20.9702272 ] } },
{ "type": "Feature", "properties": { "id": 11542708653, "name": "Đối diện gần cổng sau viện 103 - KĐT Văn Quán", "index_right": 93, "district": "Phường Hà Đông" }, "geometry": { "type": "Point", "coordinates": [ 105.7867964, 20.9691774 ] } },
{ "type": "Feature", "properties": { "id": 11542708653, "name": "Đối diện gần cổng sau viện 103 - KĐT Văn Quán", "index_right": 94, "district": "Phường Hà Đông" }, "geometry": { "type": "Point", "coordinates": [ 105.7867964, 20.9691774 ] } },
{ "type": "Feature", "properties": { "id": 11542708655, "name": "Trước 50m cách cổng sau viện 103 - KĐT Văn Quán", "index_right": 93, "district": "Phường Hà Đông" }, "geometry": { "type": "Point", "coordinates": [ 105.7868813, 20.9690929 ] } },
{ "type": "Feature", "properties": { "id": 11542708655, "name": "Trước 50m cách cổng sau viện 103 - KĐT Văn Quán", "index_right": 94, "district": "Phường Hà Đông" }, "geometry": { "type": "Point", "coordinates": [ 105.7868813, 20.9690929 ] } },
{ "type": "Feature", "properties": { "id": 11542708656, "name": "26BT-04 Nguyễn Khuyến", "index_right": 93, "district": "Phường Hà Đông" }, "geometry": { "type": "Point", "coordinates": [ 105.7912536, 20.9710747 ] } },
{ "type": "Feature", "properties": { "id": 11542708656, "name": "26BT-04 Nguyễn Khuyến", "index_right": 94, "district": "Phường Hà Đông" }, "geometry": { "type": "Point", "coordinates": [ 105.7912536, 20.9710747 ] } },
{ "type": "Feature", "properties": { "id": 11542708657, "name": "Đối diện Kiot 19-20 CT7B KĐT Văn Quán", "index_right": 93, "district": "Phường Hà Đông" }, "geometry": { "type": "Point", "coordinates": [ 105.7899062, 20.9743789 ] } },
{ "type": "Feature", "properties": { "id": 11542708657, "name": "Đối diện Kiot 19-20 CT7B KĐT Văn Quán", "index_right": 94, "district": "Phường Hà Đông" }, "geometry": { "type": "Point", "coordinates": [ 105.7899062, 20.9743789 ] } },
{ "type": "Feature", "properties": { "id": 13159384054, "name": "Chung cư Goldsilk Complex Hà Đông - đường Vạn Phúc", "index_right": 93, "district": "Phường Hà Đông" }, "geometry": { "type": "Point", "coordinates": [ 105.7758687, 20.9768214 ] } },
{ "type": "Feature", "properties": { "id": 13159384054, "name": "Chung cư Goldsilk Complex Hà Đông - đường Vạn Phúc", "index_right": 94, "district": "Phường Hà Đông" }, "geometry": { "type": "Point", "coordinates": [ 105.7758687, 20.9768214 ] } }
]
}
