{
"type": "FeatureCollection",
"name": "Phường_Tương_Mai",
"crs": { "type": "name", "properties": { "name": "urn:ogc:def:crs:OGC:1.3:CRS84" } },
"features": [
{ "type": "Feature", "properties": { "id": 738814268, "name": "251-253 Tam Trinh", "index_right": 52, "district": "Phường Tương Mai" }, "geometry": { "type": "Point", "coordinates": [ 105.8633708, 20.9888942 ] } },
{ "type": "Feature", "properties": { "id": 738814388, "name": "Đối diện 123 Lĩnh Nam - Thôn Tân Khai", "index_right": 52, "district": "Phường Tương Mai" }, "geometry": { "type": "Point", "coordinates": [ 105.8693059, 20.9863255 ] } },
{ "type": "Feature", "properties": { "id": 738815021, "name": "Đối diện 303 Tam Trinh", "index_right": 52, "district": "Phường Tương Mai" }, "geometry": { "type": "Point", "coordinates": [ 105.8633553, 20.9876177 ] } },
{ "type": "Feature", "properties": { "id": 738815658, "name": "197 Đại La - Qua Phố Vọng", "index_right": 52, "district": "Phường Tương Mai" }, "geometry": { "type": "Point", "coordinates": [ 105.843499, 20.996973 ] } },
{ "type": "Feature", "properties": { "id": 7056067374, "name": "218-220 Minh Khai", "index_right": 52, "district": "Phường Tương Mai" }, "geometry": { "type": "Point", "coordinates": [ 105.8547408, 20.9952415 ] } },
{ "type": "Feature", "properties": { "id": 7169064143, "name": "79 Kim Đồng", "index_right": 52, "district": "Phường Tương Mai" }, "geometry": { "type": "Point", "coordinates": [ 105.8442322, 20.9837875 ] } },
{ "type": "Feature", "properties": { "id": 8205232235, "name": "Toyota Giải Phóng - 807 Giải Phóng", "index_right": 52, "district": "Phường Tương Mai" }, "geometry": { "type": "Point", "coordinates": [ 105.8412265, 20.9847822 ] } },
{ "type": "Feature", "properties": { "id": 8205232236, "name": "649 Giải Phóng", "index_right": 52, "district": "Phường Tương Mai" }, "geometry": { "type": "Point", "coordinates": [ 105.8412671, 20.9893283 ] } },
{ "type": "Feature", "properties": { "id": 8236303222, "name": "308 Minh Khai (Gần cầu Mai Động)", "index_right": 52, "district": "Phường Tương Mai" }, "geometry": { "type": "Point", "coordinates": [ 105.8608827, 20.9956658 ] } },
{ "type": "Feature", "properties": { "id": 8741080045, "name": "18 Tam Trinh", "index_right": 52, "district": "Phường Tương Mai" }, "geometry": { "type": "Point", "coordinates": [ 105.8623879, 20.9921746 ] } },
{ "type": "Feature", "properties": { "id": 8741080046, "name": "20 Lĩnh Nam", "index_right": 52, "district": "Phường Tương Mai" }, "geometry": { "type": "Point", "coordinates": [ 105.864419, 20.9904722 ] } },
{ "type": "Feature", "properties": { "id": 8741080047, "name": "Đối diện số 271 Lĩnh Nam", "index_right": 52, "district": "Phường Tương Mai" }, "geometry": { "type": "Point", "coordinates": [ 105.8739448, 20.9841305 ] } },
{ "type": "Feature", "properties": { "id": 8751624833, "name": "144-146 Phố Vọng", "index_right": 52, "district": "Phường Tương Mai" }, "geometry": { "type": "Point", "coordinates": [ 105.8428021, 20.996136 ] } },
{ "type": "Feature", "properties": { "id": 8751624834, "name": "101 Nguyễn An Ninh", "index_right": 52, "district": "Phường Tương Mai" }, "geometry": { "type": "Point", "coordinates": [ 105.8443537, 20.9915457 ] } },
{ "type": "Feature", "properties": { "id": 8751624835, "name": "15 Nguyễn An Ninh", "index_right": 52, "district": "Phường Tương Mai" }, "geometry": { "type": "Point", "coordinates": [ 105.8465176, 20.9887291 ] } },
{ "type": "Feature", "properties": { "id": 8751624836, "name": "468 Trương Định", "index_right": 52, "district": "Phường Tương Mai" }, "geometry": { "type": "Point", "coordinates": [ 105.8463594, 20.9854208 ] } },
{ "type": "Feature", "properties": { "id": 8751624850, "name": "Trung tâm thương mại Trương Định", "index_right": 52, "district": "Phường Tương Mai" }, "geometry": { "type": "Point", "coordinates": [ 105.8463434, 20.9848648 ] } },
{ "type": "Feature", "properties": { "id": 8751624851, "name": "22 Nguyễn An Ninh", "index_right": 52, "district": "Phường Tương Mai" }, "geometry": { "type": "Point", "coordinates": [ 105.8464272, 20.9888002 ] } },
{ "type": "Feature", "properties": { "id": 8751624852, "name": "134 Nguyễn An Ninh", "index_right": 52, "district": "Phường Tương Mai" }, "geometry": { "type": "Point", "coordinates": [ 105.8440513, 20.9922008 ] } },
{ "type": "Feature", "properties": { "id": 8766627149, "name": "441 Tam Trinh", "index_right": 52, "district": "Phường Tương Mai" }, "geometry": { "type": "Point", "coordinates": [ 105.8637404, 20.9848307 ] } },
{ "type": "Feature", "properties": { "id": 8766627166, "name": "Đối diện 411 Tam Trinh", "index_right": 52, "district": "Phường Tương Mai" }, "geometry": { "type": "Point", "coordinates": [ 105.8637551, 20.9840067 ] } },
{ "type": "Feature", "properties": { "id": 8772715670, "name": "Trường Trung học cơ sở Tân Mai", "index_right": 52, "district": "Phường Tương Mai" }, "geometry": { "type": "Point", "coordinates": [ 105.8489811, 20.9838133 ] } },
{ "type": "Feature", "properties": { "id": 8772715672, "name": "Công viên hồ Đền Lừ", "index_right": 52, "district": "Phường Tương Mai" }, "geometry": { "type": "Point", "coordinates": [ 105.8534373, 20.9836768 ] } },
{ "type": "Feature", "properties": { "id": 8772715673, "name": "Chợ đầu mối (gần cầu Đền Lừ)", "index_right": 52, "district": "Phường Tương Mai" }, "geometry": { "type": "Point", "coordinates": [ 105.8617424, 20.9837977 ] } },
{ "type": "Feature", "properties": { "id": 8835043633, "name": "32 Minh Khai", "index_right": 52, "district": "Phường Tương Mai" }, "geometry": { "type": "Point", "coordinates": [ 105.8506838, 20.9957019 ] } },
{ "type": "Feature", "properties": { "id": 8846358762, "name": "Ô 72 lô 5 Đền Lừ 2", "index_right": 52, "district": "Phường Tương Mai" }, "geometry": { "type": "Point", "coordinates": [ 105.8585127, 20.9868679 ] } },
{ "type": "Feature", "properties": { "id": 8846358763, "name": "327 Tổ 45 Đường Hoàng Mai", "index_right": 52, "district": "Phường Tương Mai" }, "geometry": { "type": "Point", "coordinates": [ 105.8624115, 20.985395 ] } },
{ "type": "Feature", "properties": { "id": 8846358780, "name": "Đối diện tòa nhà Nam Hải Lakeview", "index_right": 52, "district": "Phường Tương Mai" }, "geometry": { "type": "Point", "coordinates": [ 105.8676933, 20.9838443 ] } },
{ "type": "Feature", "properties": { "id": 8846358781, "name": "Lô 5 Đền Lừ 1", "index_right": 52, "district": "Phường Tương Mai" }, "geometry": { "type": "Point", "coordinates": [ 105.8629343, 20.9851527 ] } },
{ "type": "Feature", "properties": { "id": 8846358782, "name": "130 Đền Lừ 2", "index_right": 52, "district": "Phường Tương Mai" }, "geometry": { "type": "Point", "coordinates": [ 105.8584631, 20.9869852 ] } },
{ "type": "Feature", "properties": { "id": 8895558431, "name": "487 Giải Phóng", "index_right": 52, "district": "Phường Tương Mai" }, "geometry": { "type": "Point", "coordinates": [ 105.8413464, 20.9934193 ] } },
{ "type": "Feature", "properties": { "id": 11514018114, "name": "Chùa Linh Ứng - 231 Trương Định", "index_right": 52, "district": "Phường Tương Mai" }, "geometry": { "type": "Point", "coordinates": [ 105.8473995, 20.9897113 ] } },
{ "type": "Feature", "properties": { "id": 11514018115, "name": "91 Trương Định", "index_right": 52, "district": "Phường Tương Mai" }, "geometry": { "type": "Point", "coordinates": [ 105.8496752, 20.9933784 ] } },
{ "type": "Feature", "properties": { "id": 11515560777, "name": "64 Trương Định", "index_right": 52, "district": "Phường Tương Mai" }, "geometry": { "type": "Point", "coordinates": [ 105.849657, 20.9941942 ] } },
{ "type": "Feature", "properties": { "id": 11515560778, "name": "194-196 Trương Định", "index_right": 52, "district": "Phường Tương Mai" }, "geometry": { "type": "Point", "coordinates": [ 105.8478423, 20.9905682 ] } },
{ "type": "Feature", "properties": { "id": 11515658234, "name": "87 Đại La", "index_right": 52, "district": "Phường Tương Mai" }, "geometry": { "type": "Point", "coordinates": [ 105.8478061, 20.9959732 ] } }
]
}
