{
"type": "FeatureCollection",
"name": "Phường_Long_Biên",
"crs": { "type": "name", "properties": { "name": "urn:ogc:def:crs:OGC:1.3:CRS84" } },
"features": [
{ "type": "Feature", "properties": { "id": 481836709, "name": "Đường vào đường Thạch Bàn - đối diện 693 Nguyễn Văn Linh", "index_right": 25, "district": "Phường Long Biên" }, "geometry": { "type": "Point", "coordinates": [ 105.9146294, 21.0296604 ] } },
{ "type": "Feature", "properties": { "id": 481836867, "name": "Đối diện UBND phường Phúc Đồng - 274 Nguyễn Văn Linh", "index_right": 25, "district": "Phường Long Biên" }, "geometry": { "type": "Point", "coordinates": [ 105.8981935, 21.0385726 ] } },
{ "type": "Feature", "properties": { "id": 738814596, "name": "Trạm Xe Bus Số 46", "index_right": 25, "district": "Phường Long Biên" }, "geometry": { "type": "Point", "coordinates": [ 105.8848426, 21.0261029 ] } },
{ "type": "Feature", "properties": { "id": 8739945228, "name": "Đối diện Savico MegaMall Long Biên - Nguyễn Văn Linh", "index_right": 25, "district": "Phường Long Biên" }, "geometry": { "type": "Point", "coordinates": [ 105.8917918, 21.0498854 ] } },
{ "type": "Feature", "properties": { "id": 8739945229, "name": "Đối diện Công ty nước sạch - Nguyễn Văn Linh", "index_right": 25, "district": "Phường Long Biên" }, "geometry": { "type": "Point", "coordinates": [ 105.8941746, 21.0462529 ] } },
{ "type": "Feature", "properties": { "id": 8739945230, "name": "Khu CN Sài Đồng - Hanel - Đối diện 523 Nguyễn Văn Linh", "index_right": 25, "district": "Phường Long Biên" }, "geometry": { "type": "Point", "coordinates": [ 105.9097097, 21.0317902 ] } },
{ "type": "Feature", "properties": { "id": 8739945231, "name": "Đối diện Công ty May 10 - Nguyễn Văn Linh", "index_right": 25, "district": "Phường Long Biên" }, "geometry": { "type": "Point", "coordinates": [ 105.9199924, 21.0281127 ] } },
{ "type": "Feature", "properties": { "id": 8846358748, "name": "AEON Mall Long Biên", "index_right": 25, "district": "Phường Long Biên" }, "geometry": { "type": "Point", "coordinates": [ 105.899342, 21.0266186 ] } },
{ "type": "Feature", "properties": { "id": 8846358770, "name": "AEON Mall Long Biên", "index_right": 25, "district": "Phường Long Biên" }, "geometry": { "type": "Point", "coordinates": [ 105.9013733, 21.0275149 ] } },
{ "type": "Feature", "properties": { "id": 8895558439, "name": "Sân Golf Long Biên", "index_right": 25, "district": "Phường Long Biên" }, "geometry": { "type": "Point", "coordinates": [ 105.8990539, 21.0299236 ] } },
{ "type": "Feature", "properties": { "id": 8895558440, "name": "Đối diện sân golf Long Biên", "index_right": 25, "district": "Phường Long Biên" }, "geometry": { "type": "Point", "coordinates": [ 105.8986305, 21.0301059 ] } },
{ "type": "Feature", "properties": { "id": 8900261010, "name": "Đối diện chùa Sùng Khánh Tư Đình", "index_right": 25, "district": "Phường Long Biên" }, "geometry": { "type": "Point", "coordinates": [ 105.8813552, 21.0288246 ] } },
{ "type": "Feature", "properties": { "id": 8900261011, "name": "Đối diện điếm thôn Tư Đình", "index_right": 25, "district": "Phường Long Biên" }, "geometry": { "type": "Point", "coordinates": [ 105.8854816, 21.0240018 ] } },
{ "type": "Feature", "properties": { "id": 8900261012, "name": "Đối diện chùa Nghiêm Quang - điếm thôn Trạm", "index_right": 25, "district": "Phường Long Biên" }, "geometry": { "type": "Point", "coordinates": [ 105.8896287, 21.0223336 ] } },
{ "type": "Feature", "properties": { "id": 8900261013, "name": "Cầu Vĩnh Tuy - Đối diện điếm thôn Nha", "index_right": 25, "district": "Phường Long Biên" }, "geometry": { "type": "Point", "coordinates": [ 105.8950491, 21.0214039 ] } },
{ "type": "Feature", "properties": { "id": 8900261014, "name": "Đối diện chùa Cự Linh - Ngã 3 Thạch Bàn", "index_right": 25, "district": "Phường Long Biên" }, "geometry": { "type": "Point", "coordinates": [ 105.9014158, 21.0203062 ] } },
{ "type": "Feature", "properties": { "id": 8900261015, "name": "Đối diện điếm thôn Ngô", "index_right": 25, "district": "Phường Long Biên" }, "geometry": { "type": "Point", "coordinates": [ 105.9044057, 21.0169998 ] } },
{ "type": "Feature", "properties": { "id": 8900261016, "name": "Đối diện điếm Cự Khối - Công an phường Cự Khối", "index_right": 25, "district": "Phường Long Biên" }, "geometry": { "type": "Point", "coordinates": [ 105.9047681, 21.0099172 ] } },
{ "type": "Feature", "properties": { "id": 8900275026, "name": "Điếm Cự Khối", "index_right": 25, "district": "Phường Long Biên" }, "geometry": { "type": "Point", "coordinates": [ 105.9051578, 21.0095834 ] } },
{ "type": "Feature", "properties": { "id": 8900275027, "name": "Điếm thôn Ngô", "index_right": 25, "district": "Phường Long Biên" }, "geometry": { "type": "Point", "coordinates": [ 105.904615, 21.0165336 ] } },
{ "type": "Feature", "properties": { "id": 8900275028, "name": "Ngã 3 Thạch Bàn - Chùa Cự Linh", "index_right": 25, "district": "Phường Long Biên" }, "geometry": { "type": "Point", "coordinates": [ 105.9016715, 21.0201221 ] } },
{ "type": "Feature", "properties": { "id": 8900275029, "name": "Điếm thôn Nha - Cầu Vĩnh Tuy", "index_right": 25, "district": "Phường Long Biên" }, "geometry": { "type": "Point", "coordinates": [ 105.8966139, 21.0213995 ] } },
{ "type": "Feature", "properties": { "id": 8900275030, "name": "Điếm thôn Trạm - Chùa Nghiêm Quang", "index_right": 25, "district": "Phường Long Biên" }, "geometry": { "type": "Point", "coordinates": [ 105.8903021, 21.0224195 ] } },
{ "type": "Feature", "properties": { "id": 8900275031, "name": "Điếm thôn Tư Đình", "index_right": 25, "district": "Phường Long Biên" }, "geometry": { "type": "Point", "coordinates": [ 105.8857306, 21.0240231 ] } },
{ "type": "Feature", "properties": { "id": 8900275032, "name": "Cách lối rẽ vào chùa Sùng Khánh 50m", "index_right": 25, "district": "Phường Long Biên" }, "geometry": { "type": "Point", "coordinates": [ 105.8820132, 21.0282987 ] } },
{ "type": "Feature", "properties": { "id": 8919736465, "name": "Đối diện AEON Mall Long Biên", "index_right": 25, "district": "Phường Long Biên" }, "geometry": { "type": "Point", "coordinates": [ 105.8998284, 21.025415 ] } },
{ "type": "Feature", "properties": { "id": 8919736466, "name": "269 Thạch Bàn", "index_right": 25, "district": "Phường Long Biên" }, "geometry": { "type": "Point", "coordinates": [ 105.9042003, 21.0221003 ] } },
{ "type": "Feature", "properties": { "id": 8919736511, "name": "259-261 Thạch Bàn", "index_right": 25, "district": "Phường Long Biên" }, "geometry": { "type": "Point", "coordinates": [ 105.9037195, 21.0217849 ] } },
{ "type": "Feature", "properties": { "id": 8919736512, "name": "AEON Mall Long Biên (đối diện cột điện T4A/2A-B đường Cổ Linh)", "index_right": 25, "district": "Phường Long Biên" }, "geometry": { "type": "Point", "coordinates": [ 105.8999595, 21.0256586 ] } },
{ "type": "Feature", "properties": { "id": 8925821811, "name": "Qua Trường THCS Long Biên", "index_right": 25, "district": "Phường Long Biên" }, "geometry": { "type": "Point", "coordinates": [ 105.8844785, 21.029446 ] } },
{ "type": "Feature", "properties": { "id": 8925821812, "name": "106-108 Cổ Linh", "index_right": 25, "district": "Phường Long Biên" }, "geometry": { "type": "Point", "coordinates": [ 105.8916189, 21.0282996 ] } },
{ "type": "Feature", "properties": { "id": 8925821813, "name": "183 Thạch Bàn", "index_right": 25, "district": "Phường Long Biên" }, "geometry": { "type": "Point", "coordinates": [ 105.9073394, 21.0245893 ] } },
{ "type": "Feature", "properties": { "id": 8925821814, "name": "Đối diện 30 Thạch Bàn", "index_right": 25, "district": "Phường Long Biên" }, "geometry": { "type": "Point", "coordinates": [ 105.9108855, 21.0268253 ] } },
{ "type": "Feature", "properties": { "id": 8925835929, "name": "Trước 50m ngõ 12 Thạch Bàn", "index_right": 25, "district": "Phường Long Biên" }, "geometry": { "type": "Point", "coordinates": [ 105.911437, 21.0277975 ] } },
{ "type": "Feature", "properties": { "id": 8925835930, "name": "Đối diện Trường THCS Thạch Bàn", "index_right": 25, "district": "Phường Long Biên" }, "geometry": { "type": "Point", "coordinates": [ 105.9066463, 21.0242671 ] } },
{ "type": "Feature", "properties": { "id": 8925835931, "name": "Đối diện ngõ 110 Cổ Linh", "index_right": 25, "district": "Phường Long Biên" }, "geometry": { "type": "Point", "coordinates": [ 105.8927753, 21.028232 ] } },
{ "type": "Feature", "properties": { "id": 8925835932, "name": "Đối diện Trường THCS Long Biên", "index_right": 25, "district": "Phường Long Biên" }, "geometry": { "type": "Point", "coordinates": [ 105.884715, 21.029683 ] } },
{ "type": "Feature", "properties": { "id": 8995345609, "name": "Đối diện Trường cấp 1A Thạch Bàn", "index_right": 25, "district": "Phường Long Biên" }, "geometry": { "type": "Point", "coordinates": [ 105.9120912, 21.018598 ] } },
{ "type": "Feature", "properties": { "id": 8995345610, "name": "Trường cấp 1A Thạch Bàn", "index_right": 25, "district": "Phường Long Biên" }, "geometry": { "type": "Point", "coordinates": [ 105.9122625, 21.0187962 ] } },
{ "type": "Feature", "properties": { "id": 9310230588, "name": "42 Ngọc Trì", "index_right": 25, "district": "Phường Long Biên" }, "geometry": { "type": "Point", "coordinates": [ 105.9068609, 21.0222507 ] } },
{ "type": "Feature", "properties": { "id": 9310230589, "name": "Trường Mầm non Hoa Mai", "index_right": 25, "district": "Phường Long Biên" }, "geometry": { "type": "Point", "coordinates": [ 105.9060216, 21.0228337 ] } }
]
}
