{
"type": "FeatureCollection",
"name": "Phường_Cầu_Giấy",
"crs": { "type": "name", "properties": { "name": "urn:ogc:def:crs:OGC:1.3:CRS84" } },
"features": [
{ "type": "Feature", "properties": { "id": 738813535, "name": "Tòa nhà Indochina Tower - Đối diện ĐHQG Hà Nội", "index_right": 62, "district": "Phường Cầu Giấy" }, "geometry": { "type": "Point", "coordinates": [ 105.7820444, 21.0365485 ] } },
{ "type": "Feature", "properties": { "id": 738813730, "name": "Hè gần hầm chui cho người đi bộ qua đường khu vực cầu Mai Dịch (trước cổng trường ĐHNN 70m)", "index_right": 62, "district": "Phường Cầu Giấy" }, "geometry": { "type": "Point", "coordinates": [ 105.781131, 21.0387772 ] } },
{ "type": "Feature", "properties": { "id": 738815665, "name": "79 Xuân Thủy (Đối diện Học viện Báo chí và Tuyên truyền)", "index_right": 62, "district": "Phường Cầu Giấy" }, "geometry": { "type": "Point", "coordinates": [ 105.7883965, 21.0363218 ] } },
{ "type": "Feature", "properties": { "id": 1803529466, "name": "Không tên", "index_right": 62, "district": "Phường Cầu Giấy" }, "geometry": { "type": "Point", "coordinates": [ 105.78189, 21.018557 ] } },
{ "type": "Feature", "properties": { "id": 4914822521, "name": "165 Cầu Giấy - Bưu điện Cầu Giấy", "index_right": 62, "district": "Phường Cầu Giấy" }, "geometry": { "type": "Point", "coordinates": [ 105.7985179, 21.0326254 ] } },
{ "type": "Feature", "properties": { "id": 4914822621, "name": "Qua vòng xuyến ngã tư Trần Thái Tông - Tôn Thất Thuyết 70m", "index_right": 62, "district": "Phường Cầu Giấy" }, "geometry": { "type": "Point", "coordinates": [ 105.7879492, 21.0290237 ] } },
{ "type": "Feature", "properties": { "id": 7617390958, "name": "Đối diện nhà CT5 KĐT Sông Đà Mỹ Đình - Phạm Hùng", "index_right": 62, "district": "Phường Cầu Giấy" }, "geometry": { "type": "Point", "coordinates": [ 105.7815164, 21.0188542 ] } },
{ "type": "Feature", "properties": { "id": 7617390959, "name": "Qua ngã 3 Phạm Hùng - Đình Thôn (Hướng đi Phạm Văn Đồng)", "index_right": 62, "district": "Phường Cầu Giấy" }, "geometry": { "type": "Point", "coordinates": [ 105.7790254, 21.0229771 ] } },
{ "type": "Feature", "properties": { "id": 7617390960, "name": "Đối diện Bến xe khách Mỹ Đình - Phạm Hùng (cột trước)", "index_right": 62, "district": "Phường Cầu Giấy" }, "geometry": { "type": "Point", "coordinates": [ 105.7792685, 21.0270218 ] } },
{ "type": "Feature", "properties": { "id": 8236303281, "name": "Qua đối diện Viện Huyết học và truyền máu Trung ương 20m - Phạm Văn Bạch", "index_right": 62, "district": "Phường Cầu Giấy" }, "geometry": { "type": "Point", "coordinates": [ 105.7888481, 21.0255163 ] } },
{ "type": "Feature", "properties": { "id": 8236303297, "name": "Sân bóng Đồng Bông - Tôn Thất Thuyết (gần ĐH FPT)", "index_right": 62, "district": "Phường Cầu Giấy" }, "geometry": { "type": "Point", "coordinates": [ 105.784664, 21.0281119 ] } },
{ "type": "Feature", "properties": { "id": 8236303305, "name": "Trường ĐH FPT - đường Tôn Thất Thuyết", "index_right": 62, "district": "Phường Cầu Giấy" }, "geometry": { "type": "Point", "coordinates": [ 105.7819781, 21.0285342 ] } },
{ "type": "Feature", "properties": { "id": 8755733278, "name": "Bộ Nội Vụ, Bộ Tài Nguyên Môi Trường - 10 Tôn Thất Thuyết", "index_right": 62, "district": "Phường Cầu Giấy" }, "geometry": { "type": "Point", "coordinates": [ 105.7818174, 21.0283048 ] } },
{ "type": "Feature", "properties": { "id": 8755733279, "name": "9-11 Phạm Văn Bạch", "index_right": 62, "district": "Phường Cầu Giấy" }, "geometry": { "type": "Point", "coordinates": [ 105.7879362, 21.0263891 ] } },
{ "type": "Feature", "properties": { "id": 8766627151, "name": "Ga Chùa Hà", "index_right": 62, "district": "Phường Cầu Giấy" }, "geometry": { "type": "Point", "coordinates": [ 105.7945909, 21.0350206 ] } },
{ "type": "Feature", "properties": { "id": 8766627152, "name": "370 Cầu Giấy", "index_right": 62, "district": "Phường Cầu Giấy" }, "geometry": { "type": "Point", "coordinates": [ 105.7918052, 21.0358991 ] } },
{ "type": "Feature", "properties": { "id": 8766627153, "name": "Học viện Báo chí và Tuyên truyền - 36 Xuân Thủy", "index_right": 62, "district": "Phường Cầu Giấy" }, "geometry": { "type": "Point", "coordinates": [ 105.7884754, 21.0365503 ] } },
{ "type": "Feature", "properties": { "id": 8766627154, "name": "144 Xuân Thủy", "index_right": 62, "district": "Phường Cầu Giấy" }, "geometry": { "type": "Point", "coordinates": [ 105.7828605, 21.03681 ] } },
{ "type": "Feature", "properties": { "id": 8766627162, "name": "331 Cầu Giấy", "index_right": 62, "district": "Phường Cầu Giấy" }, "geometry": { "type": "Point", "coordinates": [ 105.791762, 21.0356998 ] } },
{ "type": "Feature", "properties": { "id": 8813408786, "name": "Đối diện Bến xe khách Mỹ Đình (cột sau)", "index_right": 62, "district": "Phường Cầu Giấy" }, "geometry": { "type": "Point", "coordinates": [ 105.7793364, 21.0275646 ] } },
{ "type": "Feature", "properties": { "id": 8813408787, "name": "Đối diện Bệnh viện đa khoa y học cổ truyền - Phạm Hùng", "index_right": 62, "district": "Phường Cầu Giấy" }, "geometry": { "type": "Point", "coordinates": [ 105.7805394, 21.0343656 ] } },
{ "type": "Feature", "properties": { "id": 8838269684, "name": "Ngõ 6 Dương Đình Nghệ", "index_right": 62, "district": "Phường Cầu Giấy" }, "geometry": { "type": "Point", "coordinates": [ 105.7881214, 21.0220105 ] } },
{ "type": "Feature", "properties": { "id": 8838269685, "name": "Đối diện 16 Dương Đình Nghệ", "index_right": 62, "district": "Phường Cầu Giấy" }, "geometry": { "type": "Point", "coordinates": [ 105.7847435, 21.0196615 ] } },
{ "type": "Feature", "properties": { "id": 8865361293, "name": "Đối diện Chi cục Thi hành án quận Cầu Giấy", "index_right": 62, "district": "Phường Cầu Giấy" }, "geometry": { "type": "Point", "coordinates": [ 105.7866473, 21.0303647 ] } },
{ "type": "Feature", "properties": { "id": 8865361294, "name": "Đối diện Trường Trung học cơ sở Cầu Giấy", "index_right": 62, "district": "Phường Cầu Giấy" }, "geometry": { "type": "Point", "coordinates": [ 105.7890771, 21.0300303 ] } },
{ "type": "Feature", "properties": { "id": 8865361295, "name": "Trước nhà 29 Trương Công Giai", "index_right": 62, "district": "Phường Cầu Giấy" }, "geometry": { "type": "Point", "coordinates": [ 105.7908125, 21.0343707 ] } },
{ "type": "Feature", "properties": { "id": 8865361296, "name": "Qua ngõ 38 Trần Quý Kiên 30m", "index_right": 62, "district": "Phường Cầu Giấy" }, "geometry": { "type": "Point", "coordinates": [ 105.7920145, 21.0379438 ] } },
{ "type": "Feature", "properties": { "id": 8865361297, "name": "171-173 Trần Đăng Ninh", "index_right": 62, "district": "Phường Cầu Giấy" }, "geometry": { "type": "Point", "coordinates": [ 105.7927426, 21.0383869 ] } },
{ "type": "Feature", "properties": { "id": 8865361302, "name": "Trung tâm thể dục thể thao quận Cầu Giấy", "index_right": 62, "district": "Phường Cầu Giấy" }, "geometry": { "type": "Point", "coordinates": [ 105.7918723, 21.0377231 ] } },
{ "type": "Feature", "properties": { "id": 8865361303, "name": "Trước nhà 20 Trương Công Giai", "index_right": 62, "district": "Phường Cầu Giấy" }, "geometry": { "type": "Point", "coordinates": [ 105.791081, 21.0351061 ] } },
{ "type": "Feature", "properties": { "id": 8865361304, "name": "Qua trường Trung học cơ sở Cầu Giấy 50m", "index_right": 62, "district": "Phường Cầu Giấy" }, "geometry": { "type": "Point", "coordinates": [ 105.7896718, 21.0305559 ] } },
{ "type": "Feature", "properties": { "id": 8865361305, "name": "Chi cục Thi hành án quận Cầu Giấy", "index_right": 62, "district": "Phường Cầu Giấy" }, "geometry": { "type": "Point", "coordinates": [ 105.7859626, 21.0306597 ] } },
{ "type": "Feature", "properties": { "id": 8865361306, "name": "Qua ngõ 86 Duy Tân 30m", "index_right": 62, "district": "Phường Cầu Giấy" }, "geometry": { "type": "Point", "coordinates": [ 105.7815169, 21.031379 ] } },
{ "type": "Feature", "properties": { "id": 8895529060, "name": "70 Trần Thái Tông", "index_right": 62, "district": "Phường Cầu Giấy" }, "geometry": { "type": "Point", "coordinates": [ 105.7887856, 21.0339277 ] } },
{ "type": "Feature", "properties": { "id": 8895529061, "name": "79 Trần Thái Tông", "index_right": 62, "district": "Phường Cầu Giấy" }, "geometry": { "type": "Point", "coordinates": [ 105.7881986, 21.031351 ] } },
{ "type": "Feature", "properties": { "id": 8895529062, "name": "Qua ngã tư Duy Tân - Trần Thái Tông 200m", "index_right": 62, "district": "Phường Cầu Giấy" }, "geometry": { "type": "Point", "coordinates": [ 105.7877481, 21.0296425 ] } },
{ "type": "Feature", "properties": { "id": 8895739838, "name": "Đối diện 89 Trần Thái Tông", "index_right": 62, "district": "Phường Cầu Giấy" }, "geometry": { "type": "Point", "coordinates": [ 105.78854, 21.0314276 ] } },
{ "type": "Feature", "properties": { "id": 8895739839, "name": "Đối diện 64 Trần Thái Tông", "index_right": 62, "district": "Phường Cầu Giấy" }, "geometry": { "type": "Point", "coordinates": [ 105.789194, 21.0343233 ] } },
{ "type": "Feature", "properties": { "id": 8934749250, "name": "81 Trần Quốc Hoàn", "index_right": 62, "district": "Phường Cầu Giấy" }, "geometry": { "type": "Point", "coordinates": [ 105.7834926, 21.0416469 ] } },
{ "type": "Feature", "properties": { "id": 8934749256, "name": "Cột điện giữa nhà 19-21 Trần Quốc Hoàn", "index_right": 62, "district": "Phường Cầu Giấy" }, "geometry": { "type": "Point", "coordinates": [ 105.7887264, 21.0414913 ] } },
{ "type": "Feature", "properties": { "id": 8950695178, "name": "Đối diện 369 Nguyễn Khang", "index_right": 62, "district": "Phường Cầu Giấy" }, "geometry": { "type": "Point", "coordinates": [ 105.7981877, 21.0269852 ] } },
{ "type": "Feature", "properties": { "id": 8950695179, "name": "Phòng Đào tạo Giáo dục quận Cầu Giấy", "index_right": 62, "district": "Phường Cầu Giấy" }, "geometry": { "type": "Point", "coordinates": [ 105.8007371, 21.0298836 ] } },
{ "type": "Feature", "properties": { "id": 10047445271, "name": "Công viên Cầu Giấy", "index_right": 62, "district": "Phường Cầu Giấy" }, "geometry": { "type": "Point", "coordinates": [ 105.7915148, 21.0295846 ] } },
{ "type": "Feature", "properties": { "id": 11515782291, "name": "Chợ Xanh", "index_right": 62, "district": "Phường Cầu Giấy" }, "geometry": { "type": "Point", "coordinates": [ 105.7861227, 21.0367025 ] } },
{ "type": "Feature", "properties": { "id": 11518476666, "name": "Đối diện tòa nhà Discovery Complex", "index_right": 62, "district": "Phường Cầu Giấy" }, "geometry": { "type": "Point", "coordinates": [ 105.7944181, 21.0347771 ] } },
{ "type": "Feature", "properties": { "id": 11522073217, "name": "32-34 Trần Đăng Ninh", "index_right": 62, "district": "Phường Cầu Giấy" }, "geometry": { "type": "Point", "coordinates": [ 105.794024, 21.0363212 ] } },
{ "type": "Feature", "properties": { "id": 11522073219, "name": "33-35 Trần Đăng Ninh", "index_right": 62, "district": "Phường Cầu Giấy" }, "geometry": { "type": "Point", "coordinates": [ 105.7937866, 21.0362436 ] } },
{ "type": "Feature", "properties": { "id": 11524039235, "name": "Cổng vào KTX Học viện Báo chí tuyên truyền", "index_right": 62, "district": "Phường Cầu Giấy" }, "geometry": { "type": "Point", "coordinates": [ 105.7902339, 21.0382998 ] } },
{ "type": "Feature", "properties": { "id": 11524139305, "name": "Nhà văn hóa quận Cầu Giấy", "index_right": 62, "district": "Phường Cầu Giấy" }, "geometry": { "type": "Point", "coordinates": [ 105.7904321, 21.0376769 ] } },
{ "type": "Feature", "properties": { "id": 11536511312, "name": "Đối diện nhà số 5 N08A KĐT Dịch Vọng", "index_right": 62, "district": "Phường Cầu Giấy" }, "geometry": { "type": "Point", "coordinates": [ 105.7923384, 21.0293472 ] } },
{ "type": "Feature", "properties": { "id": 11536511313, "name": "Đối diện trường Mầm non VietKids - KĐT Dịch Vọng", "index_right": 62, "district": "Phường Cầu Giấy" }, "geometry": { "type": "Point", "coordinates": [ 105.7918418, 21.0267635 ] } },
{ "type": "Feature", "properties": { "id": 11536511330, "name": "Trường Mầm non VietKid - KĐT Dịch Vọng", "index_right": 62, "district": "Phường Cầu Giấy" }, "geometry": { "type": "Point", "coordinates": [ 105.7920252, 21.0268328 ] } },
{ "type": "Feature", "properties": { "id": 11536511331, "name": "Nhà NƠ.04B1 Đường Thành Thái", "index_right": 62, "district": "Phường Cầu Giấy" }, "geometry": { "type": "Point", "coordinates": [ 105.7922048, 21.0295388 ] } },
{ "type": "Feature", "properties": { "id": 11672588051, "name": "Siêu thị điện máy PiCo - 173 Xuân Thủy", "index_right": 62, "district": "Phường Cầu Giấy" }, "geometry": { "type": "Point", "coordinates": [ 105.7852341, 21.0364821 ] } },
{ "type": "Feature", "properties": { "id": 11680376019, "name": "Trường Cao đẳng Điện tử - Điện lạnh Hà Nội", "index_right": 62, "district": "Phường Cầu Giấy" }, "geometry": { "type": "Point", "coordinates": [ 105.7975942, 21.0370467 ] } },
{ "type": "Feature", "properties": { "id": 12025267400, "name": "9 Khúc Thừa Dụ", "index_right": 62, "district": "Phường Cầu Giấy" }, "geometry": { "type": "Point", "coordinates": [ 105.7930628, 21.0344893 ] } },
{ "type": "Feature", "properties": { "id": 12025267401, "name": "1 Thành Thái", "index_right": 62, "district": "Phường Cầu Giấy" }, "geometry": { "type": "Point", "coordinates": [ 105.7886502, 21.0302647 ] } },
{ "type": "Feature", "properties": { "id": 12082634697, "name": "12 Khúc Thừa Dụ", "index_right": 62, "district": "Phường Cầu Giấy" }, "geometry": { "type": "Point", "coordinates": [ 105.7929026, 21.0344725 ] } },
{ "type": "Feature", "properties": { "id": 12082634705, "name": "Trước ngõ 11 Duy Tân 50m", "index_right": 62, "district": "Phường Cầu Giấy" }, "geometry": { "type": "Point", "coordinates": [ 105.7837741, 21.0308882 ] } }
]
}
