{
"type": "FeatureCollection",
"name": "Phường_Hai_Bà_Trưng",
"crs": { "type": "name", "properties": { "name": "urn:ogc:def:crs:OGC:1.3:CRS84" } },
"features": [
{ "type": "Feature", "properties": { "id": 738813238, "name": "172 Lò Đúc (Cửa hàng xe máy Hon Đa)", "index_right": 40, "district": "Phường Hai Bà Trưng" }, "geometry": { "type": "Point", "coordinates": [ 105.8591398, 21.0114844 ] } },
{ "type": "Feature", "properties": { "id": 738813333, "name": "Đối diện 394 Lê Duẩn", "index_right": 40, "district": "Phường Hai Bà Trưng" }, "geometry": { "type": "Point", "coordinates": [ 105.8414426, 21.0095227 ] } },
{ "type": "Feature", "properties": { "id": 738813565, "name": "34-36 Tăng Bạt Hổ", "index_right": 40, "district": "Phường Hai Bà Trưng" }, "geometry": { "type": "Point", "coordinates": [ 105.8584883, 21.0164979 ] } },
{ "type": "Feature", "properties": { "id": 738813618, "name": "Công viên Thống Nhất - Đối diện 326 Lê Duẩn", "index_right": 40, "district": "Phường Hai Bà Trưng" }, "geometry": { "type": "Point", "coordinates": [ 105.8414701, 21.0141254 ] } },
{ "type": "Feature", "properties": { "id": 738813683, "name": "Doanh trại Quân đội Nhân dân - 1B Trần Thánh Tông", "index_right": 40, "district": "Phường Hai Bà Trưng" }, "geometry": { "type": "Point", "coordinates": [ 105.8592013, 21.0173128 ] } },
{ "type": "Feature", "properties": { "id": 738813697, "name": "Cạnh ngõ 18 Nguyễn Khoái (Đối diện Vân Đồn Hotel)", "index_right": 40, "district": "Phường Hai Bà Trưng" }, "geometry": { "type": "Point", "coordinates": [ 105.864842, 21.0097051 ] } },
{ "type": "Feature", "properties": { "id": 738813781, "name": "18-20 Tuệ Tĩnh", "index_right": 40, "district": "Phường Hai Bà Trưng" }, "geometry": { "type": "Point", "coordinates": [ 105.8507384, 21.0152129 ] } },
{ "type": "Feature", "properties": { "id": 738814448, "name": "9 Trần Thánh Tông", "index_right": 40, "district": "Phường Hai Bà Trưng" }, "geometry": { "type": "Point", "coordinates": [ 105.8598941, 21.0145533 ] } },
{ "type": "Feature", "properties": { "id": 738814459, "name": "120 Đại Cồ Việt", "index_right": 40, "district": "Phường Hai Bà Trưng" }, "geometry": { "type": "Point", "coordinates": [ 105.8455293, 21.0081561 ] } },
{ "type": "Feature", "properties": { "id": 738814496, "name": "10 Hoa Lư", "index_right": 40, "district": "Phường Hai Bà Trưng" }, "geometry": { "type": "Point", "coordinates": [ 105.8477143, 21.0095147 ] } },
{ "type": "Feature", "properties": { "id": 738814627, "name": "Công viên Thống Nhất", "index_right": 40, "district": "Phường Hai Bà Trưng" }, "geometry": { "type": "Point", "coordinates": [ 105.8442936, 21.0171654 ] } },
{ "type": "Feature", "properties": { "id": 738814817, "name": "77 Lò Đúc", "index_right": 40, "district": "Phường Hai Bà Trưng" }, "geometry": { "type": "Point", "coordinates": [ 105.8570084, 21.0150904 ] } },
{ "type": "Feature", "properties": { "id": 738814833, "name": "Cổng bệnh viện Quân y 108 - Đối diện 2E Trần Hưng Đạo", "index_right": 40, "district": "Phường Hai Bà Trưng" }, "geometry": { "type": "Point", "coordinates": [ 105.8607263, 21.0184313 ] } },
{ "type": "Feature", "properties": { "id": 738814907, "name": "Bệnh viện Hữu Nghị Việt Xô - 1 Trần Khánh Dư", "index_right": 40, "district": "Phường Hai Bà Trưng" }, "geometry": { "type": "Point", "coordinates": [ 105.8624848, 21.0153801 ] } },
{ "type": "Feature", "properties": { "id": 738815565, "name": "180-182 Bà Triệu", "index_right": 40, "district": "Phường Hai Bà Trưng" }, "geometry": { "type": "Point", "coordinates": [ 105.8491261, 21.0158778 ] } },
{ "type": "Feature", "properties": { "id": 738815662, "name": "55 Quang Trung - Đối diện hồ Thiền Quang", "index_right": 40, "district": "Phường Hai Bà Trưng" }, "geometry": { "type": "Point", "coordinates": [ 105.8474186, 21.0181608 ] } },
{ "type": "Feature", "properties": { "id": 738815889, "name": "149 Phố Huế", "index_right": 40, "district": "Phường Hai Bà Trưng" }, "geometry": { "type": "Point", "coordinates": [ 105.8517769, 21.014307 ] } },
{ "type": "Feature", "properties": { "id": 1008752617, "name": "Đối diện Trung tâm Giải trí Ngôi Sao Xanh (Hồ Thiền Quang)", "index_right": 40, "district": "Phường Hai Bà Trưng" }, "geometry": { "type": "Point", "coordinates": [ 105.845803, 21.0172175 ] } },
{ "type": "Feature", "properties": { "id": 7162770672, "name": "340-342 Trần Khát Chân", "index_right": 40, "district": "Phường Hai Bà Trưng" }, "geometry": { "type": "Point", "coordinates": [ 105.8582953, 21.0093405 ] } },
{ "type": "Feature", "properties": { "id": 7603055514, "name": "Điểm đỗ xe buýt 32 Nguyễn Công Trứ", "index_right": 40, "district": "Phường Hai Bà Trưng" }, "geometry": { "type": "Point", "coordinates": [ 105.8530369, 21.0137705 ] } },
{ "type": "Feature", "properties": { "id": 7821883016, "name": "131 Lò Đúc", "index_right": 40, "district": "Phường Hai Bà Trưng" }, "geometry": { "type": "Point", "coordinates": [ 105.8586779, 21.012344 ] } },
{ "type": "Feature", "properties": { "id": 7824856485, "name": "Đối diện Vincom Tower - Bà Triệu", "index_right": 40, "district": "Phường Hai Bà Trưng" }, "geometry": { "type": "Point", "coordinates": [ 105.8490278, 21.0113649 ] } },
{ "type": "Feature", "properties": { "id": 8213181378, "name": "48B Tăng Bạt Hổ - Viện Dinh Dưỡng - Bộ y tế", "index_right": 40, "district": "Phường Hai Bà Trưng" }, "geometry": { "type": "Point", "coordinates": [ 105.8591573, 21.0141023 ] } },
{ "type": "Feature", "properties": { "id": 8807115915, "name": "319 Phố Huế", "index_right": 40, "district": "Phường Hai Bà Trưng" }, "geometry": { "type": "Point", "coordinates": [ 105.8516203, 21.0100861 ] } },
{ "type": "Feature", "properties": { "id": 8835043629, "name": "Đối diện K9 Bộ đội Biên phòng", "index_right": 40, "district": "Phường Hai Bà Trưng" }, "geometry": { "type": "Point", "coordinates": [ 105.8623122, 21.0170641 ] } },
{ "type": "Feature", "properties": { "id": 10118163076, "name": "Trung tâm kỹ thuật cao Viện 108 (Qua ngã 3 Trần Khánh Dư - Trần Hưng Đạo 50m)", "index_right": 40, "district": "Phường Hai Bà Trưng" }, "geometry": { "type": "Point", "coordinates": [ 105.861818, 21.0181228 ] } },
{ "type": "Feature", "properties": { "id": 10118488781, "name": "Đối diện phòng chụp cắt lớp vi tính 64 lớp - số 1 Trần Khánh Dư (đường dưới)", "index_right": 40, "district": "Phường Hai Bà Trưng" }, "geometry": { "type": "Point", "coordinates": [ 105.8626564, 21.0150239 ] } },
{ "type": "Feature", "properties": { "id": 10118488782, "name": "Đối diện Khoa A11 Viện 108 (Cách ngã 3 Trần Khánh Dư - Trần Hưng Đạo 80m)", "index_right": 40, "district": "Phường Hai Bà Trưng" }, "geometry": { "type": "Point", "coordinates": [ 105.8619791, 21.0178762 ] } },
{ "type": "Feature", "properties": { "id": 10134844430, "name": "Đối Diện 28 Trần Bình Trọng - Hồ Thiền Quang", "index_right": 40, "district": "Phường Hai Bà Trưng" }, "geometry": { "type": "Point", "coordinates": [ 105.8439587, 21.0184448 ] } },
{ "type": "Feature", "properties": { "id": 11521595976, "name": "52 Ngô Thì Nhậm", "index_right": 40, "district": "Phường Hai Bà Trưng" }, "geometry": { "type": "Point", "coordinates": [ 105.8528621, 21.0174582 ] } },
{ "type": "Feature", "properties": { "id": 11521595977, "name": "94 Ngô Thì Nhậm", "index_right": 40, "district": "Phường Hai Bà Trưng" }, "geometry": { "type": "Point", "coordinates": [ 105.8533587, 21.0141983 ] } },
{ "type": "Feature", "properties": { "id": 11521595982, "name": "1 Hoa Lư", "index_right": 40, "district": "Phường Hai Bà Trưng" }, "geometry": { "type": "Point", "coordinates": [ 105.8479853, 21.0111173 ] } },
{ "type": "Feature", "properties": { "id": 11521595983, "name": "17 Thái Phiên", "index_right": 40, "district": "Phường Hai Bà Trưng" }, "geometry": { "type": "Point", "coordinates": [ 105.8504579, 21.0105275 ] } },
{ "type": "Feature", "properties": { "id": 11522073225, "name": "76 Trần Xuân Soạn", "index_right": 40, "district": "Phường Hai Bà Trưng" }, "geometry": { "type": "Point", "coordinates": [ 105.8519886, 21.016873 ] } },
{ "type": "Feature", "properties": { "id": 11522294665, "name": "83A Trần Xuân Soạn", "index_right": 40, "district": "Phường Hai Bà Trưng" }, "geometry": { "type": "Point", "coordinates": [ 105.8517411, 21.0167213 ] } },
{ "type": "Feature", "properties": { "id": 11633899828, "name": "Công viên Thống Nhất", "index_right": 40, "district": "Phường Hai Bà Trưng" }, "geometry": { "type": "Point", "coordinates": [ 105.8427609, 21.0172558 ] } },
{ "type": "Feature", "properties": { "id": 12723561995, "name": "Công viên Thống Nhất - Trần Nhân Tông", "index_right": 40, "district": "Phường Hai Bà Trưng" }, "geometry": { "type": "Point", "coordinates": [ 105.8452149, 21.0171621 ] } }
]
}
