{
"type": "FeatureCollection",
"name": "Phường_Kiến_Hưng",
"crs": { "type": "name", "properties": { "name": "urn:ogc:def:crs:OGC:1.3:CRS84" } },
"features": [
{ "type": "Feature", "properties": { "id": 8237661967, "name": "Nhà chờ Văn La", "index_right": 95, "district": "Phường Kiến Hưng" }, "geometry": { "type": "Point", "coordinates": [ 105.7619604, 20.9600405 ] } },
{ "type": "Feature", "properties": { "id": 8237661968, "name": "Nhà chờ Ba La", "index_right": 95, "district": "Phường Kiến Hưng" }, "geometry": { "type": "Point", "coordinates": [ 105.7578525, 20.9568735 ] } },
{ "type": "Feature", "properties": { "id": 8770739146, "name": "807 Quang Trung - Hà Đông", "index_right": 95, "district": "Phường Kiến Hưng" }, "geometry": { "type": "Point", "coordinates": [ 105.7595859, 20.9580287 ] } },
{ "type": "Feature", "properties": { "id": 8770739147, "name": "707-709 Quang Trung, Hà Đông (cột mốc H3/15)", "index_right": 95, "district": "Phường Kiến Hưng" }, "geometry": { "type": "Point", "coordinates": [ 105.7620596, 20.9599549 ] } },
{ "type": "Feature", "properties": { "id": 8770739148, "name": "Ngã tư Quang Trung, Lê Trọng Tấn - Nhà ga La Khê", "index_right": 95, "district": "Phường Kiến Hưng" }, "geometry": { "type": "Point", "coordinates": [ 105.7665483, 20.9634495 ] } },
{ "type": "Feature", "properties": { "id": 8770739149, "name": "Đối diện đường vào chợ La Khê, 371 Quang Trung (Hà Đông)", "index_right": 95, "district": "Phường Kiến Hưng" }, "geometry": { "type": "Point", "coordinates": [ 105.7687292, 20.9651423 ] } },
{ "type": "Feature", "properties": { "id": 8846358754, "name": "Gần đường vào Trại tạm giam", "index_right": 95, "district": "Phường Kiến Hưng" }, "geometry": { "type": "Point", "coordinates": [ 105.7991925, 20.9616449 ] } },
{ "type": "Feature", "properties": { "id": 8846358755, "name": "Công ty XNK Lâm nông sản số 1 Sài Gòn", "index_right": 95, "district": "Phường Kiến Hưng" }, "geometry": { "type": "Point", "coordinates": [ 105.8032134, 20.959481 ] } },
{ "type": "Feature", "properties": { "id": 8943684261, "name": "Đối diện 17 Tổ 10 Kiến Hưng - Phố Mậu Lương", "index_right": 95, "district": "Phường Kiến Hưng" }, "geometry": { "type": "Point", "coordinates": [ 105.7906693, 20.9574928 ] } },
{ "type": "Feature", "properties": { "id": 8943684262, "name": "Miếu làng Mậu Lương - Phố Mậu Lương", "index_right": 95, "district": "Phường Kiến Hưng" }, "geometry": { "type": "Point", "coordinates": [ 105.7904481, 20.9578726 ] } },
{ "type": "Feature", "properties": { "id": 8943684263, "name": "Đối diện sân bóng Mậu Lương - Đường Lê Xuân Điệp", "index_right": 95, "district": "Phường Kiến Hưng" }, "geometry": { "type": "Point", "coordinates": [ 105.7926941, 20.9556561 ] } },
{ "type": "Feature", "properties": { "id": 8943684264, "name": "Trung tâm thể thao Mậu Mương - Đường Lê Xuân Điệp", "index_right": 95, "district": "Phường Kiến Hưng" }, "geometry": { "type": "Point", "coordinates": [ 105.7930284, 20.9562066 ] } },
{ "type": "Feature", "properties": { "id": 8943684265, "name": "Đối diện khu chung cư và nhà ở quân đội - Bộ Quốc Phòng - Đường Lê Xuân Điệp", "index_right": 95, "district": "Phường Kiến Hưng" }, "geometry": { "type": "Point", "coordinates": [ 105.7912649, 20.9510546 ] } },
{ "type": "Feature", "properties": { "id": 8943684266, "name": "Ban chỉ huy quân sự quận Hà Đông - Doanh trại QĐND - Đường Lê Xuân Điệp", "index_right": 95, "district": "Phường Kiến Hưng" }, "geometry": { "type": "Point", "coordinates": [ 105.7912803, 20.9505481 ] } },
{ "type": "Feature", "properties": { "id": 8943684267, "name": "Giữa số nhà DG10-14 và DG10-26 - Đường Lê Xuân Điệp", "index_right": 95, "district": "Phường Kiến Hưng" }, "geometry": { "type": "Point", "coordinates": [ 105.7902534, 20.9478647 ] } },
{ "type": "Feature", "properties": { "id": 8943684268, "name": "Khu đô thị Kiến Hưng", "index_right": 95, "district": "Phường Kiến Hưng" }, "geometry": { "type": "Point", "coordinates": [ 105.7924489, 20.9450467 ] } },
{ "type": "Feature", "properties": { "id": 8943684269, "name": "Đối diện 22 DG8 KĐT Kiến Hưng - Đường Lê Xuân Điệp", "index_right": 95, "district": "Phường Kiến Hưng" }, "geometry": { "type": "Point", "coordinates": [ 105.7902649, 20.9474839 ] } },
{ "type": "Feature", "properties": { "id": 8943744761, "name": "Qua ngã tư Hà Trì - Đa Sỹ khoảng 100m", "index_right": 95, "district": "Phường Kiến Hưng" }, "geometry": { "type": "Point", "coordinates": [ 105.7837858, 20.9637671 ] } },
{ "type": "Feature", "properties": { "id": 8943744762, "name": "Trường Mầm non Đa Sỹ (Đối diện Chùa làng Đa Sỹ) - Đa Sỹ", "index_right": 95, "district": "Phường Kiến Hưng" }, "geometry": { "type": "Point", "coordinates": [ 105.7856497, 20.9617024 ] } },
{ "type": "Feature", "properties": { "id": 8943744763, "name": "Chùa Làng Đa Sỹ", "index_right": 95, "district": "Phường Kiến Hưng" }, "geometry": { "type": "Point", "coordinates": [ 105.7857273, 20.9618675 ] } },
{ "type": "Feature", "properties": { "id": 8943744764, "name": "Trường Trung học cơ sở Kiến Hưng - Đa Sỹ", "index_right": 95, "district": "Phường Kiến Hưng" }, "geometry": { "type": "Point", "coordinates": [ 105.7891242, 20.9588596 ] } },
{ "type": "Feature", "properties": { "id": 8943744765, "name": "Trường Tiểu học Kiến Hưng - Đa Sỹ", "index_right": 95, "district": "Phường Kiến Hưng" }, "geometry": { "type": "Point", "coordinates": [ 105.7889234, 20.9592034 ] } },
{ "type": "Feature", "properties": { "id": 9007633027, "name": "46 Ba La - Trung cấp Y Hà Nội", "index_right": 95, "district": "Phường Kiến Hưng" }, "geometry": { "type": "Point", "coordinates": [ 105.7572185, 20.954395 ] } },
{ "type": "Feature", "properties": { "id": 9007633028, "name": "17 Ba La", "index_right": 95, "district": "Phường Kiến Hưng" }, "geometry": { "type": "Point", "coordinates": [ 105.7574456, 20.9551078 ] } },
{ "type": "Feature", "properties": { "id": 9019290564, "name": "Sau ngã tư Mậu Lương - Phúc La 50m", "index_right": 95, "district": "Phường Kiến Hưng" }, "geometry": { "type": "Point", "coordinates": [ 105.7890418, 20.9572838 ] } },
{ "type": "Feature", "properties": { "id": 9019290566, "name": "Trước ngã tư Mậu Lương - Phúc La 50m", "index_right": 95, "district": "Phường Kiến Hưng" }, "geometry": { "type": "Point", "coordinates": [ 105.7893521, 20.9572193 ] } },
{ "type": "Feature", "properties": { "id": 9019290567, "name": "Gần cổng khu nhà ở Hưng Thịnh", "index_right": 95, "district": "Phường Kiến Hưng" }, "geometry": { "type": "Point", "coordinates": [ 105.7864267, 20.9492326 ] } },
{ "type": "Feature", "properties": { "id": 9019290568, "name": "Đối diện khu nhà ở Hưng Thịnh", "index_right": 95, "district": "Phường Kiến Hưng" }, "geometry": { "type": "Point", "coordinates": [ 105.7868375, 20.9491325 ] } },
{ "type": "Feature", "properties": { "id": 11150870820, "name": "Tòa nhà Lacasta", "index_right": 95, "district": "Phường Kiến Hưng" }, "geometry": { "type": "Point", "coordinates": [ 105.7663969, 20.9604978 ] } },
{ "type": "Feature", "properties": { "id": 11150870821, "name": "Đối diện toà nhà Lacasta", "index_right": 95, "district": "Phường Kiến Hưng" }, "geometry": { "type": "Point", "coordinates": [ 105.7665257, 20.960717 ] } },
{ "type": "Feature", "properties": { "id": 11150870824, "name": "Ngã 3 đường vào sân tập Golf Hà Đông", "index_right": 95, "district": "Phường Kiến Hưng" }, "geometry": { "type": "Point", "coordinates": [ 105.7825945, 20.9531641 ] } },
{ "type": "Feature", "properties": { "id": 11150870825, "name": "Đối diện lối rẽ vào sân golf Hà Đông", "index_right": 95, "district": "Phường Kiến Hưng" }, "geometry": { "type": "Point", "coordinates": [ 105.782514, 20.9529286 ] } },
{ "type": "Feature", "properties": { "id": 11536511319, "name": "Trước đối diện công ty Bất Động Sản Vietinvest 20m", "index_right": 95, "district": "Phường Kiến Hưng" }, "geometry": { "type": "Point", "coordinates": [ 105.7721599, 20.958807 ] } },
{ "type": "Feature", "properties": { "id": 11536511320, "name": "Dự án KĐT mới Phú Lương", "index_right": 95, "district": "Phường Kiến Hưng" }, "geometry": { "type": "Point", "coordinates": [ 105.7738962, 20.9536205 ] } },
{ "type": "Feature", "properties": { "id": 11536511324, "name": "Đối diện dự án KĐT mới Phú Lương", "index_right": 95, "district": "Phường Kiến Hưng" }, "geometry": { "type": "Point", "coordinates": [ 105.7739664, 20.9538484 ] } },
{ "type": "Feature", "properties": { "id": 11536511325, "name": "Qua công ty Bất động sản Vietinevest 40m", "index_right": 95, "district": "Phường Kiến Hưng" }, "geometry": { "type": "Point", "coordinates": [ 105.7723185, 20.9586217 ] } },
{ "type": "Feature", "properties": { "id": 11542412974, "name": "Tháp Đồng hồ Văn Phú", "index_right": 95, "district": "Phường Kiến Hưng" }, "geometry": { "type": "Point", "coordinates": [ 105.7683441, 20.9581488 ] } },
{ "type": "Feature", "properties": { "id": 11542412975, "name": "Qua Ngã tư Văn Khê - Hoàng Đôn Hòa", "index_right": 95, "district": "Phường Kiến Hưng" }, "geometry": { "type": "Point", "coordinates": [ 105.7733455, 20.9537943 ] } },
{ "type": "Feature", "properties": { "id": 11542412976, "name": "Ngã tư Văn Khê - Hoàng Đôn Hòa", "index_right": 95, "district": "Phường Kiến Hưng" }, "geometry": { "type": "Point", "coordinates": [ 105.7735815, 20.9539696 ] } },
{ "type": "Feature", "properties": { "id": 11542412977, "name": "Đối diện Tháp đồng hồ Văn Phú", "index_right": 95, "district": "Phường Kiến Hưng" }, "geometry": { "type": "Point", "coordinates": [ 105.7686622, 20.9583698 ] } }
]
}
