{
"type": "FeatureCollection",
"name": "Phường_Bạch_Mai",
"crs": { "type": "name", "properties": { "name": "urn:ogc:def:crs:OGC:1.3:CRS84" } },
"features": [
{ "type": "Feature", "properties": { "id": 446044147, "name": "215 Bạch Mai", "index_right": 43, "district": "Phường Bạch Mai" }, "geometry": { "type": "Point", "coordinates": [ 105.8511855, 21.0046558 ] } },
{ "type": "Feature", "properties": { "id": 446044156, "name": "Chợ Mơ - 459D Bạch Mai", "index_right": 43, "district": "Phường Bạch Mai" }, "geometry": { "type": "Point", "coordinates": [ 105.8501035, 20.9967867 ] } },
{ "type": "Feature", "properties": { "id": 446044160, "name": "327 Bạch Mai", "index_right": 43, "district": "Phường Bạch Mai" }, "geometry": { "type": "Point", "coordinates": [ 105.8507015, 21.0010604 ] } },
{ "type": "Feature", "properties": { "id": 446044163, "name": "Cửa hàng nhựa đường số 3 - 344 Kim Ngưu", "index_right": 43, "district": "Phường Bạch Mai" }, "geometry": { "type": "Point", "coordinates": [ 105.8617589, 20.997758 ] } },
{ "type": "Feature", "properties": { "id": 446044211, "name": "Tập thể E6 Quỳnh Mai - Kim Ngưu", "index_right": 43, "district": "Phường Bạch Mai" }, "geometry": { "type": "Point", "coordinates": [ 105.861295, 21.002032 ] } },
{ "type": "Feature", "properties": { "id": 738813427, "name": "95 Lê Thanh Nghị", "index_right": 43, "district": "Phường Bạch Mai" }, "geometry": { "type": "Point", "coordinates": [ 105.8439374, 21.0017399 ] } },
{ "type": "Feature", "properties": { "id": 738813467, "name": "60 Lê Thanh Nghị", "index_right": 43, "district": "Phường Bạch Mai" }, "geometry": { "type": "Point", "coordinates": [ 105.8484642, 21.0034189 ] } },
{ "type": "Feature", "properties": { "id": 738813564, "name": "66 Đại La", "index_right": 43, "district": "Phường Bạch Mai" }, "geometry": { "type": "Point", "coordinates": [ 105.8481783, 20.9963592 ] } },
{ "type": "Feature", "properties": { "id": 738813629, "name": "Trạm Xe Bus Số 4,26,30,36,42,52", "index_right": 43, "district": "Phường Bạch Mai" }, "geometry": { "type": "Point", "coordinates": [ 105.8609672, 21.0021452 ] } },
{ "type": "Feature", "properties": { "id": 738813681, "name": "175-177 Giải Phóng (Ngã 3 Lê Thanh Nghị)", "index_right": 43, "district": "Phường Bạch Mai" }, "geometry": { "type": "Point", "coordinates": [ 105.8414861, 21.0011728 ] } },
{ "type": "Feature", "properties": { "id": 738813696, "name": "65 Đại Cồ Việt", "index_right": 43, "district": "Phường Bạch Mai" }, "geometry": { "type": "Point", "coordinates": [ 105.8467302, 21.0079104 ] } },
{ "type": "Feature", "properties": { "id": 738813777, "name": "170-172 Lê Thanh Nghị", "index_right": 43, "district": "Phường Bạch Mai" }, "geometry": { "type": "Point", "coordinates": [ 105.8439287, 21.0018593 ] } },
{ "type": "Feature", "properties": { "id": 738813833, "name": "46 Võ Thị Sáu", "index_right": 43, "district": "Phường Bạch Mai" }, "geometry": { "type": "Point", "coordinates": [ 105.8547789, 21.0064674 ] } },
{ "type": "Feature", "properties": { "id": 738813884, "name": "B13 Ký túc xá Bách Khoa", "index_right": 43, "district": "Phường Bạch Mai" }, "geometry": { "type": "Point", "coordinates": [ 105.8473059, 21.0061932 ] } },
{ "type": "Feature", "properties": { "id": 738813898, "name": "Hồ Thanh Nhàn", "index_right": 43, "district": "Phường Bạch Mai" }, "geometry": { "type": "Point", "coordinates": [ 105.8545643, 21.0070173 ] } },
{ "type": "Feature", "properties": { "id": 738814039, "name": "Đối diện Bệnh viện Thanh Nhàn", "index_right": 43, "district": "Phường Bạch Mai" }, "geometry": { "type": "Point", "coordinates": [ 105.8591324, 21.0027382 ] } },
{ "type": "Feature", "properties": { "id": 738814302, "name": "216-218 Bạch Mai", "index_right": 43, "district": "Phường Bạch Mai" }, "geometry": { "type": "Point", "coordinates": [ 105.850973, 21.0040352 ] } },
{ "type": "Feature", "properties": { "id": 738814309, "name": "Bệnh viện Thanh Nhàn", "index_right": 43, "district": "Phường Bạch Mai" }, "geometry": { "type": "Point", "coordinates": [ 105.8591777, 21.0028792 ] } },
{ "type": "Feature", "properties": { "id": 738814321, "name": "512-514 Bạch Mai", "index_right": 43, "district": "Phường Bạch Mai" }, "geometry": { "type": "Point", "coordinates": [ 105.8499842, 20.9968031 ] } },
{ "type": "Feature", "properties": { "id": 738814363, "name": "Chung cư A3B 92 Thanh Nhàn", "index_right": 43, "district": "Phường Bạch Mai" }, "geometry": { "type": "Point", "coordinates": [ 105.8531245, 21.0029635 ] } },
{ "type": "Feature", "properties": { "id": 738814519, "name": "Chợ Mơ - 5 Minh Khai", "index_right": 43, "district": "Phường Bạch Mai" }, "geometry": { "type": "Point", "coordinates": [ 105.850605, 20.9961625 ] } },
{ "type": "Feature", "properties": { "id": 738815089, "name": "Đối diện 58 Lê Thanh Nghị (Qua Ngã 4 Lê Thanh Nghị - Tạ Quang Bửu)", "index_right": 43, "district": "Phường Bạch Mai" }, "geometry": { "type": "Point", "coordinates": [ 105.8486208, 21.0033198 ] } },
{ "type": "Feature", "properties": { "id": 738815106, "name": "Qua viện tin học Pháp ngữ 20m - Lê Thanh Nghị", "index_right": 43, "district": "Phường Bạch Mai" }, "geometry": { "type": "Point", "coordinates": [ 105.8474994, 21.0028717 ] } },
{ "type": "Feature", "properties": { "id": 738815117, "name": "Công viên Tuổi Trẻ", "index_right": 43, "district": "Phường Bạch Mai" }, "geometry": { "type": "Point", "coordinates": [ 105.8550187, 21.0033154 ] } },
{ "type": "Feature", "properties": { "id": 738815214, "name": "94 Võ Thị Sáu", "index_right": 43, "district": "Phường Bạch Mai" }, "geometry": { "type": "Point", "coordinates": [ 105.8549237, 21.003678 ] } },
{ "type": "Feature", "properties": { "id": 7821883015, "name": "Ngân hàng Công thương khu vực Hai Bà Trưng - 285 Trần Khát Chân", "index_right": 43, "district": "Phường Bạch Mai" }, "geometry": { "type": "Point", "coordinates": [ 105.8591684, 21.0089365 ] } },
{ "type": "Feature", "properties": { "id": 8213181379, "name": "86 Kim Ngưu", "index_right": 43, "district": "Phường Bạch Mai" }, "geometry": { "type": "Point", "coordinates": [ 105.8608368, 21.0067892 ] } },
{ "type": "Feature", "properties": { "id": 8757875250, "name": "Đại học Kinh tế Quốc dân", "index_right": 43, "district": "Phường Bạch Mai" }, "geometry": { "type": "Point", "coordinates": [ 105.845379, 20.9995092 ] } },
{ "type": "Feature", "properties": { "id": 8757875251, "name": "106 Trần Đại Nghĩa", "index_right": 43, "district": "Phường Bạch Mai" }, "geometry": { "type": "Point", "coordinates": [ 105.8458283, 20.9975693 ] } },
{ "type": "Feature", "properties": { "id": 8757875257, "name": "263 Thanh Nhàn", "index_right": 43, "district": "Phường Bạch Mai" }, "geometry": { "type": "Point", "coordinates": [ 105.8528188, 21.002933 ] } },
{ "type": "Feature", "properties": { "id": 8766627164, "name": "Đại học Bách Khoa", "index_right": 43, "district": "Phường Bạch Mai" }, "geometry": { "type": "Point", "coordinates": [ 105.8450354, 21.0067276 ] } },
{ "type": "Feature", "properties": { "id": 8766627165, "name": "Sân vận động Bách Khoa - Lê Thanh Nghị", "index_right": 43, "district": "Phường Bạch Mai" }, "geometry": { "type": "Point", "coordinates": [ 105.8476142, 21.0028351 ] } },
{ "type": "Feature", "properties": { "id": 8822946815, "name": "Đối diện B13 Ký Túc Xá Bách Khoa", "index_right": 43, "district": "Phường Bạch Mai" }, "geometry": { "type": "Point", "coordinates": [ 105.8472342, 21.0064649 ] } },
{ "type": "Feature", "properties": { "id": 8835043631, "name": "199 Minh Khai", "index_right": 43, "district": "Phường Bạch Mai" }, "geometry": { "type": "Point", "coordinates": [ 105.8602619, 20.9958742 ] } },
{ "type": "Feature", "properties": { "id": 8835043632, "name": "161 Minh Khai", "index_right": 43, "district": "Phường Bạch Mai" }, "geometry": { "type": "Point", "coordinates": [ 105.8551163, 20.9955805 ] } },
{ "type": "Feature", "properties": { "id": 8895558432, "name": "Gần cổng Parabol ĐH Bách Khoa - 17 Giải Phóng (cột sau)", "index_right": 43, "district": "Phường Bạch Mai" }, "geometry": { "type": "Point", "coordinates": [ 105.8415719, 21.0049501 ] } },
{ "type": "Feature", "properties": { "id": 8895558476, "name": "Tập thể A10 - 128C Đại La", "index_right": 43, "district": "Phường Bạch Mai" }, "geometry": { "type": "Point", "coordinates": [ 105.8438605, 20.9974108 ] } },
{ "type": "Feature", "properties": { "id": 8919736461, "name": "Ký túc xá Đại học Xây dựng", "index_right": 43, "district": "Phường Bạch Mai" }, "geometry": { "type": "Point", "coordinates": [ 105.8453205, 20.9996923 ] } },
{ "type": "Feature", "properties": { "id": 8919736462, "name": "Tường rào Đại học KTQD - Trần Đại Nghĩa", "index_right": 43, "district": "Phường Bạch Mai" }, "geometry": { "type": "Point", "coordinates": [ 105.8454253, 20.99993 ] } },
{ "type": "Feature", "properties": { "id": 8990709060, "name": "368-370 Bạch Mai", "index_right": 43, "district": "Phường Bạch Mai" }, "geometry": { "type": "Point", "coordinates": [ 105.8504387, 21.0002007 ] } },
{ "type": "Feature", "properties": { "id": 10036774718, "name": "Cổng Parabol Đại học Bách Khoa (cột trước)", "index_right": 43, "district": "Phường Bạch Mai" }, "geometry": { "type": "Point", "coordinates": [ 105.841557, 21.0045057 ] } }
]
}
