{
"type": "FeatureCollection",
"name": "Phường_Từ_Liêm",
"crs": { "type": "name", "properties": { "name": "urn:ogc:def:crs:OGC:1.3:CRS84" } },
"features": [
{ "type": "Feature", "properties": { "id": 738815378, "name": "Đại học Thương Mại - Hồ Tùng Mậu (cột sau)", "index_right": 77, "district": "Phường Từ Liêm" }, "geometry": { "type": "Point", "coordinates": [ 105.7746343, 21.0374295 ] } },
{ "type": "Feature", "properties": { "id": 1803529399, "name": "Không tên", "index_right": 77, "district": "Phường Từ Liêm" }, "geometry": { "type": "Point", "coordinates": [ 105.7813493, 21.0180389 ] } },
{ "type": "Feature", "properties": { "id": 2545040560, "name": "Số 9 Hồ Tùng Mậu", "index_right": 77, "district": "Phường Từ Liêm" }, "geometry": { "type": "Point", "coordinates": [ 105.7782926, 21.0364617 ] } },
{ "type": "Feature", "properties": { "id": 2545040669, "name": "Ga Lê Đức Thọ", "index_right": 77, "district": "Phường Từ Liêm" }, "geometry": { "type": "Point", "coordinates": [ 105.7729172, 21.037931 ] } },
{ "type": "Feature", "properties": { "id": 6695986187, "name": "Bến xe Mỹ Đình", "index_right": 77, "district": "Phường Từ Liêm" }, "geometry": { "type": "Point", "coordinates": [ 105.7784787, 21.0280235 ] } },
{ "type": "Feature", "properties": { "id": 7298159285, "name": "Bệnh viện Đa khoa Y học cổ truyền - 6 Phạm Hùng", "index_right": 77, "district": "Phường Từ Liêm" }, "geometry": { "type": "Point", "coordinates": [ 105.779948, 21.0344635 ] } },
{ "type": "Feature", "properties": { "id": 7622858412, "name": "Gần ngã 3 Phạm Hùng - Đình Thôn (Hướng đi Khuất Duy Tiến) - cột trước", "index_right": 77, "district": "Phường Từ Liêm" }, "geometry": { "type": "Point", "coordinates": [ 105.778479, 21.0233044 ] } },
{ "type": "Feature", "properties": { "id": 7622858413, "name": "Nhà CT5 KĐT Sông Đà Mỹ Đình - Phạm Hùng", "index_right": 77, "district": "Phường Từ Liêm" }, "geometry": { "type": "Point", "coordinates": [ 105.7811606, 21.0185147 ] } },
{ "type": "Feature", "properties": { "id": 8236303317, "name": "Cục Đăng Kiểm Việt Nam - đường Nguyễn Hoàng", "index_right": 77, "district": "Phường Từ Liêm" }, "geometry": { "type": "Point", "coordinates": [ 105.7781313, 21.0291096 ] } },
{ "type": "Feature", "properties": { "id": 8237141695, "name": "4 Hàm Nghi", "index_right": 77, "district": "Phường Từ Liêm" }, "geometry": { "type": "Point", "coordinates": [ 105.7668633, 21.03437 ] } },
{ "type": "Feature", "properties": { "id": 8237141705, "name": "36 Nguyễn Hoàng", "index_right": 77, "district": "Phường Từ Liêm" }, "geometry": { "type": "Point", "coordinates": [ 105.7747548, 21.0309187 ] } },
{ "type": "Feature", "properties": { "id": 8237141707, "name": "Vịnh xén hè xe buýt trước tòa nhà Sun Square - đường Nguyễn Hoàng", "index_right": 77, "district": "Phường Từ Liêm" }, "geometry": { "type": "Point", "coordinates": [ 105.7705327, 21.0333764 ] } },
{ "type": "Feature", "properties": { "id": 8755733273, "name": "Nhà ga Cầu Diễn - Hồ Tùng Mậu", "index_right": 77, "district": "Phường Từ Liêm" }, "geometry": { "type": "Point", "coordinates": [ 105.7626217, 21.0410196 ] } },
{ "type": "Feature", "properties": { "id": 8755733274, "name": "Hè trước Đơn nguyên 2 KTX Mỹ Đình - đường Hàm Nghi", "index_right": 77, "district": "Phường Từ Liêm" }, "geometry": { "type": "Point", "coordinates": [ 105.7669556, 21.0340674 ] } },
{ "type": "Feature", "properties": { "id": 8755733275, "name": "Vịnh xén hè xe buýt đối diện tòa nhà Sun Square - đường Nguyễn Hoàng", "index_right": 77, "district": "Phường Từ Liêm" }, "geometry": { "type": "Point", "coordinates": [ 105.7707679, 21.0330928 ] } },
{ "type": "Feature", "properties": { "id": 8755733276, "name": "Vịnh xén hè xe buýt đối diện tòa nhà PT2 - KĐT Phú Mỹ - đường Nguyễn Hoàng", "index_right": 77, "district": "Phường Từ Liêm" }, "geometry": { "type": "Point", "coordinates": [ 105.7745318, 21.0307316 ] } },
{ "type": "Feature", "properties": { "id": 8755733277, "name": "Trước 100m ngã 4 Nguyễn Hoàng - Phạm Hùng (đối diện công ty CP Sông Đà 9)", "index_right": 77, "district": "Phường Từ Liêm" }, "geometry": { "type": "Point", "coordinates": [ 105.7771665, 21.0289891 ] } },
{ "type": "Feature", "properties": { "id": 8766627155, "name": "Đối diện Đài truyền hình Công an nhân dân", "index_right": 77, "district": "Phường Từ Liêm" }, "geometry": { "type": "Point", "coordinates": [ 105.7712678, 21.0371699 ] } },
{ "type": "Feature", "properties": { "id": 8766627156, "name": "Nhà CT2B Khu đô thị Mỹ Đình", "index_right": 77, "district": "Phường Từ Liêm" }, "geometry": { "type": "Point", "coordinates": [ 105.7692653, 21.0319236 ] } },
{ "type": "Feature", "properties": { "id": 8766627157, "name": "Cung Điền kinh Mỹ Đình", "index_right": 77, "district": "Phường Từ Liêm" }, "geometry": { "type": "Point", "coordinates": [ 105.7635086, 21.0280177 ] } },
{ "type": "Feature", "properties": { "id": 8766627159, "name": "Trung tâm Huấn luyện và Thi đấu Thể dục thể thao", "index_right": 77, "district": "Phường Từ Liêm" }, "geometry": { "type": "Point", "coordinates": [ 105.7639337, 21.0282849 ] } },
{ "type": "Feature", "properties": { "id": 8766627160, "name": "Đối diện nhà CT2B Khu đô thị Mỹ Đình", "index_right": 77, "district": "Phường Từ Liêm" }, "geometry": { "type": "Point", "coordinates": [ 105.7694815, 21.0312826 ] } },
{ "type": "Feature", "properties": { "id": 8766627161, "name": "Đối diện Trung ương Hội Kế hoạch hóa Gia đình Việt Nam", "index_right": 77, "district": "Phường Từ Liêm" }, "geometry": { "type": "Point", "coordinates": [ 105.7709719, 21.0359486 ] } },
{ "type": "Feature", "properties": { "id": 8808907343, "name": "Gần ngã tư Phạm Hùng - Đình Thôn (cột sau)", "index_right": 77, "district": "Phường Từ Liêm" }, "geometry": { "type": "Point", "coordinates": [ 105.7785171, 21.0229637 ] } },
{ "type": "Feature", "properties": { "id": 8808907344, "name": "Nhà hàng Hàn Quốc, nhà CT4 ĐN KĐT Mỹ Đình", "index_right": 77, "district": "Phường Từ Liêm" }, "geometry": { "type": "Point", "coordinates": [ 105.780491, 21.016654 ] } },
{ "type": "Feature", "properties": { "id": 8808907345, "name": "Tường rào Trạm y tế Mễ Trì", "index_right": 77, "district": "Phường Từ Liêm" }, "geometry": { "type": "Point", "coordinates": [ 105.7746064, 21.012478 ] } },
{ "type": "Feature", "properties": { "id": 8808913251, "name": "Công ty điện lực Nam Từ Liêm", "index_right": 77, "district": "Phường Từ Liêm" }, "geometry": { "type": "Point", "coordinates": [ 105.7761084, 21.0131083 ] } },
{ "type": "Feature", "properties": { "id": 8808913252, "name": "Ngã 3 Phạm Hùng - Mễ Trì", "index_right": 77, "district": "Phường Từ Liêm" }, "geometry": { "type": "Point", "coordinates": [ 105.7809401, 21.0165238 ] } },
{ "type": "Feature", "properties": { "id": 8813408803, "name": "Đối diện Bưu cục Thăng Long", "index_right": 77, "district": "Phường Từ Liêm" }, "geometry": { "type": "Point", "coordinates": [ 105.7794098, 21.031213 ] } },
{ "type": "Feature", "properties": { "id": 8829926853, "name": "Nhà CT5-D KĐT Mỹ Đình - Phạm Hùng", "index_right": 77, "district": "Phường Từ Liêm" }, "geometry": { "type": "Point", "coordinates": [ 105.7842269, 21.0147059 ] } },
{ "type": "Feature", "properties": { "id": 8829926854, "name": "Bảo tàng Hà Nội - Phạm Hùng", "index_right": 77, "district": "Phường Từ Liêm" }, "geometry": { "type": "Point", "coordinates": [ 105.7870371, 21.0112675 ] } },
{ "type": "Feature", "properties": { "id": 8829926855, "name": "Ngã 4 Phạm Hùng - Khuất Duy Tiến (Trung tâm Hội nghị Quốc gia)", "index_right": 77, "district": "Phường Từ Liêm" }, "geometry": { "type": "Point", "coordinates": [ 105.7906559, 21.0067809 ] } },
{ "type": "Feature", "properties": { "id": 8838269688, "name": "Trường THCS-THPT Trần Quốc Tuấn", "index_right": 77, "district": "Phường Từ Liêm" }, "geometry": { "type": "Point", "coordinates": [ 105.7720413, 21.0252526 ] } },
{ "type": "Feature", "properties": { "id": 8838269689, "name": "Đối diện đường vào Trường Cao đẳng nghề Trần Hưng Đạo", "index_right": 77, "district": "Phường Từ Liêm" }, "geometry": { "type": "Point", "coordinates": [ 105.7671188, 21.0255251 ] } },
{ "type": "Feature", "properties": { "id": 8838269690, "name": "Bãi đỗ xe Sân vận động Mỹ Đình", "index_right": 77, "district": "Phường Từ Liêm" }, "geometry": { "type": "Point", "coordinates": [ 105.7673903, 21.019516 ] } },
{ "type": "Feature", "properties": { "id": 8840893877, "name": "Đường vào Trường Cao đẳng nghề Trần Hưng Đạo", "index_right": 77, "district": "Phường Từ Liêm" }, "geometry": { "type": "Point", "coordinates": [ 105.7677136, 21.0251558 ] } },
{ "type": "Feature", "properties": { "id": 8840893878, "name": "Đối diện THCS-THPT Trần Quốc Tuấn", "index_right": 77, "district": "Phường Từ Liêm" }, "geometry": { "type": "Point", "coordinates": [ 105.7715748, 21.0251662 ] } },
{ "type": "Feature", "properties": { "id": 8865361291, "name": "Đối diện nhà C6 Khu đô thị Mỹ Đình I", "index_right": 77, "district": "Phường Từ Liêm" }, "geometry": { "type": "Point", "coordinates": [ 105.7622356, 21.0295533 ] } },
{ "type": "Feature", "properties": { "id": 8865361292, "name": "Đối diện nhà CT5-ĐN1 Khu đô thị Mỹ Đình 1", "index_right": 77, "district": "Phường Từ Liêm" }, "geometry": { "type": "Point", "coordinates": [ 105.7658902, 21.028458 ] } },
{ "type": "Feature", "properties": { "id": 8865361307, "name": "Nhà CT5-ĐN1 Khu đô thị Mỹ Đình 1", "index_right": 77, "district": "Phường Từ Liêm" }, "geometry": { "type": "Point", "coordinates": [ 105.7659283, 21.0288569 ] } },
{ "type": "Feature", "properties": { "id": 8865361308, "name": "Nhà C6 Khu đô thị Mỹ Đình I", "index_right": 77, "district": "Phường Từ Liêm" }, "geometry": { "type": "Point", "coordinates": [ 105.7623291, 21.0299568 ] } },
{ "type": "Feature", "properties": { "id": 8903312053, "name": "Gần cổng làng Phú Đô", "index_right": 77, "district": "Phường Từ Liêm" }, "geometry": { "type": "Point", "coordinates": [ 105.7676967, 21.0074213 ] } },
{ "type": "Feature", "properties": { "id": 8923111207, "name": "Khoảng Xén Hè Chung Cư A1- Ngân hàng Vietcombank - Nguyễn Cơ Thạch", "index_right": 77, "district": "Phường Từ Liêm" }, "geometry": { "type": "Point", "coordinates": [ 105.7663758, 21.0362536 ] } },
{ "type": "Feature", "properties": { "id": 8923111208, "name": "Khu đô thị Mỹ Đình II", "index_right": 77, "district": "Phường Từ Liêm" }, "geometry": { "type": "Point", "coordinates": [ 105.7652128, 21.0328829 ] } },
{ "type": "Feature", "properties": { "id": 8925798720, "name": "Ký túc xá - Khu đô thị Mỹ Đình II", "index_right": 77, "district": "Phường Từ Liêm" }, "geometry": { "type": "Point", "coordinates": [ 105.765444, 21.0326702 ] } },
{ "type": "Feature", "properties": { "id": 8925798721, "name": "Đối diện Vietcombank - Chung cư A1", "index_right": 77, "district": "Phường Từ Liêm" }, "geometry": { "type": "Point", "coordinates": [ 105.7666821, 21.0361896 ] } },
{ "type": "Feature", "properties": { "id": 8943684247, "name": "Nhà số 3 lô A đường Đỗ Đức Dục", "index_right": 77, "district": "Phường Từ Liêm" }, "geometry": { "type": "Point", "coordinates": [ 105.7831263, 21.0091683 ] } },
{ "type": "Feature", "properties": { "id": 8943684248, "name": "Đối diện số nhà 3 lô A đường Đỗ Đức Dục", "index_right": 77, "district": "Phường Từ Liêm" }, "geometry": { "type": "Point", "coordinates": [ 105.7831959, 21.0090129 ] } },
{ "type": "Feature", "properties": { "id": 8943684249, "name": "38 Miếu Đầm - Đền Thánh Mẫu", "index_right": 77, "district": "Phường Từ Liêm" }, "geometry": { "type": "Point", "coordinates": [ 105.7818736, 21.0068412 ] } },
{ "type": "Feature", "properties": { "id": 8943684250, "name": "Đối diện số 42 đường Miếu Đầm", "index_right": 77, "district": "Phường Từ Liêm" }, "geometry": { "type": "Point", "coordinates": [ 105.7823202, 21.0066367 ] } },
{ "type": "Feature", "properties": { "id": 8945948098, "name": "Tường rào sân Golf Mỹ Đình Pearl", "index_right": 77, "district": "Phường Từ Liêm" }, "geometry": { "type": "Point", "coordinates": [ 105.7700225, 21.0057395 ] } },
{ "type": "Feature", "properties": { "id": 9013469842, "name": "Ngã 3 Miếu Đầm - Đại lộ Thăng Long", "index_right": 77, "district": "Phường Từ Liêm" }, "geometry": { "type": "Point", "coordinates": [ 105.7807903, 21.0031931 ] } },
{ "type": "Feature", "properties": { "id": 9013469843, "name": "Nhà CT3A Khu đô thị Mễ Trì Thượng", "index_right": 77, "district": "Phường Từ Liêm" }, "geometry": { "type": "Point", "coordinates": [ 105.7758679, 21.0045091 ] } },
{ "type": "Feature", "properties": { "id": 9310230584, "name": "Điểm đỗ xe buýt Cầu Diễn", "index_right": 77, "district": "Phường Từ Liêm" }, "geometry": { "type": "Point", "coordinates": [ 105.7597718, 21.0374744 ] } },
{ "type": "Feature", "properties": { "id": 9310230586, "name": "Trước ngã ba Nguyễn Đồng Chi, Hàm Nghi 100m", "index_right": 77, "district": "Phường Từ Liêm" }, "geometry": { "type": "Point", "coordinates": [ 105.7645225, 21.0348769 ] } },
{ "type": "Feature", "properties": { "id": 9310230587, "name": "Qua ngã 3 Nguyễn Đồng Chi, Hàm Nghi 50m", "index_right": 77, "district": "Phường Từ Liêm" }, "geometry": { "type": "Point", "coordinates": [ 105.7643314, 21.0351789 ] } },
{ "type": "Feature", "properties": { "id": 9342635852, "name": "Qua UBND phường Mỹ Đình 1", "index_right": 77, "district": "Phường Từ Liêm" }, "geometry": { "type": "Point", "coordinates": [ 105.7733102, 21.0266107 ] } },
{ "type": "Feature", "properties": { "id": 9342635853, "name": "Trường Tiểu học Mỹ Đình 2", "index_right": 77, "district": "Phường Từ Liêm" }, "geometry": { "type": "Point", "coordinates": [ 105.7739099, 21.0271705 ] } },
{ "type": "Feature", "properties": { "id": 9342635877, "name": "Qua UBND phường Mỹ Đình 1", "index_right": 77, "district": "Phường Từ Liêm" }, "geometry": { "type": "Point", "coordinates": [ 105.7731948, 21.02664 ] } },
{ "type": "Feature", "properties": { "id": 11516291185, "name": "UBND phường Từ Liêm", "index_right": 77, "district": "Phường Từ Liêm" }, "geometry": { "type": "Point", "coordinates": [ 105.7660669, 21.0398964 ] } },
{ "type": "Feature", "properties": { "id": 11527164034, "name": "Đối diện Trường THCS Phú Đô", "index_right": 77, "district": "Phường Từ Liêm" }, "geometry": { "type": "Point", "coordinates": [ 105.7707831, 21.0129814 ] } },
{ "type": "Feature", "properties": { "id": 11527354911, "name": "Sân vận động quốc gia Mỹ Đình", "index_right": 77, "district": "Phường Từ Liêm" }, "geometry": { "type": "Point", "coordinates": [ 105.7658668, 21.0197682 ] } },
{ "type": "Feature", "properties": { "id": 11527354912, "name": "Trường THCS Phú Đô", "index_right": 77, "district": "Phường Từ Liêm" }, "geometry": { "type": "Point", "coordinates": [ 105.7702769, 21.012914 ] } },
{ "type": "Feature", "properties": { "id": 11528457067, "name": "Mỹ Đình - Tuyến 56A, 104", "index_right": 77, "district": "Phường Từ Liêm" }, "geometry": { "type": "Point", "coordinates": [ 105.7623351, 21.0220027 ] } },
{ "type": "Feature", "properties": { "id": 11553653862, "name": "Cổng làng Phú Đô", "index_right": 77, "district": "Phường Từ Liêm" }, "geometry": { "type": "Point", "coordinates": [ 105.7704074, 21.0090344 ] } },
{ "type": "Feature", "properties": { "id": 11846781674, "name": "Không tên", "index_right": 77, "district": "Phường Từ Liêm" }, "geometry": { "type": "Point", "coordinates": [ 105.7758997, 21.029525 ] } },
{ "type": "Feature", "properties": { "id": 11846802869, "name": "Không tên", "index_right": 77, "district": "Phường Từ Liêm" }, "geometry": { "type": "Point", "coordinates": [ 105.7728066, 21.0328214 ] } },
{ "type": "Feature", "properties": { "id": 11846838569, "name": "Không tên", "index_right": 77, "district": "Phường Từ Liêm" }, "geometry": { "type": "Point", "coordinates": [ 105.7622463, 21.0357764 ] } }
]
}
