{
"type": "FeatureCollection",
"name": "Phường_Định_Công",
"crs": { "type": "name", "properties": { "name": "urn:ogc:def:crs:OGC:1.3:CRS84" } },
"features": [
{ "type": "Feature", "properties": { "id": 738813337, "name": "Ga Giáp Bát - Đối diện 1035 Giải Phóng", "index_right": 57, "district": "Phường Định Công" }, "geometry": { "type": "Point", "coordinates": [ 105.8407699, 20.9763184 ] } },
{ "type": "Feature", "properties": { "id": 738813337, "name": "Ga Giáp Bát - Đối diện 1035 Giải Phóng", "index_right": 58, "district": "Phường Định Công" }, "geometry": { "type": "Point", "coordinates": [ 105.8407699, 20.9763184 ] } },
{ "type": "Feature", "properties": { "id": 738813608, "name": "45 - Ngõ 2 Định Công Thượng", "index_right": 57, "district": "Phường Định Công" }, "geometry": { "type": "Point", "coordinates": [ 105.8202211, 20.9800591 ] } },
{ "type": "Feature", "properties": { "id": 738813608, "name": "45 - Ngõ 2 Định Công Thượng", "index_right": 58, "district": "Phường Định Công" }, "geometry": { "type": "Point", "coordinates": [ 105.8202211, 20.9800591 ] } },
{ "type": "Feature", "properties": { "id": 738813734, "name": "Đối diện 222 Kim Giang", "index_right": 57, "district": "Phường Định Công" }, "geometry": { "type": "Point", "coordinates": [ 105.820171, 20.9795443 ] } },
{ "type": "Feature", "properties": { "id": 738813734, "name": "Đối diện 222 Kim Giang", "index_right": 58, "district": "Phường Định Công" }, "geometry": { "type": "Point", "coordinates": [ 105.820171, 20.9795443 ] } },
{ "type": "Feature", "properties": { "id": 738814324, "name": "Đối diện Bến xe Giáp Bát - Giải Phóng", "index_right": 57, "district": "Phường Định Công" }, "geometry": { "type": "Point", "coordinates": [ 105.840843, 20.9796615 ] } },
{ "type": "Feature", "properties": { "id": 738814324, "name": "Đối diện Bến xe Giáp Bát - Giải Phóng", "index_right": 58, "district": "Phường Định Công" }, "geometry": { "type": "Point", "coordinates": [ 105.840843, 20.9796615 ] } },
{ "type": "Feature", "properties": { "id": 738814333, "name": "Đối diện cổng phụ Bệnh viện đa khoa y học cổ truyền", "index_right": 57, "district": "Phường Định Công" }, "geometry": { "type": "Point", "coordinates": [ 105.8248002, 20.9728461 ] } },
{ "type": "Feature", "properties": { "id": 738814333, "name": "Đối diện cổng phụ Bệnh viện đa khoa y học cổ truyền", "index_right": 58, "district": "Phường Định Công" }, "geometry": { "type": "Point", "coordinates": [ 105.8248002, 20.9728461 ] } },
{ "type": "Feature", "properties": { "id": 738814832, "name": "Đối diện đài tưởng niệm chủ tịch HCM - đường Nguyễn Hữu Thọ", "index_right": 57, "district": "Phường Định Công" }, "geometry": { "type": "Point", "coordinates": [ 105.8309754, 20.9696069 ] } },
{ "type": "Feature", "properties": { "id": 738814832, "name": "Đối diện đài tưởng niệm chủ tịch HCM - đường Nguyễn Hữu Thọ", "index_right": 58, "district": "Phường Định Công" }, "geometry": { "type": "Point", "coordinates": [ 105.8309754, 20.9696069 ] } },
{ "type": "Feature", "properties": { "id": 738814966, "name": "Điểm xén hè (Cửa hàng xăng dầu số 75) - Số 6 Cầu Dậu", "index_right": 57, "district": "Phường Định Công" }, "geometry": { "type": "Point", "coordinates": [ 105.8260889, 20.9700569 ] } },
{ "type": "Feature", "properties": { "id": 738814966, "name": "Điểm xén hè (Cửa hàng xăng dầu số 75) - Số 6 Cầu Dậu", "index_right": 58, "district": "Phường Định Công" }, "geometry": { "type": "Point", "coordinates": [ 105.8260889, 20.9700569 ] } },
{ "type": "Feature", "properties": { "id": 4421384524, "name": "Đối diện 1251 Giải Phóng", "index_right": 57, "district": "Phường Định Công" }, "geometry": { "type": "Point", "coordinates": [ 105.8407945, 20.9718087 ] } },
{ "type": "Feature", "properties": { "id": 4421384524, "name": "Đối diện 1251 Giải Phóng", "index_right": 58, "district": "Phường Định Công" }, "geometry": { "type": "Point", "coordinates": [ 105.8407945, 20.9718087 ] } },
{ "type": "Feature", "properties": { "id": 8236303286, "name": "Điểm xén hè (Toà nhà CT2 - KĐT Bắc Linh Đàm) - Cầu Dậu", "index_right": 57, "district": "Phường Định Công" }, "geometry": { "type": "Point", "coordinates": [ 105.8263152, 20.9705052 ] } },
{ "type": "Feature", "properties": { "id": 8236303286, "name": "Điểm xén hè (Toà nhà CT2 - KĐT Bắc Linh Đàm) - Cầu Dậu", "index_right": 58, "district": "Phường Định Công" }, "geometry": { "type": "Point", "coordinates": [ 105.8263152, 20.9705052 ] } },
{ "type": "Feature", "properties": { "id": 8236303325, "name": "Đối diện trường Tiểu học - THCS Đại Kim", "index_right": 57, "district": "Phường Định Công" }, "geometry": { "type": "Point", "coordinates": [ 105.8223141, 20.9786341 ] } },
{ "type": "Feature", "properties": { "id": 8236303325, "name": "Đối diện trường Tiểu học - THCS Đại Kim", "index_right": 58, "district": "Phường Định Công" }, "geometry": { "type": "Point", "coordinates": [ 105.8223141, 20.9786341 ] } },
{ "type": "Feature", "properties": { "id": 8755733287, "name": "214 Kim Giang", "index_right": 57, "district": "Phường Định Công" }, "geometry": { "type": "Point", "coordinates": [ 105.8200483, 20.979502 ] } },
{ "type": "Feature", "properties": { "id": 8755733287, "name": "214 Kim Giang", "index_right": 58, "district": "Phường Định Công" }, "geometry": { "type": "Point", "coordinates": [ 105.8200483, 20.979502 ] } },
{ "type": "Feature", "properties": { "id": 8755733288, "name": "292 Kim Giang", "index_right": 57, "district": "Phường Định Công" }, "geometry": { "type": "Point", "coordinates": [ 105.8232493, 20.9779591 ] } },
{ "type": "Feature", "properties": { "id": 8755733288, "name": "292 Kim Giang", "index_right": 58, "district": "Phường Định Công" }, "geometry": { "type": "Point", "coordinates": [ 105.8232493, 20.9779591 ] } },
{ "type": "Feature", "properties": { "id": 8755733289, "name": "Cách cổng Bệnh viện Đa khoa Y học cổ truyền 50m", "index_right": 57, "district": "Phường Định Công" }, "geometry": { "type": "Point", "coordinates": [ 105.8245777, 20.9722636 ] } },
{ "type": "Feature", "properties": { "id": 8755733289, "name": "Cách cổng Bệnh viện Đa khoa Y học cổ truyền 50m", "index_right": 58, "district": "Phường Định Công" }, "geometry": { "type": "Point", "coordinates": [ 105.8245777, 20.9722636 ] } },
{ "type": "Feature", "properties": { "id": 8821681975, "name": "Gần đường vào KĐT Đại Kim - 45 Nguyễn Hữu Thọ", "index_right": 57, "district": "Phường Định Công" }, "geometry": { "type": "Point", "coordinates": [ 105.8362217, 20.9709703 ] } },
{ "type": "Feature", "properties": { "id": 8821681975, "name": "Gần đường vào KĐT Đại Kim - 45 Nguyễn Hữu Thọ", "index_right": 58, "district": "Phường Định Công" }, "geometry": { "type": "Point", "coordinates": [ 105.8362217, 20.9709703 ] } },
{ "type": "Feature", "properties": { "id": 8833029015, "name": "Chung Cư Đại Kim", "index_right": 57, "district": "Phường Định Công" }, "geometry": { "type": "Point", "coordinates": [ 105.8254444, 20.9748599 ] } },
{ "type": "Feature", "properties": { "id": 8833029015, "name": "Chung Cư Đại Kim", "index_right": 58, "district": "Phường Định Công" }, "geometry": { "type": "Point", "coordinates": [ 105.8254444, 20.9748599 ] } },
{ "type": "Feature", "properties": { "id": 8833029016, "name": "Chung Cư Đại Kim", "index_right": 57, "district": "Phường Định Công" }, "geometry": { "type": "Point", "coordinates": [ 105.8253652, 20.9747709 ] } },
{ "type": "Feature", "properties": { "id": 8833029016, "name": "Chung Cư Đại Kim", "index_right": 58, "district": "Phường Định Công" }, "geometry": { "type": "Point", "coordinates": [ 105.8253652, 20.9747709 ] } },
{ "type": "Feature", "properties": { "id": 8833070417, "name": "33 - Ngõ 2 Định Công Thượng", "index_right": 57, "district": "Phường Định Công" }, "geometry": { "type": "Point", "coordinates": [ 105.8200857, 20.9800303 ] } },
{ "type": "Feature", "properties": { "id": 8833070417, "name": "33 - Ngõ 2 Định Công Thượng", "index_right": 58, "district": "Phường Định Công" }, "geometry": { "type": "Point", "coordinates": [ 105.8200857, 20.9800303 ] } },
{ "type": "Feature", "properties": { "id": 8838269677, "name": "72 Đặng Xuân Bảng", "index_right": 57, "district": "Phường Định Công" }, "geometry": { "type": "Point", "coordinates": [ 105.829567, 20.9717414 ] } },
{ "type": "Feature", "properties": { "id": 8838269677, "name": "72 Đặng Xuân Bảng", "index_right": 58, "district": "Phường Định Công" }, "geometry": { "type": "Point", "coordinates": [ 105.829567, 20.9717414 ] } },
{ "type": "Feature", "properties": { "id": 8840893888, "name": "71 Đặng Xuân Bảng", "index_right": 57, "district": "Phường Định Công" }, "geometry": { "type": "Point", "coordinates": [ 105.82921, 20.9721523 ] } },
{ "type": "Feature", "properties": { "id": 8840893888, "name": "71 Đặng Xuân Bảng", "index_right": 58, "district": "Phường Định Công" }, "geometry": { "type": "Point", "coordinates": [ 105.82921, 20.9721523 ] } },
{ "type": "Feature", "properties": { "id": 8845983480, "name": "KĐT Kim Văn-Kim Lũ", "index_right": 57, "district": "Phường Định Công" }, "geometry": { "type": "Point", "coordinates": [ 105.8205596, 20.9723334 ] } },
{ "type": "Feature", "properties": { "id": 8845983480, "name": "KĐT Kim Văn-Kim Lũ", "index_right": 58, "district": "Phường Định Công" }, "geometry": { "type": "Point", "coordinates": [ 105.8205596, 20.9723334 ] } },
{ "type": "Feature", "properties": { "id": 8845983481, "name": "Trường Đại học Thăng Long", "index_right": 57, "district": "Phường Định Công" }, "geometry": { "type": "Point", "coordinates": [ 105.8147296, 20.9763966 ] } },
{ "type": "Feature", "properties": { "id": 8845983481, "name": "Trường Đại học Thăng Long", "index_right": 58, "district": "Phường Định Công" }, "geometry": { "type": "Point", "coordinates": [ 105.8147296, 20.9763966 ] } },
{ "type": "Feature", "properties": { "id": 8846689644, "name": "Hầm đường bộ số 3 - Nghiêm Xuân Yêm", "index_right": 57, "district": "Phường Định Công" }, "geometry": { "type": "Point", "coordinates": [ 105.8117924, 20.9794411 ] } },
{ "type": "Feature", "properties": { "id": 8846689644, "name": "Hầm đường bộ số 3 - Nghiêm Xuân Yêm", "index_right": 58, "district": "Phường Định Công" }, "geometry": { "type": "Point", "coordinates": [ 105.8117924, 20.9794411 ] } },
{ "type": "Feature", "properties": { "id": 8846689645, "name": "Trường Đại học Thăng Long", "index_right": 57, "district": "Phường Định Công" }, "geometry": { "type": "Point", "coordinates": [ 105.8145548, 20.9757405 ] } },
{ "type": "Feature", "properties": { "id": 8846689645, "name": "Trường Đại học Thăng Long", "index_right": 58, "district": "Phường Định Công" }, "geometry": { "type": "Point", "coordinates": [ 105.8145548, 20.9757405 ] } },
{ "type": "Feature", "properties": { "id": 8846689646, "name": "Trung tâm Huấn luyện và Thi đấu Thể thao Công an nhân dân", "index_right": 57, "district": "Phường Định Công" }, "geometry": { "type": "Point", "coordinates": [ 105.8210567, 20.9716541 ] } },
{ "type": "Feature", "properties": { "id": 8846689646, "name": "Trung tâm Huấn luyện và Thi đấu Thể thao Công an nhân dân", "index_right": 58, "district": "Phường Định Công" }, "geometry": { "type": "Point", "coordinates": [ 105.8210567, 20.9716541 ] } },
{ "type": "Feature", "properties": { "id": 9342635867, "name": "Qua cầu Định Công 50m", "index_right": 57, "district": "Phường Định Công" }, "geometry": { "type": "Point", "coordinates": [ 105.8350422, 20.9822025 ] } },
{ "type": "Feature", "properties": { "id": 9342635867, "name": "Qua cầu Định Công 50m", "index_right": 58, "district": "Phường Định Công" }, "geometry": { "type": "Point", "coordinates": [ 105.8350422, 20.9822025 ] } },
{ "type": "Feature", "properties": { "id": 9342635868, "name": "Trước cầu Định Công 50m", "index_right": 57, "district": "Phường Định Công" }, "geometry": { "type": "Point", "coordinates": [ 105.8352515, 20.9818958 ] } },
{ "type": "Feature", "properties": { "id": 9342635868, "name": "Trước cầu Định Công 50m", "index_right": 58, "district": "Phường Định Công" }, "geometry": { "type": "Point", "coordinates": [ 105.8352515, 20.9818958 ] } },
{ "type": "Feature", "properties": { "id": 9342635869, "name": "Nhà A5 Đại Kim", "index_right": 57, "district": "Phường Định Công" }, "geometry": { "type": "Point", "coordinates": [ 105.8358492, 20.9760772 ] } },
{ "type": "Feature", "properties": { "id": 9342635869, "name": "Nhà A5 Đại Kim", "index_right": 58, "district": "Phường Định Công" }, "geometry": { "type": "Point", "coordinates": [ 105.8358492, 20.9760772 ] } },
{ "type": "Feature", "properties": { "id": 9342635870, "name": "Nhà A5 Đại Kim", "index_right": 57, "district": "Phường Định Công" }, "geometry": { "type": "Point", "coordinates": [ 105.8360635, 20.9769359 ] } },
{ "type": "Feature", "properties": { "id": 9342635870, "name": "Nhà A5 Đại Kim", "index_right": 58, "district": "Phường Định Công" }, "geometry": { "type": "Point", "coordinates": [ 105.8360635, 20.9769359 ] } },
{ "type": "Feature", "properties": { "id": 9342635871, "name": "Số 2 lô F1 Nguyễn Cảnh Dị", "index_right": 57, "district": "Phường Định Công" }, "geometry": { "type": "Point", "coordinates": [ 105.8358433, 20.9725083 ] } },
{ "type": "Feature", "properties": { "id": 9342635871, "name": "Số 2 lô F1 Nguyễn Cảnh Dị", "index_right": 58, "district": "Phường Định Công" }, "geometry": { "type": "Point", "coordinates": [ 105.8358433, 20.9725083 ] } },
{ "type": "Feature", "properties": { "id": 9342635872, "name": "Số 5 lô F1 Nguyễn Cảnh Dị", "index_right": 57, "district": "Phường Định Công" }, "geometry": { "type": "Point", "coordinates": [ 105.8360526, 20.9727576 ] } },
{ "type": "Feature", "properties": { "id": 9342635872, "name": "Số 5 lô F1 Nguyễn Cảnh Dị", "index_right": 58, "district": "Phường Định Công" }, "geometry": { "type": "Point", "coordinates": [ 105.8360526, 20.9727576 ] } },
{ "type": "Feature", "properties": { "id": 11514018112, "name": "Bãi đỗ xe Khu đô thị Linh Đàm", "index_right": 57, "district": "Phường Định Công" }, "geometry": { "type": "Point", "coordinates": [ 105.8265899, 20.9674318 ] } },
{ "type": "Feature", "properties": { "id": 11514018112, "name": "Bãi đỗ xe Khu đô thị Linh Đàm", "index_right": 58, "district": "Phường Định Công" }, "geometry": { "type": "Point", "coordinates": [ 105.8265899, 20.9674318 ] } },
{ "type": "Feature", "properties": { "id": 11524039226, "name": "Đối diện cổng Viện Kiểm sát nhân dân thành phố Hà Nội", "index_right": 57, "district": "Phường Định Công" }, "geometry": { "type": "Point", "coordinates": [ 105.8104688, 20.9763224 ] } },
{ "type": "Feature", "properties": { "id": 11524039226, "name": "Đối diện cổng Viện Kiểm sát nhân dân thành phố Hà Nội", "index_right": 58, "district": "Phường Định Công" }, "geometry": { "type": "Point", "coordinates": [ 105.8104688, 20.9763224 ] } },
{ "type": "Feature", "properties": { "id": 11524039229, "name": "Viện Kiểm sát nhân dân thành phố Hà Nội", "index_right": 57, "district": "Phường Định Công" }, "geometry": { "type": "Point", "coordinates": [ 105.8099225, 20.9746551 ] } },
{ "type": "Feature", "properties": { "id": 11524039229, "name": "Viện Kiểm sát nhân dân thành phố Hà Nội", "index_right": 58, "district": "Phường Định Công" }, "geometry": { "type": "Point", "coordinates": [ 105.8099225, 20.9746551 ] } }
]
}
