{
"type": "FeatureCollection",
"name": "Tỉnh_Hưng_Yên",
"crs": { "type": "name", "properties": { "name": "urn:ogc:def:crs:OGC:1.3:CRS84" } },
"features": [
{ "type": "Feature", "properties": { "id": 481836727, "name": "Vịnh chờ xe buýt gần cầu vượt chợ Như Quỳnh", "index_right": 2, "district": "Tỉnh Hưng Yên" }, "geometry": { "type": "Point", "coordinates": [ 105.9831999, 20.9825608 ] } },
{ "type": "Feature", "properties": { "id": 481836727, "name": "Vịnh chờ xe buýt gần cầu vượt chợ Như Quỳnh", "index_right": 3, "district": "Tỉnh Hưng Yên" }, "geometry": { "type": "Point", "coordinates": [ 105.9831999, 20.9825608 ] } },
{ "type": "Feature", "properties": { "id": 481836984, "name": "Trạm bus", "index_right": 2, "district": "Tỉnh Hưng Yên" }, "geometry": { "type": "Point", "coordinates": [ 105.980282, 20.984495 ] } },
{ "type": "Feature", "properties": { "id": 481836984, "name": "Trạm bus", "index_right": 3, "district": "Tỉnh Hưng Yên" }, "geometry": { "type": "Point", "coordinates": [ 105.980282, 20.984495 ] } },
{ "type": "Feature", "properties": { "id": 738815790, "name": "40,204,207", "index_right": 2, "district": "Tỉnh Hưng Yên" }, "geometry": { "type": "Point", "coordinates": [ 105.9850895, 20.9811103 ] } },
{ "type": "Feature", "properties": { "id": 738815790, "name": "40,204,207", "index_right": 3, "district": "Tỉnh Hưng Yên" }, "geometry": { "type": "Point", "coordinates": [ 105.9850895, 20.9811103 ] } },
{ "type": "Feature", "properties": { "id": 738815810, "name": "40", "index_right": 2, "district": "Tỉnh Hưng Yên" }, "geometry": { "type": "Point", "coordinates": [ 105.9727841, 20.9861007 ] } },
{ "type": "Feature", "properties": { "id": 738815810, "name": "40", "index_right": 3, "district": "Tỉnh Hưng Yên" }, "geometry": { "type": "Point", "coordinates": [ 105.9727841, 20.9861007 ] } },
{ "type": "Feature", "properties": { "id": 8900275019, "name": "Trước ngã 3 Xuân Quan - Bát Tràng 30m (chiều đi Bát Tràng)", "index_right": 2, "district": "Tỉnh Hưng Yên" }, "geometry": { "type": "Point", "coordinates": [ 105.9196073, 20.9729539 ] } },
{ "type": "Feature", "properties": { "id": 8900275019, "name": "Trước ngã 3 Xuân Quan - Bát Tràng 30m (chiều đi Bát Tràng)", "index_right": 3, "district": "Tỉnh Hưng Yên" }, "geometry": { "type": "Point", "coordinates": [ 105.9196073, 20.9729539 ] } },
{ "type": "Feature", "properties": { "id": 8900275022, "name": "Qua ngã 3 Bát Tràng - Xuân Quan 30m (chiều đi Hà Nội)", "index_right": 2, "district": "Tỉnh Hưng Yên" }, "geometry": { "type": "Point", "coordinates": [ 105.9198429, 20.973179 ] } },
{ "type": "Feature", "properties": { "id": 8900275022, "name": "Qua ngã 3 Bát Tràng - Xuân Quan 30m (chiều đi Hà Nội)", "index_right": 3, "district": "Tỉnh Hưng Yên" }, "geometry": { "type": "Point", "coordinates": [ 105.9198429, 20.973179 ] } },
{ "type": "Feature", "properties": { "id": 8919736469, "name": "Trước đối diện cột điện BKD12", "index_right": 2, "district": "Tỉnh Hưng Yên" }, "geometry": { "type": "Point", "coordinates": [ 105.9176996, 20.9713601 ] } },
{ "type": "Feature", "properties": { "id": 8919736469, "name": "Trước đối diện cột điện BKD12", "index_right": 3, "district": "Tỉnh Hưng Yên" }, "geometry": { "type": "Point", "coordinates": [ 105.9176996, 20.9713601 ] } },
{ "type": "Feature", "properties": { "id": 8919736471, "name": "Trước cột điện BKD12", "index_right": 2, "district": "Tỉnh Hưng Yên" }, "geometry": { "type": "Point", "coordinates": [ 105.9165268, 20.9715218 ] } },
{ "type": "Feature", "properties": { "id": 8919736471, "name": "Trước cột điện BKD12", "index_right": 3, "district": "Tỉnh Hưng Yên" }, "geometry": { "type": "Point", "coordinates": [ 105.9165268, 20.9715218 ] } },
{ "type": "Feature", "properties": { "id": 8919736481, "name": "Điện lạnh Quý Thơm", "index_right": 2, "district": "Tỉnh Hưng Yên" }, "geometry": { "type": "Point", "coordinates": [ 105.9096683, 20.9553819 ] } },
{ "type": "Feature", "properties": { "id": 8919736481, "name": "Điện lạnh Quý Thơm", "index_right": 3, "district": "Tỉnh Hưng Yên" }, "geometry": { "type": "Point", "coordinates": [ 105.9096683, 20.9553819 ] } },
{ "type": "Feature", "properties": { "id": 8919736482, "name": "Đối diện nhà vườn Kiên Huế", "index_right": 2, "district": "Tỉnh Hưng Yên" }, "geometry": { "type": "Point", "coordinates": [ 105.9098145, 20.9555353 ] } },
{ "type": "Feature", "properties": { "id": 8919736482, "name": "Đối diện nhà vườn Kiên Huế", "index_right": 3, "district": "Tỉnh Hưng Yên" }, "geometry": { "type": "Point", "coordinates": [ 105.9098145, 20.9555353 ] } },
{ "type": "Feature", "properties": { "id": 8919736483, "name": "Đối diện Điếm canh đê Phụng Công", "index_right": 2, "district": "Tỉnh Hưng Yên" }, "geometry": { "type": "Point", "coordinates": [ 105.9193127, 20.9542337 ] } },
{ "type": "Feature", "properties": { "id": 8919736483, "name": "Đối diện Điếm canh đê Phụng Công", "index_right": 3, "district": "Tỉnh Hưng Yên" }, "geometry": { "type": "Point", "coordinates": [ 105.9193127, 20.9542337 ] } },
{ "type": "Feature", "properties": { "id": 8919736484, "name": "Qua điếm canh đê Phụng Công 50m", "index_right": 2, "district": "Tỉnh Hưng Yên" }, "geometry": { "type": "Point", "coordinates": [ 105.9197354, 20.9538834 ] } },
{ "type": "Feature", "properties": { "id": 8919736484, "name": "Qua điếm canh đê Phụng Công 50m", "index_right": 3, "district": "Tỉnh Hưng Yên" }, "geometry": { "type": "Point", "coordinates": [ 105.9197354, 20.9538834 ] } },
{ "type": "Feature", "properties": { "id": 8919736485, "name": "Đối diện nhà vườn Tuấn Tú thông đến xã Phụng Công", "index_right": 2, "district": "Tỉnh Hưng Yên" }, "geometry": { "type": "Point", "coordinates": [ 105.9237285, 20.9478817 ] } },
{ "type": "Feature", "properties": { "id": 8919736485, "name": "Đối diện nhà vườn Tuấn Tú thông đến xã Phụng Công", "index_right": 3, "district": "Tỉnh Hưng Yên" }, "geometry": { "type": "Point", "coordinates": [ 105.9237285, 20.9478817 ] } },
{ "type": "Feature", "properties": { "id": 8919736486, "name": "Trước Y học cổ truyền Đại hữu xã Phụng Công", "index_right": 2, "district": "Tỉnh Hưng Yên" }, "geometry": { "type": "Point", "coordinates": [ 105.9237779, 20.9481923 ] } },
{ "type": "Feature", "properties": { "id": 8919736486, "name": "Trước Y học cổ truyền Đại hữu xã Phụng Công", "index_right": 3, "district": "Tỉnh Hưng Yên" }, "geometry": { "type": "Point", "coordinates": [ 105.9237779, 20.9481923 ] } },
{ "type": "Feature", "properties": { "id": 8919736487, "name": "Hè trước Agribank Văn Giang", "index_right": 2, "district": "Tỉnh Hưng Yên" }, "geometry": { "type": "Point", "coordinates": [ 105.9273614, 20.9467638 ] } },
{ "type": "Feature", "properties": { "id": 8919736487, "name": "Hè trước Agribank Văn Giang", "index_right": 3, "district": "Tỉnh Hưng Yên" }, "geometry": { "type": "Point", "coordinates": [ 105.9273614, 20.9467638 ] } },
{ "type": "Feature", "properties": { "id": 8919736488, "name": "Phòng Giáo dục đào tạo huyện Văn Giang", "index_right": 2, "district": "Tỉnh Hưng Yên" }, "geometry": { "type": "Point", "coordinates": [ 105.9276232, 20.9467984 ] } },
{ "type": "Feature", "properties": { "id": 8919736488, "name": "Phòng Giáo dục đào tạo huyện Văn Giang", "index_right": 3, "district": "Tỉnh Hưng Yên" }, "geometry": { "type": "Point", "coordinates": [ 105.9276232, 20.9467984 ] } },
{ "type": "Feature", "properties": { "id": 8919736489, "name": "Trường Trung cấp Cảnh sát Nhân dân", "index_right": 2, "district": "Tỉnh Hưng Yên" }, "geometry": { "type": "Point", "coordinates": [ 105.9322372, 20.9457292 ] } },
{ "type": "Feature", "properties": { "id": 8919736489, "name": "Trường Trung cấp Cảnh sát Nhân dân", "index_right": 3, "district": "Tỉnh Hưng Yên" }, "geometry": { "type": "Point", "coordinates": [ 105.9322372, 20.9457292 ] } },
{ "type": "Feature", "properties": { "id": 8919736490, "name": "Đối diện Trường trung cấp Cảnh sát Nhân dân", "index_right": 2, "district": "Tỉnh Hưng Yên" }, "geometry": { "type": "Point", "coordinates": [ 105.9321325, 20.9459179 ] } },
{ "type": "Feature", "properties": { "id": 8919736490, "name": "Đối diện Trường trung cấp Cảnh sát Nhân dân", "index_right": 3, "district": "Tỉnh Hưng Yên" }, "geometry": { "type": "Point", "coordinates": [ 105.9321325, 20.9459179 ] } },
{ "type": "Feature", "properties": { "id": 8919736491, "name": "Hè trước số nhà 263 thị trấn Văn Giang", "index_right": 2, "district": "Tỉnh Hưng Yên" }, "geometry": { "type": "Point", "coordinates": [ 105.9373562, 20.9455491 ] } },
{ "type": "Feature", "properties": { "id": 8919736491, "name": "Hè trước số nhà 263 thị trấn Văn Giang", "index_right": 3, "district": "Tỉnh Hưng Yên" }, "geometry": { "type": "Point", "coordinates": [ 105.9373562, 20.9455491 ] } },
{ "type": "Feature", "properties": { "id": 8919736492, "name": "Hè trước nhà 234 thị trấn Văn Giang", "index_right": 2, "district": "Tỉnh Hưng Yên" }, "geometry": { "type": "Point", "coordinates": [ 105.9378501, 20.9457625 ] } },
{ "type": "Feature", "properties": { "id": 8919736492, "name": "Hè trước nhà 234 thị trấn Văn Giang", "index_right": 3, "district": "Tỉnh Hưng Yên" }, "geometry": { "type": "Point", "coordinates": [ 105.9378501, 20.9457625 ] } },
{ "type": "Feature", "properties": { "id": 8919736493, "name": "Đối diện Trạm y tế huyện Văn Giang", "index_right": 2, "district": "Tỉnh Hưng Yên" }, "geometry": { "type": "Point", "coordinates": [ 105.9449177, 20.9509887 ] } },
{ "type": "Feature", "properties": { "id": 8919736493, "name": "Đối diện Trạm y tế huyện Văn Giang", "index_right": 3, "district": "Tỉnh Hưng Yên" }, "geometry": { "type": "Point", "coordinates": [ 105.9449177, 20.9509887 ] } },
{ "type": "Feature", "properties": { "id": 8919736494, "name": "HĐND, UBND huyện Văn Giang", "index_right": 2, "district": "Tỉnh Hưng Yên" }, "geometry": { "type": "Point", "coordinates": [ 105.9442615, 20.9498024 ] } },
{ "type": "Feature", "properties": { "id": 8919736494, "name": "HĐND, UBND huyện Văn Giang", "index_right": 3, "district": "Tỉnh Hưng Yên" }, "geometry": { "type": "Point", "coordinates": [ 105.9442615, 20.9498024 ] } },
{ "type": "Feature", "properties": { "id": 8919736495, "name": "Qua đường vào Miếu Nghè 30m", "index_right": 2, "district": "Tỉnh Hưng Yên" }, "geometry": { "type": "Point", "coordinates": [ 105.9486967, 20.9550346 ] } },
{ "type": "Feature", "properties": { "id": 8919736495, "name": "Qua đường vào Miếu Nghè 30m", "index_right": 3, "district": "Tỉnh Hưng Yên" }, "geometry": { "type": "Point", "coordinates": [ 105.9486967, 20.9550346 ] } },
{ "type": "Feature", "properties": { "id": 8919736496, "name": "Trước đối diện đường vào Miếu Nghè 100m", "index_right": 2, "district": "Tỉnh Hưng Yên" }, "geometry": { "type": "Point", "coordinates": [ 105.9468039, 20.9542842 ] } },
{ "type": "Feature", "properties": { "id": 8919736496, "name": "Trước đối diện đường vào Miếu Nghè 100m", "index_right": 3, "district": "Tỉnh Hưng Yên" }, "geometry": { "type": "Point", "coordinates": [ 105.9468039, 20.9542842 ] } },
{ "type": "Feature", "properties": { "id": 8919736497, "name": "Đối diện qua trạm xăng dầu Cửu Cao", "index_right": 2, "district": "Tỉnh Hưng Yên" }, "geometry": { "type": "Point", "coordinates": [ 105.9511571, 20.9567125 ] } },
{ "type": "Feature", "properties": { "id": 8919736497, "name": "Đối diện qua trạm xăng dầu Cửu Cao", "index_right": 3, "district": "Tỉnh Hưng Yên" }, "geometry": { "type": "Point", "coordinates": [ 105.9511571, 20.9567125 ] } },
{ "type": "Feature", "properties": { "id": 8919736498, "name": "Gần trạm xăng dầu xã Cửu Cao", "index_right": 2, "district": "Tỉnh Hưng Yên" }, "geometry": { "type": "Point", "coordinates": [ 105.9513785, 20.9573166 ] } },
{ "type": "Feature", "properties": { "id": 8919736498, "name": "Gần trạm xăng dầu xã Cửu Cao", "index_right": 3, "district": "Tỉnh Hưng Yên" }, "geometry": { "type": "Point", "coordinates": [ 105.9513785, 20.9573166 ] } },
{ "type": "Feature", "properties": { "id": 8919736499, "name": "Đối diện cửa hàng thép Bách Việt", "index_right": 2, "district": "Tỉnh Hưng Yên" }, "geometry": { "type": "Point", "coordinates": [ 105.9548602, 20.9648832 ] } },
{ "type": "Feature", "properties": { "id": 8919736499, "name": "Đối diện cửa hàng thép Bách Việt", "index_right": 3, "district": "Tỉnh Hưng Yên" }, "geometry": { "type": "Point", "coordinates": [ 105.9548602, 20.9648832 ] } },
{ "type": "Feature", "properties": { "id": 8919736500, "name": "Trước Salon Đức Trung", "index_right": 2, "district": "Tỉnh Hưng Yên" }, "geometry": { "type": "Point", "coordinates": [ 105.9553666, 20.9666425 ] } },
{ "type": "Feature", "properties": { "id": 8919736500, "name": "Trước Salon Đức Trung", "index_right": 3, "district": "Tỉnh Hưng Yên" }, "geometry": { "type": "Point", "coordinates": [ 105.9553666, 20.9666425 ] } },
{ "type": "Feature", "properties": { "id": 11524139307, "name": "Ngã ba Như Quỳnh", "index_right": 2, "district": "Tỉnh Hưng Yên" }, "geometry": { "type": "Point", "coordinates": [ 105.9760068, 20.9887979 ] } },
{ "type": "Feature", "properties": { "id": 11524139307, "name": "Ngã ba Như Quỳnh", "index_right": 3, "district": "Tỉnh Hưng Yên" }, "geometry": { "type": "Point", "coordinates": [ 105.9760068, 20.9887979 ] } },
{ "type": "Feature", "properties": { "id": 11524139308, "name": "Nhà 28-30 Thị trấn Như Quỳnh", "index_right": 2, "district": "Tỉnh Hưng Yên" }, "geometry": { "type": "Point", "coordinates": [ 105.9841299, 20.9814839 ] } },
{ "type": "Feature", "properties": { "id": 11524139308, "name": "Nhà 28-30 Thị trấn Như Quỳnh", "index_right": 3, "district": "Tỉnh Hưng Yên" }, "geometry": { "type": "Point", "coordinates": [ 105.9841299, 20.9814839 ] } },
{ "type": "Feature", "properties": { "id": 11524139309, "name": "Gần ngã 3 Ngọc Lịch", "index_right": 2, "district": "Tỉnh Hưng Yên" }, "geometry": { "type": "Point", "coordinates": [ 105.9913703, 20.9709107 ] } },
{ "type": "Feature", "properties": { "id": 11524139309, "name": "Gần ngã 3 Ngọc Lịch", "index_right": 3, "district": "Tỉnh Hưng Yên" }, "geometry": { "type": "Point", "coordinates": [ 105.9913703, 20.9709107 ] } },
{ "type": "Feature", "properties": { "id": 11524139310, "name": "Văn Lâm - Tuyến 40", "index_right": 2, "district": "Tỉnh Hưng Yên" }, "geometry": { "type": "Point", "coordinates": [ 105.9943856, 20.9648307 ] } },
{ "type": "Feature", "properties": { "id": 11524139310, "name": "Văn Lâm - Tuyến 40", "index_right": 3, "district": "Tỉnh Hưng Yên" }, "geometry": { "type": "Point", "coordinates": [ 105.9943856, 20.9648307 ] } },
{ "type": "Feature", "properties": { "id": 11524139311, "name": "138 - 140 Chợ đường Cái", "index_right": 2, "district": "Tỉnh Hưng Yên" }, "geometry": { "type": "Point", "coordinates": [ 105.9982296, 20.9584782 ] } },
{ "type": "Feature", "properties": { "id": 11524139311, "name": "138 - 140 Chợ đường Cái", "index_right": 3, "district": "Tỉnh Hưng Yên" }, "geometry": { "type": "Point", "coordinates": [ 105.9982296, 20.9584782 ] } },
{ "type": "Feature", "properties": { "id": 11524139312, "name": "15 - 17 Chợ đường Cái", "index_right": 2, "district": "Tỉnh Hưng Yên" }, "geometry": { "type": "Point", "coordinates": [ 105.9986679, 20.9584834 ] } },
{ "type": "Feature", "properties": { "id": 11524139312, "name": "15 - 17 Chợ đường Cái", "index_right": 3, "district": "Tỉnh Hưng Yên" }, "geometry": { "type": "Point", "coordinates": [ 105.9986679, 20.9584834 ] } },
{ "type": "Feature", "properties": { "id": 11524139313, "name": "Trước cổng trạm trộn BT Việt Đức 100m", "index_right": 2, "district": "Tỉnh Hưng Yên" }, "geometry": { "type": "Point", "coordinates": [ 105.9946266, 20.9651889 ] } },
{ "type": "Feature", "properties": { "id": 11524139313, "name": "Trước cổng trạm trộn BT Việt Đức 100m", "index_right": 3, "district": "Tỉnh Hưng Yên" }, "geometry": { "type": "Point", "coordinates": [ 105.9946266, 20.9651889 ] } },
{ "type": "Feature", "properties": { "id": 11524139314, "name": "Qua cổng làng Đình Dù (Hưng Yên) 100m", "index_right": 2, "district": "Tỉnh Hưng Yên" }, "geometry": { "type": "Point", "coordinates": [ 105.9920304, 20.9702239 ] } },
{ "type": "Feature", "properties": { "id": 11524139314, "name": "Qua cổng làng Đình Dù (Hưng Yên) 100m", "index_right": 3, "district": "Tỉnh Hưng Yên" }, "geometry": { "type": "Point", "coordinates": [ 105.9920304, 20.9702239 ] } },
{ "type": "Feature", "properties": { "id": 11524139315, "name": "Ngã ba Như Quỳnh", "index_right": 2, "district": "Tỉnh Hưng Yên" }, "geometry": { "type": "Point", "coordinates": [ 105.9770885, 20.9880315 ] } },
{ "type": "Feature", "properties": { "id": 11524139315, "name": "Ngã ba Như Quỳnh", "index_right": 3, "district": "Tỉnh Hưng Yên" }, "geometry": { "type": "Point", "coordinates": [ 105.9770885, 20.9880315 ] } },
{ "type": "Feature", "properties": { "id": 11525014911, "name": "Đối diện nhà trẻ Vinakids", "index_right": 2, "district": "Tỉnh Hưng Yên" }, "geometry": { "type": "Point", "coordinates": [ 105.9216889, 20.9735865 ] } },
{ "type": "Feature", "properties": { "id": 11525014911, "name": "Đối diện nhà trẻ Vinakids", "index_right": 3, "district": "Tỉnh Hưng Yên" }, "geometry": { "type": "Point", "coordinates": [ 105.9216889, 20.9735865 ] } },
{ "type": "Feature", "properties": { "id": 11525014912, "name": "Đối diện A2 Rừng Cọ", "index_right": 2, "district": "Tỉnh Hưng Yên" }, "geometry": { "type": "Point", "coordinates": [ 105.9251185, 20.9733875 ] } },
{ "type": "Feature", "properties": { "id": 11525014912, "name": "Đối diện A2 Rừng Cọ", "index_right": 3, "district": "Tỉnh Hưng Yên" }, "geometry": { "type": "Point", "coordinates": [ 105.9251185, 20.9733875 ] } },
{ "type": "Feature", "properties": { "id": 11525014913, "name": "Vườn Tùng - Rừng Cọ", "index_right": 2, "district": "Tỉnh Hưng Yên" }, "geometry": { "type": "Point", "coordinates": [ 105.9273144, 20.9725246 ] } },
{ "type": "Feature", "properties": { "id": 11525014913, "name": "Vườn Tùng - Rừng Cọ", "index_right": 3, "district": "Tỉnh Hưng Yên" }, "geometry": { "type": "Point", "coordinates": [ 105.9273144, 20.9725246 ] } },
{ "type": "Feature", "properties": { "id": 11525014914, "name": "Vườn Mai - Rừng Thông", "index_right": 2, "district": "Tỉnh Hưng Yên" }, "geometry": { "type": "Point", "coordinates": [ 105.9322074, 20.9719782 ] } },
{ "type": "Feature", "properties": { "id": 11525014914, "name": "Vườn Mai - Rừng Thông", "index_right": 3, "district": "Tỉnh Hưng Yên" }, "geometry": { "type": "Point", "coordinates": [ 105.9322074, 20.9719782 ] } },
{ "type": "Feature", "properties": { "id": 11525014915, "name": "Siêu thị Citimart - Rừng Cọ", "index_right": 2, "district": "Tỉnh Hưng Yên" }, "geometry": { "type": "Point", "coordinates": [ 105.9279731, 20.9724668 ] } },
{ "type": "Feature", "properties": { "id": 11525014915, "name": "Siêu thị Citimart - Rừng Cọ", "index_right": 3, "district": "Tỉnh Hưng Yên" }, "geometry": { "type": "Point", "coordinates": [ 105.9279731, 20.9724668 ] } },
{ "type": "Feature", "properties": { "id": 11525014916, "name": "A2 Rừng Sọ", "index_right": 2, "district": "Tỉnh Hưng Yên" }, "geometry": { "type": "Point", "coordinates": [ 105.9254708, 20.9734962 ] } },
{ "type": "Feature", "properties": { "id": 11525014916, "name": "A2 Rừng Sọ", "index_right": 3, "district": "Tỉnh Hưng Yên" }, "geometry": { "type": "Point", "coordinates": [ 105.9254708, 20.9734962 ] } },
{ "type": "Feature", "properties": { "id": 11554362848, "name": "Cầu Sóng The K Town", "index_right": 2, "district": "Tỉnh Hưng Yên" }, "geometry": { "type": "Point", "coordinates": [ 105.9759083, 20.9514222 ] } },
{ "type": "Feature", "properties": { "id": 11554362848, "name": "Cầu Sóng The K Town", "index_right": 3, "district": "Tỉnh Hưng Yên" }, "geometry": { "type": "Point", "coordinates": [ 105.9759083, 20.9514222 ] } },
{ "type": "Feature", "properties": { "id": 11554362849, "name": "Kinh đô Ánh sáng", "index_right": 2, "district": "Tỉnh Hưng Yên" }, "geometry": { "type": "Point", "coordinates": [ 105.9788808, 20.9455865 ] } },
{ "type": "Feature", "properties": { "id": 11554362849, "name": "Kinh đô Ánh sáng", "index_right": 3, "district": "Tỉnh Hưng Yên" }, "geometry": { "type": "Point", "coordinates": [ 105.9788808, 20.9455865 ] } },
{ "type": "Feature", "properties": { "id": 11554362850, "name": "TTTM Center Point đường ĐL Ngọc Trai", "index_right": 2, "district": "Tỉnh Hưng Yên" }, "geometry": { "type": "Point", "coordinates": [ 105.9816689, 20.9424558 ] } },
{ "type": "Feature", "properties": { "id": 11554362850, "name": "TTTM Center Point đường ĐL Ngọc Trai", "index_right": 3, "district": "Tỉnh Hưng Yên" }, "geometry": { "type": "Point", "coordinates": [ 105.9816689, 20.9424558 ] } },
{ "type": "Feature", "properties": { "id": 11556081242, "name": "Đối diện Cổng Grand World - The Venice", "index_right": 2, "district": "Tỉnh Hưng Yên" }, "geometry": { "type": "Point", "coordinates": [ 105.9748903, 20.9534828 ] } },
{ "type": "Feature", "properties": { "id": 11556081242, "name": "Đối diện Cổng Grand World - The Venice", "index_right": 3, "district": "Tỉnh Hưng Yên" }, "geometry": { "type": "Point", "coordinates": [ 105.9748903, 20.9534828 ] } },
{ "type": "Feature", "properties": { "id": 12118584191, "name": "Phân khu San Hô - Đường Đại lộ San Hô", "index_right": 2, "district": "Tỉnh Hưng Yên" }, "geometry": { "type": "Point", "coordinates": [ 105.9788415, 20.9463929 ] } },
{ "type": "Feature", "properties": { "id": 12118584191, "name": "Phân khu San Hô - Đường Đại lộ San Hô", "index_right": 3, "district": "Tỉnh Hưng Yên" }, "geometry": { "type": "Point", "coordinates": [ 105.9788415, 20.9463929 ] } },
{ "type": "Feature", "properties": { "id": 12118584194, "name": "The Venice – Đường Phố biển 22", "index_right": 2, "district": "Tỉnh Hưng Yên" }, "geometry": { "type": "Point", "coordinates": [ 105.9839012, 20.9565792 ] } },
{ "type": "Feature", "properties": { "id": 12118584194, "name": "The Venice – Đường Phố biển 22", "index_right": 3, "district": "Tỉnh Hưng Yên" }, "geometry": { "type": "Point", "coordinates": [ 105.9839012, 20.9565792 ] } },
{ "type": "Feature", "properties": { "id": 12118584195, "name": "Phân khu Phố Biển – Đường Phố biển 19", "index_right": 2, "district": "Tỉnh Hưng Yên" }, "geometry": { "type": "Point", "coordinates": [ 105.9793979, 20.9560983 ] } },
{ "type": "Feature", "properties": { "id": 12118584195, "name": "Phân khu Phố Biển – Đường Phố biển 19", "index_right": 3, "district": "Tỉnh Hưng Yên" }, "geometry": { "type": "Point", "coordinates": [ 105.9793979, 20.9560983 ] } },
{ "type": "Feature", "properties": { "id": 12118584196, "name": "Phân khu Phố Biển – Đường Phố biển", "index_right": 2, "district": "Tỉnh Hưng Yên" }, "geometry": { "type": "Point", "coordinates": [ 105.9780797, 20.9570412 ] } },
{ "type": "Feature", "properties": { "id": 12118584196, "name": "Phân khu Phố Biển – Đường Phố biển", "index_right": 3, "district": "Tỉnh Hưng Yên" }, "geometry": { "type": "Point", "coordinates": [ 105.9780797, 20.9570412 ] } },
{ "type": "Feature", "properties": { "id": 12118584197, "name": "Công viên Vinwonder Water Park", "index_right": 2, "district": "Tỉnh Hưng Yên" }, "geometry": { "type": "Point", "coordinates": [ 105.9766498, 20.9600192 ] } },
{ "type": "Feature", "properties": { "id": 12118584197, "name": "Công viên Vinwonder Water Park", "index_right": 3, "district": "Tỉnh Hưng Yên" }, "geometry": { "type": "Point", "coordinates": [ 105.9766498, 20.9600192 ] } },
{ "type": "Feature", "properties": { "id": 12118584198, "name": "Phân khu Thời Đại – Đường Đại lộ bốn mùa", "index_right": 2, "district": "Tỉnh Hưng Yên" }, "geometry": { "type": "Point", "coordinates": [ 105.9725191, 20.9588121 ] } },
{ "type": "Feature", "properties": { "id": 12118584198, "name": "Phân khu Thời Đại – Đường Đại lộ bốn mùa", "index_right": 3, "district": "Tỉnh Hưng Yên" }, "geometry": { "type": "Point", "coordinates": [ 105.9725191, 20.9588121 ] } },
{ "type": "Feature", "properties": { "id": 12118584199, "name": "Phân khu Thời Đại – Đường Thời Đại 6", "index_right": 2, "district": "Tỉnh Hưng Yên" }, "geometry": { "type": "Point", "coordinates": [ 105.9733187, 20.9570431 ] } },
{ "type": "Feature", "properties": { "id": 12118584199, "name": "Phân khu Thời Đại – Đường Thời Đại 6", "index_right": 3, "district": "Tỉnh Hưng Yên" }, "geometry": { "type": "Point", "coordinates": [ 105.9733187, 20.9570431 ] } },
{ "type": "Feature", "properties": { "id": 12118587801, "name": "Phân khu Sao Biển - Đường Sao Biển 2", "index_right": 2, "district": "Tỉnh Hưng Yên" }, "geometry": { "type": "Point", "coordinates": [ 105.9723407, 20.9491558 ] } },
{ "type": "Feature", "properties": { "id": 12118587801, "name": "Phân khu Sao Biển - Đường Sao Biển 2", "index_right": 3, "district": "Tỉnh Hưng Yên" }, "geometry": { "type": "Point", "coordinates": [ 105.9723407, 20.9491558 ] } },
{ "type": "Feature", "properties": { "id": 12118587802, "name": "Trường Vinschool – Đường Biển Xanh", "index_right": 2, "district": "Tỉnh Hưng Yên" }, "geometry": { "type": "Point", "coordinates": [ 105.969101, 20.9490847 ] } },
{ "type": "Feature", "properties": { "id": 12118587802, "name": "Trường Vinschool – Đường Biển Xanh", "index_right": 3, "district": "Tỉnh Hưng Yên" }, "geometry": { "type": "Point", "coordinates": [ 105.969101, 20.9490847 ] } },
{ "type": "Feature", "properties": { "id": 12118587803, "name": "Phân khu Cọ Xanh – Đường Biển Xanh", "index_right": 2, "district": "Tỉnh Hưng Yên" }, "geometry": { "type": "Point", "coordinates": [ 105.9708378, 20.9454824 ] } },
{ "type": "Feature", "properties": { "id": 12118587803, "name": "Phân khu Cọ Xanh – Đường Biển Xanh", "index_right": 3, "district": "Tỉnh Hưng Yên" }, "geometry": { "type": "Point", "coordinates": [ 105.9708378, 20.9454824 ] } },
{ "type": "Feature", "properties": { "id": 12118587804, "name": "Phân khu Hải Âu - Đường Biển xanh", "index_right": 2, "district": "Tỉnh Hưng Yên" }, "geometry": { "type": "Point", "coordinates": [ 105.9724704, 20.9421584 ] } },
{ "type": "Feature", "properties": { "id": 12118587804, "name": "Phân khu Hải Âu - Đường Biển xanh", "index_right": 3, "district": "Tỉnh Hưng Yên" }, "geometry": { "type": "Point", "coordinates": [ 105.9724704, 20.9421584 ] } },
{ "type": "Feature", "properties": { "id": 12118587805, "name": "Phân khu Đảo Dừa - Đường Đại Dương", "index_right": 2, "district": "Tỉnh Hưng Yên" }, "geometry": { "type": "Point", "coordinates": [ 105.9742164, 20.940467 ] } },
{ "type": "Feature", "properties": { "id": 12118587805, "name": "Phân khu Đảo Dừa - Đường Đại Dương", "index_right": 3, "district": "Tỉnh Hưng Yên" }, "geometry": { "type": "Point", "coordinates": [ 105.9742164, 20.940467 ] } },
{ "type": "Feature", "properties": { "id": 12118587806, "name": "Phân khu Chà Là - Công viên Chà Là 3", "index_right": 2, "district": "Tỉnh Hưng Yên" }, "geometry": { "type": "Point", "coordinates": [ 105.9848052, 20.9387242 ] } },
{ "type": "Feature", "properties": { "id": 12118587806, "name": "Phân khu Chà Là - Công viên Chà Là 3", "index_right": 3, "district": "Tỉnh Hưng Yên" }, "geometry": { "type": "Point", "coordinates": [ 105.9848052, 20.9387242 ] } },
{ "type": "Feature", "properties": { "id": 12118587807, "name": "Phân khu Ngọc Trai - Công viên Ngọc Trai 3", "index_right": 2, "district": "Tỉnh Hưng Yên" }, "geometry": { "type": "Point", "coordinates": [ 105.9839355, 20.9420546 ] } },
{ "type": "Feature", "properties": { "id": 12118587807, "name": "Phân khu Ngọc Trai - Công viên Ngọc Trai 3", "index_right": 3, "district": "Tỉnh Hưng Yên" }, "geometry": { "type": "Point", "coordinates": [ 105.9839355, 20.9420546 ] } },
{ "type": "Feature", "properties": { "id": 12118587808, "name": "Phân khu Ánh Dương – Đường Ánh Dương 6", "index_right": 2, "district": "Tỉnh Hưng Yên" }, "geometry": { "type": "Point", "coordinates": [ 105.9748241, 20.9637274 ] } },
{ "type": "Feature", "properties": { "id": 12118587808, "name": "Phân khu Ánh Dương – Đường Ánh Dương 6", "index_right": 3, "district": "Tỉnh Hưng Yên" }, "geometry": { "type": "Point", "coordinates": [ 105.9748241, 20.9637274 ] } },
{ "type": "Feature", "properties": { "id": 12118587809, "name": "Phân khu Vịnh Tây – Đường Đại lộ bốn mùa", "index_right": 2, "district": "Tỉnh Hưng Yên" }, "geometry": { "type": "Point", "coordinates": [ 105.9712513, 20.9613894 ] } },
{ "type": "Feature", "properties": { "id": 12118587809, "name": "Phân khu Vịnh Tây – Đường Đại lộ bốn mùa", "index_right": 3, "district": "Tỉnh Hưng Yên" }, "geometry": { "type": "Point", "coordinates": [ 105.9712513, 20.9613894 ] } },
{ "type": "Feature", "properties": { "id": 12214161259, "name": "Đối diện bệnh viện KUSUMI - ĐH y khoa Tokyo", "index_right": 2, "district": "Tỉnh Hưng Yên" }, "geometry": { "type": "Point", "coordinates": [ 105.931387, 20.9626805 ] } },
{ "type": "Feature", "properties": { "id": 12214161259, "name": "Đối diện bệnh viện KUSUMI - ĐH y khoa Tokyo", "index_right": 3, "district": "Tỉnh Hưng Yên" }, "geometry": { "type": "Point", "coordinates": [ 105.931387, 20.9626805 ] } },
{ "type": "Feature", "properties": { "id": 12214161260, "name": "Sân golf đối diện nhà chờ bus Eco - Tòa Sky 2", "index_right": 2, "district": "Tỉnh Hưng Yên" }, "geometry": { "type": "Point", "coordinates": [ 105.9384213, 20.9537613 ] } },
{ "type": "Feature", "properties": { "id": 12214161260, "name": "Sân golf đối diện nhà chờ bus Eco - Tòa Sky 2", "index_right": 3, "district": "Tỉnh Hưng Yên" }, "geometry": { "type": "Point", "coordinates": [ 105.9384213, 20.9537613 ] } },
{ "type": "Feature", "properties": { "id": 12214161261, "name": "Nhà chờ bus Eco (Westbay A&B)", "index_right": 2, "district": "Tỉnh Hưng Yên" }, "geometry": { "type": "Point", "coordinates": [ 105.934042, 20.9501416 ] } },
{ "type": "Feature", "properties": { "id": 12214161261, "name": "Nhà chờ bus Eco (Westbay A&B)", "index_right": 3, "district": "Tỉnh Hưng Yên" }, "geometry": { "type": "Point", "coordinates": [ 105.934042, 20.9501416 ] } },
{ "type": "Feature", "properties": { "id": 12214161262, "name": "Nhà chờ bus Eco (Westbay C&D)", "index_right": 2, "district": "Tỉnh Hưng Yên" }, "geometry": { "type": "Point", "coordinates": [ 105.9342532, 20.9482228 ] } },
{ "type": "Feature", "properties": { "id": 12214161262, "name": "Nhà chờ bus Eco (Westbay C&D)", "index_right": 3, "district": "Tỉnh Hưng Yên" }, "geometry": { "type": "Point", "coordinates": [ 105.9342532, 20.9482228 ] } },
{ "type": "Feature", "properties": { "id": 12214161263, "name": "Nhà chờ bus Eco (cổng trường Edison)", "index_right": 2, "district": "Tỉnh Hưng Yên" }, "geometry": { "type": "Point", "coordinates": [ 105.9394101, 20.9482358 ] } },
{ "type": "Feature", "properties": { "id": 12214161263, "name": "Nhà chờ bus Eco (cổng trường Edison)", "index_right": 3, "district": "Tỉnh Hưng Yên" }, "geometry": { "type": "Point", "coordinates": [ 105.9394101, 20.9482358 ] } },
{ "type": "Feature", "properties": { "id": 12214161264, "name": "Nhà chờ bus Eco (sân bóng Edison)", "index_right": 2, "district": "Tỉnh Hưng Yên" }, "geometry": { "type": "Point", "coordinates": [ 105.9397683, 20.9507347 ] } },
{ "type": "Feature", "properties": { "id": 12214161264, "name": "Nhà chờ bus Eco (sân bóng Edison)", "index_right": 3, "district": "Tỉnh Hưng Yên" }, "geometry": { "type": "Point", "coordinates": [ 105.9397683, 20.9507347 ] } },
{ "type": "Feature", "properties": { "id": 12214161265, "name": "Đối diện sân bóng Edison", "index_right": 2, "district": "Tỉnh Hưng Yên" }, "geometry": { "type": "Point", "coordinates": [ 105.939606, 20.9508041 ] } },
{ "type": "Feature", "properties": { "id": 12214161265, "name": "Đối diện sân bóng Edison", "index_right": 3, "district": "Tỉnh Hưng Yên" }, "geometry": { "type": "Point", "coordinates": [ 105.939606, 20.9508041 ] } },
{ "type": "Feature", "properties": { "id": 12214161266, "name": "Nhà chờ bus Eco (cổng trường Edison)", "index_right": 2, "district": "Tỉnh Hưng Yên" }, "geometry": { "type": "Point", "coordinates": [ 105.9391864, 20.9481838 ] } },
{ "type": "Feature", "properties": { "id": 12214161266, "name": "Nhà chờ bus Eco (cổng trường Edison)", "index_right": 3, "district": "Tỉnh Hưng Yên" }, "geometry": { "type": "Point", "coordinates": [ 105.9391864, 20.9481838 ] } },
{ "type": "Feature", "properties": { "id": 12214161267, "name": "Đối diện nhà chờ bus Eco (Westbay C&D)", "index_right": 2, "district": "Tỉnh Hưng Yên" }, "geometry": { "type": "Point", "coordinates": [ 105.934478, 20.9482107 ] } },
{ "type": "Feature", "properties": { "id": 12214161267, "name": "Đối diện nhà chờ bus Eco (Westbay C&D)", "index_right": 3, "district": "Tỉnh Hưng Yên" }, "geometry": { "type": "Point", "coordinates": [ 105.934478, 20.9482107 ] } },
{ "type": "Feature", "properties": { "id": 12214161268, "name": "Đối diện nhà chờ bus Eco (Westbay A&B)", "index_right": 2, "district": "Tỉnh Hưng Yên" }, "geometry": { "type": "Point", "coordinates": [ 105.9342762, 20.9502328 ] } },
{ "type": "Feature", "properties": { "id": 12214161268, "name": "Đối diện nhà chờ bus Eco (Westbay A&B)", "index_right": 3, "district": "Tỉnh Hưng Yên" }, "geometry": { "type": "Point", "coordinates": [ 105.9342762, 20.9502328 ] } },
{ "type": "Feature", "properties": { "id": 12214161269, "name": "Đối diện sân golf nhà chờ bus Eco - Tòa Sky 2", "index_right": 2, "district": "Tỉnh Hưng Yên" }, "geometry": { "type": "Point", "coordinates": [ 105.9384782, 20.9533855 ] } },
{ "type": "Feature", "properties": { "id": 12214161269, "name": "Đối diện sân golf nhà chờ bus Eco - Tòa Sky 2", "index_right": 3, "district": "Tỉnh Hưng Yên" }, "geometry": { "type": "Point", "coordinates": [ 105.9384782, 20.9533855 ] } },
{ "type": "Feature", "properties": { "id": 12214161270, "name": "Cạnh bệnh viện KUSUMI - ĐH y khoa Tokyo", "index_right": 2, "district": "Tỉnh Hưng Yên" }, "geometry": { "type": "Point", "coordinates": [ 105.9317743, 20.9629388 ] } },
{ "type": "Feature", "properties": { "id": 12214161270, "name": "Cạnh bệnh viện KUSUMI - ĐH y khoa Tokyo", "index_right": 3, "district": "Tỉnh Hưng Yên" }, "geometry": { "type": "Point", "coordinates": [ 105.9317743, 20.9629388 ] } },
{ "type": "Feature", "properties": { "id": 12549076365, "name": "CenterPoint - Làng Sake", "index_right": 2, "district": "Tỉnh Hưng Yên" }, "geometry": { "type": "Point", "coordinates": [ 105.9821081, 20.9438179 ] } },
{ "type": "Feature", "properties": { "id": 12549076365, "name": "CenterPoint - Làng Sake", "index_right": 3, "district": "Tỉnh Hưng Yên" }, "geometry": { "type": "Point", "coordinates": [ 105.9821081, 20.9438179 ] } },
{ "type": "Feature", "properties": { "id": 12709740266, "name": "Công viên VinWonder Wave Park", "index_right": 2, "district": "Tỉnh Hưng Yên" }, "geometry": { "type": "Point", "coordinates": [ 105.9817003, 20.9495623 ] } },
{ "type": "Feature", "properties": { "id": 12709740266, "name": "Công viên VinWonder Wave Park", "index_right": 3, "district": "Tỉnh Hưng Yên" }, "geometry": { "type": "Point", "coordinates": [ 105.9817003, 20.9495623 ] } },
{ "type": "Feature", "properties": { "id": 12709740267, "name": "K-Town - Đường San Hô", "index_right": 2, "district": "Tỉnh Hưng Yên" }, "geometry": { "type": "Point", "coordinates": [ 105.9796988, 20.9537805 ] } },
{ "type": "Feature", "properties": { "id": 12709740267, "name": "K-Town - Đường San Hô", "index_right": 3, "district": "Tỉnh Hưng Yên" }, "geometry": { "type": "Point", "coordinates": [ 105.9796988, 20.9537805 ] } }
]
}
