{
"type": "FeatureCollection",
"name": "Tỉnh_Bắc_Ninh",
"crs": { "type": "name", "properties": { "name": "urn:ogc:def:crs:OGC:1.3:CRS84" } },
"features": [
{ "type": "Feature", "properties": { "id": 6546439436, "name": "20L Chùa Dận", "index_right": 4, "district": "Tỉnh Bắc Ninh" }, "geometry": { "type": "Point", "coordinates": [ 105.9421893, 21.1079828 ] } },
{ "type": "Feature", "properties": { "id": 8259355461, "name": "366 Trần Phú - Từ Sơn", "index_right": 4, "district": "Tỉnh Bắc Ninh" }, "geometry": { "type": "Point", "coordinates": [ 105.9562923, 21.1162851 ] } },
{ "type": "Feature", "properties": { "id": 8259365744, "name": "500 Phố Mới - Đình Bảng - Từ Sơn", "index_right": 4, "district": "Tỉnh Bắc Ninh" }, "geometry": { "type": "Point", "coordinates": [ 105.951441, 21.1136741 ] } },
{ "type": "Feature", "properties": { "id": 8259365760, "name": "98 Trần Phú - Từ Sơn", "index_right": 4, "district": "Tỉnh Bắc Ninh" }, "geometry": { "type": "Point", "coordinates": [ 105.9619403, 21.1193474 ] } },
{ "type": "Feature", "properties": { "id": 8259365864, "name": "34 Minh Khai - Từ Sơn", "index_right": 4, "district": "Tỉnh Bắc Ninh" }, "geometry": { "type": "Point", "coordinates": [ 105.964741, 21.1209023 ] } },
{ "type": "Feature", "properties": { "id": 8995358228, "name": "Điểm đỗ xe buýt Dương Quang", "index_right": 4, "district": "Tỉnh Bắc Ninh" }, "geometry": { "type": "Point", "coordinates": [ 105.9994517, 21.0059176 ] } },
{ "type": "Feature", "properties": { "id": 9032745593, "name": "Trước kiot số 19B - Chợ vải Ninh Hiệp", "index_right": 4, "district": "Tỉnh Bắc Ninh" }, "geometry": { "type": "Point", "coordinates": [ 105.9396788, 21.0863992 ] } },
{ "type": "Feature", "properties": { "id": 11516139550, "name": "Đường vào Trường Cao đẳng Thủy sản", "index_right": 4, "district": "Tỉnh Bắc Ninh" }, "geometry": { "type": "Point", "coordinates": [ 105.9381923, 21.1048435 ] } },
{ "type": "Feature", "properties": { "id": 11516139551, "name": "Đối diện Phòng khám Đa khoa Tân Đức - Đình Bảng - Từ Sơn", "index_right": 4, "district": "Tỉnh Bắc Ninh" }, "geometry": { "type": "Point", "coordinates": [ 105.9459966, 21.1102468 ] } },
{ "type": "Feature", "properties": { "id": 11516139552, "name": "265 Phố Mới - Đình Bảng - Từ Sơn", "index_right": 4, "district": "Tỉnh Bắc Ninh" }, "geometry": { "type": "Point", "coordinates": [ 105.9515486, 21.1133557 ] } },
{ "type": "Feature", "properties": { "id": 11516139553, "name": "Bưu điện mới Từ Sơn", "index_right": 4, "district": "Tỉnh Bắc Ninh" }, "geometry": { "type": "Point", "coordinates": [ 105.9564669, 21.1161366 ] } },
{ "type": "Feature", "properties": { "id": 11516139554, "name": "57 Trần Phú - Từ Sơn", "index_right": 4, "district": "Tỉnh Bắc Ninh" }, "geometry": { "type": "Point", "coordinates": [ 105.9625773, 21.1194686 ] } },
{ "type": "Feature", "properties": { "id": 11516139555, "name": "185 Minh Khai - Từ Sơn", "index_right": 4, "district": "Tỉnh Bắc Ninh" }, "geometry": { "type": "Point", "coordinates": [ 105.9674596, 21.1222423 ] } },
{ "type": "Feature", "properties": { "id": 11516139557, "name": "Phòng khám Đa khoa Tân Đức - Đình Bảng - Từ Sơn", "index_right": 4, "district": "Tỉnh Bắc Ninh" }, "geometry": { "type": "Point", "coordinates": [ 105.945869, 21.1105693 ] } },
{ "type": "Feature", "properties": { "id": 11516139558, "name": "Cầu Chùa Dận", "index_right": 4, "district": "Tỉnh Bắc Ninh" }, "geometry": { "type": "Point", "coordinates": [ 105.9411826, 21.1076562 ] } },
{ "type": "Feature", "properties": { "id": 11516139559, "name": "Đối diện Trường Cao đẳng Thủy sản", "index_right": 4, "district": "Tỉnh Bắc Ninh" }, "geometry": { "type": "Point", "coordinates": [ 105.9383171, 21.1053011 ] } },
{ "type": "Feature", "properties": { "id": 11527469451, "name": "Bệnh viện Đa khoa Từ Sơn", "index_right": 4, "district": "Tỉnh Bắc Ninh" }, "geometry": { "type": "Point", "coordinates": [ 105.9726253, 21.1250549 ] } },
{ "type": "Feature", "properties": { "id": 11527469452, "name": "Viềng", "index_right": 4, "district": "Tỉnh Bắc Ninh" }, "geometry": { "type": "Point", "coordinates": [ 105.9788153, 21.128551 ] } },
{ "type": "Feature", "properties": { "id": 11527469453, "name": "Đối diện đường vào chùa Tiêu", "index_right": 4, "district": "Tỉnh Bắc Ninh" }, "geometry": { "type": "Point", "coordinates": [ 105.9880678, 21.1313983 ] } },
{ "type": "Feature", "properties": { "id": 11527469454, "name": "Đối diện cổng làng Tiêu Sơn", "index_right": 4, "district": "Tỉnh Bắc Ninh" }, "geometry": { "type": "Point", "coordinates": [ 105.9942428, 21.1321267 ] } },
{ "type": "Feature", "properties": { "id": 11527469455, "name": "Trước lối vào KCN Tiên Sơn 30m", "index_right": 4, "district": "Tỉnh Bắc Ninh" }, "geometry": { "type": "Point", "coordinates": [ 105.9956353, 21.1323853 ] } },
{ "type": "Feature", "properties": { "id": 11528179714, "name": "KCN Tiên Sơn", "index_right": 4, "district": "Tỉnh Bắc Ninh" }, "geometry": { "type": "Point", "coordinates": [ 105.9969391, 21.1329344 ] } },
{ "type": "Feature", "properties": { "id": 11528179715, "name": "Cổng làng Tiên Sơn", "index_right": 4, "district": "Tỉnh Bắc Ninh" }, "geometry": { "type": "Point", "coordinates": [ 105.9942541, 21.132417 ] } },
{ "type": "Feature", "properties": { "id": 11528179716, "name": "Đường vào chùa Tiêu", "index_right": 4, "district": "Tỉnh Bắc Ninh" }, "geometry": { "type": "Point", "coordinates": [ 105.9891832, 21.1318007 ] } },
{ "type": "Feature", "properties": { "id": 11528179717, "name": "Đối diện chợ Vĩnh Kiều", "index_right": 4, "district": "Tỉnh Bắc Ninh" }, "geometry": { "type": "Point", "coordinates": [ 105.9787432, 21.1288764 ] } },
{ "type": "Feature", "properties": { "id": 11528179718, "name": "Đối diện Bệnh viện Đa khoa Từ Sơn", "index_right": 4, "district": "Tỉnh Bắc Ninh" }, "geometry": { "type": "Point", "coordinates": [ 105.9713515, 21.1246704 ] } },
{ "type": "Feature", "properties": { "id": 12694679057, "name": "Dabaco Từ Sơn", "index_right": 4, "district": "Tỉnh Bắc Ninh" }, "geometry": { "type": "Point", "coordinates": [ 105.9624827, 21.1032825 ] } },
{ "type": "Feature", "properties": { "id": 12694679058, "name": "Khu phố Đại Đình", "index_right": 4, "district": "Tỉnh Bắc Ninh" }, "geometry": { "type": "Point", "coordinates": [ 105.9626146, 21.1036128 ] } },
{ "type": "Feature", "properties": { "id": 12696818060, "name": "Đối diện Đền Đô", "index_right": 4, "district": "Tỉnh Bắc Ninh" }, "geometry": { "type": "Point", "coordinates": [ 105.9598554, 21.1092623 ] } },
{ "type": "Feature", "properties": { "id": 12696818061, "name": "Đền Đô", "index_right": 4, "district": "Tỉnh Bắc Ninh" }, "geometry": { "type": "Point", "coordinates": [ 105.9595892, 21.1091639 ] } },
{ "type": "Feature", "properties": { "id": 12996065226, "name": "Không tên", "index_right": 4, "district": "Tỉnh Bắc Ninh" }, "geometry": { "type": "Point", "coordinates": [ 105.9545401, 21.1932158 ] } },
{ "type": "Feature", "properties": { "id": 12996110501, "name": "Không tên", "index_right": 4, "district": "Tỉnh Bắc Ninh" }, "geometry": { "type": "Point", "coordinates": [ 105.9560714, 21.1998329 ] } },
{ "type": "Feature", "properties": { "id": 12996110502, "name": "Không tên", "index_right": 4, "district": "Tỉnh Bắc Ninh" }, "geometry": { "type": "Point", "coordinates": [ 105.9554915, 21.197568 ] } },
{ "type": "Feature", "properties": { "id": 12996110514, "name": "Không tên", "index_right": 4, "district": "Tỉnh Bắc Ninh" }, "geometry": { "type": "Point", "coordinates": [ 105.9555536, 21.1970175 ] } },
{ "type": "Feature", "properties": { "id": 12996110515, "name": "Không tên", "index_right": 4, "district": "Tỉnh Bắc Ninh" }, "geometry": { "type": "Point", "coordinates": [ 105.9589237, 21.1935056 ] } },
{ "type": "Feature", "properties": { "id": 12996110516, "name": "Không tên", "index_right": 4, "district": "Tỉnh Bắc Ninh" }, "geometry": { "type": "Point", "coordinates": [ 105.9596239, 21.1935769 ] } },
{ "type": "Feature", "properties": { "id": 13039476453, "name": "Không tên", "index_right": 4, "district": "Tỉnh Bắc Ninh" }, "geometry": { "type": "Point", "coordinates": [ 105.9988668, 21.1186319 ] } },
{ "type": "Feature", "properties": { "id": 13039476486, "name": "Không tên", "index_right": 4, "district": "Tỉnh Bắc Ninh" }, "geometry": { "type": "Point", "coordinates": [ 105.9986067, 21.1229642 ] } },
{ "type": "Feature", "properties": { "id": 13039476487, "name": "Không tên", "index_right": 4, "district": "Tỉnh Bắc Ninh" }, "geometry": { "type": "Point", "coordinates": [ 105.9981591, 21.1238718 ] } },
{ "type": "Feature", "properties": { "id": 13039510063, "name": "Không tên", "index_right": 4, "district": "Tỉnh Bắc Ninh" }, "geometry": { "type": "Point", "coordinates": [ 105.9957983, 21.1315976 ] } },
{ "type": "Feature", "properties": { "id": 13039510064, "name": "Không tên", "index_right": 4, "district": "Tỉnh Bắc Ninh" }, "geometry": { "type": "Point", "coordinates": [ 105.9957657, 21.1314239 ] } },
{ "type": "Feature", "properties": { "id": 13041512666, "name": "Không tên", "index_right": 4, "district": "Tỉnh Bắc Ninh" }, "geometry": { "type": "Point", "coordinates": [ 105.9577736, 21.149236 ] } },
{ "type": "Feature", "properties": { "id": 13041512667, "name": "Không tên", "index_right": 4, "district": "Tỉnh Bắc Ninh" }, "geometry": { "type": "Point", "coordinates": [ 105.9579745, 21.1492886 ] } },
{ "type": "Feature", "properties": { "id": 13041538598, "name": "Không tên", "index_right": 4, "district": "Tỉnh Bắc Ninh" }, "geometry": { "type": "Point", "coordinates": [ 105.9597361, 21.1438976 ] } },
{ "type": "Feature", "properties": { "id": 13041538607, "name": "Không tên", "index_right": 4, "district": "Tỉnh Bắc Ninh" }, "geometry": { "type": "Point", "coordinates": [ 105.9598126, 21.1442496 ] } },
{ "type": "Feature", "properties": { "id": 13041538687, "name": "Không tên", "index_right": 4, "district": "Tỉnh Bắc Ninh" }, "geometry": { "type": "Point", "coordinates": [ 105.9641235, 21.1285191 ] } },
{ "type": "Feature", "properties": { "id": 13041538689, "name": "Không tên", "index_right": 4, "district": "Tỉnh Bắc Ninh" }, "geometry": { "type": "Point", "coordinates": [ 105.9643024, 21.1284027 ] } },
{ "type": "Feature", "properties": { "id": 13043137242, "name": "Cầu Đò Lo", "index_right": 4, "district": "Tỉnh Bắc Ninh" }, "geometry": { "type": "Point", "coordinates": [ 105.9112986, 21.2004417 ] } },
{ "type": "Feature", "properties": { "id": 13043137243, "name": "Cầu Đò Lo", "index_right": 4, "district": "Tỉnh Bắc Ninh" }, "geometry": { "type": "Point", "coordinates": [ 105.9116591, 21.2002386 ] } },
{ "type": "Feature", "properties": { "id": 13043137244, "name": "Không tên", "index_right": 4, "district": "Tỉnh Bắc Ninh" }, "geometry": { "type": "Point", "coordinates": [ 105.9165343, 21.199982 ] } },
{ "type": "Feature", "properties": { "id": 13043137245, "name": "Không tên", "index_right": 4, "district": "Tỉnh Bắc Ninh" }, "geometry": { "type": "Point", "coordinates": [ 105.9175211, 21.1997005 ] } },
{ "type": "Feature", "properties": { "id": 13043137246, "name": "Không tên", "index_right": 4, "district": "Tỉnh Bắc Ninh" }, "geometry": { "type": "Point", "coordinates": [ 105.9213559, 21.199362 ] } },
{ "type": "Feature", "properties": { "id": 13043137247, "name": "Không tên", "index_right": 4, "district": "Tỉnh Bắc Ninh" }, "geometry": { "type": "Point", "coordinates": [ 105.9227394, 21.1994005 ] } },
{ "type": "Feature", "properties": { "id": 13043144319, "name": "Không tên", "index_right": 4, "district": "Tỉnh Bắc Ninh" }, "geometry": { "type": "Point", "coordinates": [ 105.9546986, 21.1897357 ] } },
{ "type": "Feature", "properties": { "id": 13043144460, "name": "Không tên", "index_right": 4, "district": "Tỉnh Bắc Ninh" }, "geometry": { "type": "Point", "coordinates": [ 105.9982072, 21.1893047 ] } },
{ "type": "Feature", "properties": { "id": 13043144466, "name": "Không tên", "index_right": 4, "district": "Tỉnh Bắc Ninh" }, "geometry": { "type": "Point", "coordinates": [ 105.9980186, 21.1891768 ] } },
{ "type": "Feature", "properties": { "id": 13043144467, "name": "Không tên", "index_right": 4, "district": "Tỉnh Bắc Ninh" }, "geometry": { "type": "Point", "coordinates": [ 105.9886186, 21.189816 ] } },
{ "type": "Feature", "properties": { "id": 13043144468, "name": "Không tên", "index_right": 4, "district": "Tỉnh Bắc Ninh" }, "geometry": { "type": "Point", "coordinates": [ 105.9885519, 21.1896871 ] } },
{ "type": "Feature", "properties": { "id": 13043144469, "name": "Không tên", "index_right": 4, "district": "Tỉnh Bắc Ninh" }, "geometry": { "type": "Point", "coordinates": [ 105.9765844, 21.190533 ] } },
{ "type": "Feature", "properties": { "id": 13043144470, "name": "Không tên", "index_right": 4, "district": "Tỉnh Bắc Ninh" }, "geometry": { "type": "Point", "coordinates": [ 105.9759608, 21.1907364 ] } },
{ "type": "Feature", "properties": { "id": 13043144485, "name": "Không tên", "index_right": 4, "district": "Tỉnh Bắc Ninh" }, "geometry": { "type": "Point", "coordinates": [ 105.9640465, 21.1925905 ] } },
{ "type": "Feature", "properties": { "id": 13043144486, "name": "Không tên", "index_right": 4, "district": "Tỉnh Bắc Ninh" }, "geometry": { "type": "Point", "coordinates": [ 105.9639049, 21.1927185 ] } },
{ "type": "Feature", "properties": { "id": 13043144492, "name": "Không tên", "index_right": 4, "district": "Tỉnh Bắc Ninh" }, "geometry": { "type": "Point", "coordinates": [ 105.955798, 21.1940393 ] } },
{ "type": "Feature", "properties": { "id": 13043144493, "name": "Không tên", "index_right": 4, "district": "Tỉnh Bắc Ninh" }, "geometry": { "type": "Point", "coordinates": [ 105.9557948, 21.1942349 ] } },
{ "type": "Feature", "properties": { "id": 13043144503, "name": "Không tên", "index_right": 4, "district": "Tỉnh Bắc Ninh" }, "geometry": { "type": "Point", "coordinates": [ 105.954474, 21.1945015 ] } },
{ "type": "Feature", "properties": { "id": 13043144510, "name": "Không tên", "index_right": 4, "district": "Tỉnh Bắc Ninh" }, "geometry": { "type": "Point", "coordinates": [ 105.9521224, 21.1952821 ] } },
{ "type": "Feature", "properties": { "id": 13043144591, "name": "Không tên", "index_right": 4, "district": "Tỉnh Bắc Ninh" }, "geometry": { "type": "Point", "coordinates": [ 105.9403068, 21.1969832 ] } },
{ "type": "Feature", "properties": { "id": 13043144592, "name": "Không tên", "index_right": 4, "district": "Tỉnh Bắc Ninh" }, "geometry": { "type": "Point", "coordinates": [ 105.9393639, 21.1969291 ] } },
{ "type": "Feature", "properties": { "id": 13043144593, "name": "Không tên", "index_right": 4, "district": "Tỉnh Bắc Ninh" }, "geometry": { "type": "Point", "coordinates": [ 105.9340639, 21.1978631 ] } },
{ "type": "Feature", "properties": { "id": 13043144594, "name": "Không tên", "index_right": 4, "district": "Tỉnh Bắc Ninh" }, "geometry": { "type": "Point", "coordinates": [ 105.93277, 21.1978539 ] } },
{ "type": "Feature", "properties": { "id": 13043144595, "name": "Không tên", "index_right": 4, "district": "Tỉnh Bắc Ninh" }, "geometry": { "type": "Point", "coordinates": [ 105.92902, 21.1985374 ] } },
{ "type": "Feature", "properties": { "id": 13043144596, "name": "Không tên", "index_right": 4, "district": "Tỉnh Bắc Ninh" }, "geometry": { "type": "Point", "coordinates": [ 105.9281553, 21.1984772 ] } },
{ "type": "Feature", "properties": { "id": 13044609988, "name": "Phù Chẩn", "index_right": 4, "district": "Tỉnh Bắc Ninh" }, "geometry": { "type": "Point", "coordinates": [ 105.9673971, 21.093284 ] } },
{ "type": "Feature", "properties": { "id": 13044609989, "name": "Phù Chẩn", "index_right": 4, "district": "Tỉnh Bắc Ninh" }, "geometry": { "type": "Point", "coordinates": [ 105.967314, 21.0935783 ] } },
{ "type": "Feature", "properties": { "id": 13044609997, "name": "Rích Gạo - KCN VSIP", "index_right": 4, "district": "Tỉnh Bắc Ninh" }, "geometry": { "type": "Point", "coordinates": [ 105.9665168, 21.0881111 ] } },
{ "type": "Feature", "properties": { "id": 13179448583, "name": "Không tên", "index_right": 4, "district": "Tỉnh Bắc Ninh" }, "geometry": { "type": "Point", "coordinates": [ 105.9604193, 21.2054232 ] } },
{ "type": "Feature", "properties": { "id": 13179583565, "name": "Không tên", "index_right": 4, "district": "Tỉnh Bắc Ninh" }, "geometry": { "type": "Point", "coordinates": [ 105.9556145, 21.183768 ] } },
{ "type": "Feature", "properties": { "id": 13179594084, "name": "Không tên", "index_right": 4, "district": "Tỉnh Bắc Ninh" }, "geometry": { "type": "Point", "coordinates": [ 105.9628067, 21.2085019 ] } },
{ "type": "Feature", "properties": { "id": 13179594113, "name": "Không tên", "index_right": 4, "district": "Tỉnh Bắc Ninh" }, "geometry": { "type": "Point", "coordinates": [ 105.9831415, 21.2219934 ] } },
{ "type": "Feature", "properties": { "id": 13179594122, "name": "Không tên", "index_right": 4, "district": "Tỉnh Bắc Ninh" }, "geometry": { "type": "Point", "coordinates": [ 105.976756, 21.2115628 ] } },
{ "type": "Feature", "properties": { "id": 13179594129, "name": "Không tên", "index_right": 4, "district": "Tỉnh Bắc Ninh" }, "geometry": { "type": "Point", "coordinates": [ 105.9769255, 21.2115236 ] } },
{ "type": "Feature", "properties": { "id": 13179594130, "name": "Không tên", "index_right": 4, "district": "Tỉnh Bắc Ninh" }, "geometry": { "type": "Point", "coordinates": [ 105.9746006, 21.2105044 ] } },
{ "type": "Feature", "properties": { "id": 13179594171, "name": "Không tên", "index_right": 4, "district": "Tỉnh Bắc Ninh" }, "geometry": { "type": "Point", "coordinates": [ 105.9736855, 21.210684 ] } },
{ "type": "Feature", "properties": { "id": 13179594217, "name": "Không tên", "index_right": 4, "district": "Tỉnh Bắc Ninh" }, "geometry": { "type": "Point", "coordinates": [ 105.9710177, 21.2113952 ] } },
{ "type": "Feature", "properties": { "id": 13179594218, "name": "Không tên", "index_right": 4, "district": "Tỉnh Bắc Ninh" }, "geometry": { "type": "Point", "coordinates": [ 105.9702383, 21.2118049 ] } },
{ "type": "Feature", "properties": { "id": 13179594219, "name": "Không tên", "index_right": 4, "district": "Tỉnh Bắc Ninh" }, "geometry": { "type": "Point", "coordinates": [ 105.9658411, 21.2125159 ] } },
{ "type": "Feature", "properties": { "id": 13179594293, "name": "Không tên", "index_right": 4, "district": "Tỉnh Bắc Ninh" }, "geometry": { "type": "Point", "coordinates": [ 105.9567953, 21.1718548 ] } },
{ "type": "Feature", "properties": { "id": 13179594294, "name": "Không tên", "index_right": 4, "district": "Tỉnh Bắc Ninh" }, "geometry": { "type": "Point", "coordinates": [ 105.9566593, 21.1720805 ] } },
{ "type": "Feature", "properties": { "id": 13179594300, "name": "Không tên", "index_right": 4, "district": "Tỉnh Bắc Ninh" }, "geometry": { "type": "Point", "coordinates": [ 105.9563985, 21.1759431 ] } },
{ "type": "Feature", "properties": { "id": 13179594301, "name": "Không tên", "index_right": 4, "district": "Tỉnh Bắc Ninh" }, "geometry": { "type": "Point", "coordinates": [ 105.9563273, 21.1756528 ] } },
{ "type": "Feature", "properties": { "id": 13179594332, "name": "Không tên", "index_right": 4, "district": "Tỉnh Bắc Ninh" }, "geometry": { "type": "Point", "coordinates": [ 105.9561537, 21.1783923 ] } },
{ "type": "Feature", "properties": { "id": 13179594333, "name": "Không tên", "index_right": 4, "district": "Tỉnh Bắc Ninh" }, "geometry": { "type": "Point", "coordinates": [ 105.9559737, 21.1789098 ] } },
{ "type": "Feature", "properties": { "id": 13179594334, "name": "Không tên", "index_right": 4, "district": "Tỉnh Bắc Ninh" }, "geometry": { "type": "Point", "coordinates": [ 105.9554375, 21.1834975 ] } }
]
}
