{
"type": "FeatureCollection",
"name": "Xã_Quang_Minh",
"crs": { "type": "name", "properties": { "name": "urn:ogc:def:crs:OGC:1.3:CRS84" } },
"features": [
{ "type": "Feature", "properties": { "id": 8831420049, "name": "Đối diện KCN Quang Minh (Melinh Plaza) - Km 8+100 Cao tốc BTL-NB", "index_right": 67, "district": "Xã Quang Minh" }, "geometry": { "type": "Point", "coordinates": [ 105.7806793, 21.1865031 ] } },
{ "type": "Feature", "properties": { "id": 8831420050, "name": "Nhà máy tấm lợp VitMetal- Km 8+850 Cao tốc BTL-NB", "index_right": 67, "district": "Xã Quang Minh" }, "geometry": { "type": "Point", "coordinates": [ 105.7808113, 21.1925473 ] } },
{ "type": "Feature", "properties": { "id": 8831420062, "name": "Đối diện nhà máy tấm lợp VitMetal- Km 8+700 Cao tốc BTL-NB", "index_right": 67, "district": "Xã Quang Minh" }, "geometry": { "type": "Point", "coordinates": [ 105.7804888, 21.1912072 ] } },
{ "type": "Feature", "properties": { "id": 8831420063, "name": "KCN Quang Minh - Km 8+150 Cao tốc BTL-NB", "index_right": 67, "district": "Xã Quang Minh" }, "geometry": { "type": "Point", "coordinates": [ 105.7802329, 21.1862222 ] } },
{ "type": "Feature", "properties": { "id": 9006720520, "name": "Qua cổng làng Thượng Lệ 50m", "index_right": 67, "district": "Xã Quang Minh" }, "geometry": { "type": "Point", "coordinates": [ 105.7368897, 21.1721769 ] } },
{ "type": "Feature", "properties": { "id": 9006720521, "name": "Đối Diện Cổng Làng Thượng Lệ", "index_right": 67, "district": "Xã Quang Minh" }, "geometry": { "type": "Point", "coordinates": [ 105.7358983, 21.1726611 ] } },
{ "type": "Feature", "properties": { "id": 9006720522, "name": "Ngân hàng Viettinbank Mê Linh", "index_right": 67, "district": "Xã Quang Minh" }, "geometry": { "type": "Point", "coordinates": [ 105.7313322, 21.1753205 ] } },
{ "type": "Feature", "properties": { "id": 9006720523, "name": "Đối Diện Ngân Hàng Viettinbank", "index_right": 67, "district": "Xã Quang Minh" }, "geometry": { "type": "Point", "coordinates": [ 105.7305481, 21.175693 ] } },
{ "type": "Feature", "properties": { "id": 9006720524, "name": "Trước đối diện Trạm y tế xã Đại Thịnh 30m", "index_right": 67, "district": "Xã Quang Minh" }, "geometry": { "type": "Point", "coordinates": [ 105.7282218, 21.1784007 ] } },
{ "type": "Feature", "properties": { "id": 9006720525, "name": "Trạm y tế xã Đại Thịnh", "index_right": 67, "district": "Xã Quang Minh" }, "geometry": { "type": "Point", "coordinates": [ 105.7273266, 21.1792298 ] } },
{ "type": "Feature", "properties": { "id": 9006720526, "name": "Trước đối diện lối rẽ vào UBND huyện Mê Linh 70m", "index_right": 67, "district": "Xã Quang Minh" }, "geometry": { "type": "Point", "coordinates": [ 105.7230584, 21.1854812 ] } },
{ "type": "Feature", "properties": { "id": 9006720527, "name": "Qua lối vào khu hành chính huyện Mê Linh 100m", "index_right": 67, "district": "Xã Quang Minh" }, "geometry": { "type": "Point", "coordinates": [ 105.722788, 21.1854692 ] } },
{ "type": "Feature", "properties": { "id": 9006720528, "name": "Đối diện cổng làng Nội Đồng trước", "index_right": 67, "district": "Xã Quang Minh" }, "geometry": { "type": "Point", "coordinates": [ 105.7198932, 21.188006 ] } },
{ "type": "Feature", "properties": { "id": 9006720529, "name": "Trước cổng làng Nội Đồng 1 70m", "index_right": 67, "district": "Xã Quang Minh" }, "geometry": { "type": "Point", "coordinates": [ 105.7194637, 21.1881137 ] } },
{ "type": "Feature", "properties": { "id": 11527469435, "name": "Kim Hoa (Mê Linh) - Tuyến 53B", "index_right": 67, "district": "Xã Quang Minh" }, "geometry": { "type": "Point", "coordinates": [ 105.7439214, 21.2209572 ] } },
{ "type": "Feature", "properties": { "id": 11527469436, "name": "Qua đối diện Thế giới Sữa tốt, đường Ngô Miên 30m", "index_right": 67, "district": "Xã Quang Minh" }, "geometry": { "type": "Point", "coordinates": [ 105.7478935, 21.2174605 ] } },
{ "type": "Feature", "properties": { "id": 11527469437, "name": "Trường Trung học phổ thông Quang Minh", "index_right": 67, "district": "Xã Quang Minh" }, "geometry": { "type": "Point", "coordinates": [ 105.755029, 21.211929 ] } },
{ "type": "Feature", "properties": { "id": 11527469438, "name": "Trường Trung học cơ sở Chi Đông", "index_right": 67, "district": "Xã Quang Minh" }, "geometry": { "type": "Point", "coordinates": [ 105.7524221, 21.2065799 ] } },
{ "type": "Feature", "properties": { "id": 11527469439, "name": "Đối diện Bưu điện huyện Mê Linh", "index_right": 67, "district": "Xã Quang Minh" }, "geometry": { "type": "Point", "coordinates": [ 105.754139, 21.2017685 ] } },
{ "type": "Feature", "properties": { "id": 11527469440, "name": "Đối diện công ty Cổ phần Thông Minh MK", "index_right": 67, "district": "Xã Quang Minh" }, "geometry": { "type": "Point", "coordinates": [ 105.7623904, 21.1948761 ] } },
{ "type": "Feature", "properties": { "id": 11527469441, "name": "Đối diện tổng công ty LIAMA", "index_right": 67, "district": "Xã Quang Minh" }, "geometry": { "type": "Point", "coordinates": [ 105.7712388, 21.1875128 ] } },
{ "type": "Feature", "properties": { "id": 11527469442, "name": "Công ty CP thiết bị xây dựng La Thành", "index_right": 67, "district": "Xã Quang Minh" }, "geometry": { "type": "Point", "coordinates": [ 105.7756886, 21.185886 ] } },
{ "type": "Feature", "properties": { "id": 11527469443, "name": "Thế giới Sữa tốt, đường Ngô Miên", "index_right": 67, "district": "Xã Quang Minh" }, "geometry": { "type": "Point", "coordinates": [ 105.7479447, 21.2172511 ] } },
{ "type": "Feature", "properties": { "id": 11527469444, "name": "UBND Thị trấn Chi Đông", "index_right": 67, "district": "Xã Quang Minh" }, "geometry": { "type": "Point", "coordinates": [ 105.7551218, 21.2125145 ] } },
{ "type": "Feature", "properties": { "id": 11527469445, "name": "Đối diện trường Trung học cơ sở Chi Đông", "index_right": 67, "district": "Xã Quang Minh" }, "geometry": { "type": "Point", "coordinates": [ 105.7523931, 21.2068087 ] } },
{ "type": "Feature", "properties": { "id": 11527469446, "name": "Công ty TNHH MTV", "index_right": 67, "district": "Xã Quang Minh" }, "geometry": { "type": "Point", "coordinates": [ 105.7542481, 21.2013069 ] } },
{ "type": "Feature", "properties": { "id": 11527469447, "name": "Công ty Cổ phần Thông Minh MK", "index_right": 67, "district": "Xã Quang Minh" }, "geometry": { "type": "Point", "coordinates": [ 105.7622534, 21.194626 ] } },
{ "type": "Feature", "properties": { "id": 11527469448, "name": "Tổng công ty LIAMA", "index_right": 67, "district": "Xã Quang Minh" }, "geometry": { "type": "Point", "coordinates": [ 105.7710547, 21.1873025 ] } },
{ "type": "Feature", "properties": { "id": 11527469449, "name": "Công ty CP VNSTEEL Thăng Long", "index_right": 67, "district": "Xã Quang Minh" }, "geometry": { "type": "Point", "coordinates": [ 105.7755022, 21.1856201 ] } },
{ "type": "Feature", "properties": { "id": 11527469450, "name": "Trước 100m ngã ba Quang Minh", "index_right": 67, "district": "Xã Quang Minh" }, "geometry": { "type": "Point", "coordinates": [ 105.7791538, 21.1854741 ] } }
]
}
