{
"type": "FeatureCollection",
"name": "Xã_Ô_Diên",
"crs": { "type": "name", "properties": { "name": "urn:ogc:def:crs:OGC:1.3:CRS84" } },
"features": [
{ "type": "Feature", "properties": { "id": 8911997209, "name": "Tân Lập - Tuyến 29", "index_right": 121, "district": "Xã Ô Diên" }, "geometry": { "type": "Point", "coordinates": [ 105.7099279, 21.0779629 ] } },
{ "type": "Feature", "properties": { "id": 8911997210, "name": "Cách ngã 4 Trạm Trôi 250m", "index_right": 121, "district": "Xã Ô Diên" }, "geometry": { "type": "Point", "coordinates": [ 105.7086086, 21.0723543 ] } },
{ "type": "Feature", "properties": { "id": 8971521319, "name": "Khu đô thị Tân Tây Đô", "index_right": 121, "district": "Xã Ô Diên" }, "geometry": { "type": "Point", "coordinates": [ 105.7030275, 21.0726308 ] } },
{ "type": "Feature", "properties": { "id": 9000718249, "name": "UBND Xã Liên Trung", "index_right": 121, "district": "Xã Ô Diên" }, "geometry": { "type": "Point", "coordinates": [ 105.7203216, 21.1061336 ] } },
{ "type": "Feature", "properties": { "id": 9000718250, "name": "Đối diện UBND Xã Liên Trung", "index_right": 121, "district": "Xã Ô Diên" }, "geometry": { "type": "Point", "coordinates": [ 105.7198663, 21.1062957 ] } },
{ "type": "Feature", "properties": { "id": 9000718255, "name": "Làng Quý", "index_right": 121, "district": "Xã Ô Diên" }, "geometry": { "type": "Point", "coordinates": [ 105.7175891, 21.1083037 ] } },
{ "type": "Feature", "properties": { "id": 9000718256, "name": "Đối diện Làng Quý", "index_right": 121, "district": "Xã Ô Diên" }, "geometry": { "type": "Point", "coordinates": [ 105.7170682, 21.1085885 ] } },
{ "type": "Feature", "properties": { "id": 9000718257, "name": "Qua trường Trung học cơ sở Liên Hà", "index_right": 121, "district": "Xã Ô Diên" }, "geometry": { "type": "Point", "coordinates": [ 105.7135487, 21.1122197 ] } },
{ "type": "Feature", "properties": { "id": 9000718258, "name": "Gần đối diện trường Trung học cơ sở Liên Hà", "index_right": 121, "district": "Xã Ô Diên" }, "geometry": { "type": "Point", "coordinates": [ 105.7133036, 21.1122788 ] } },
{ "type": "Feature", "properties": { "id": 9000718259, "name": "Làng Tổ - xã Liên Hồng", "index_right": 121, "district": "Xã Ô Diên" }, "geometry": { "type": "Point", "coordinates": [ 105.7053455, 21.123512 ] } },
{ "type": "Feature", "properties": { "id": 9000718261, "name": "Đối diện làng Tổ - xã Liên Hồng", "index_right": 121, "district": "Xã Ô Diên" }, "geometry": { "type": "Point", "coordinates": [ 105.7057582, 21.1230434 ] } },
{ "type": "Feature", "properties": { "id": 9000718262, "name": "Đối diện làng Hữu Cước (gần đối diện điếm canh đê số 15)", "index_right": 121, "district": "Xã Ô Diên" }, "geometry": { "type": "Point", "coordinates": [ 105.7032932, 21.1244395 ] } },
{ "type": "Feature", "properties": { "id": 9000718263, "name": "Làng Hữu Cước (gần điếm canh đê số 15)", "index_right": 121, "district": "Xã Ô Diên" }, "geometry": { "type": "Point", "coordinates": [ 105.7036728, 21.1242128 ] } },
{ "type": "Feature", "properties": { "id": 9000718265, "name": "Xóm Bắc - Xã Liên Hồng", "index_right": 121, "district": "Xã Ô Diên" }, "geometry": { "type": "Point", "coordinates": [ 105.7005079, 21.1254505 ] } },
{ "type": "Feature", "properties": { "id": 9000718266, "name": "Đối diện xóm Bắc - Xã Liên Hồng", "index_right": 121, "district": "Xã Ô Diên" }, "geometry": { "type": "Point", "coordinates": [ 105.7004708, 21.1253315 ] } },
{ "type": "Feature", "properties": { "id": 11125199070, "name": "Cổng làng Ngọc Trúc", "index_right": 121, "district": "Xã Ô Diên" }, "geometry": { "type": "Point", "coordinates": [ 105.7239824, 21.0884814 ] } },
{ "type": "Feature", "properties": { "id": 11125199071, "name": "Đối diện Trường Cao đẳng Công nghệ và Thương mại Hà Nội", "index_right": 121, "district": "Xã Ô Diên" }, "geometry": { "type": "Point", "coordinates": [ 105.7186366, 21.0885767 ] } },
{ "type": "Feature", "properties": { "id": 11125199072, "name": "Đối diện Công ty Cổ phần Kính An Phát", "index_right": 121, "district": "Xã Ô Diên" }, "geometry": { "type": "Point", "coordinates": [ 105.711777, 21.0894638 ] } },
{ "type": "Feature", "properties": { "id": 11125199073, "name": "Đối diện sân bóng Tân Hội", "index_right": 121, "district": "Xã Ô Diên" }, "geometry": { "type": "Point", "coordinates": [ 105.7080353, 21.0929148 ] } },
{ "type": "Feature", "properties": { "id": 11125199074, "name": "Đối diện Vườn hoa trung tâm xã Tân Hội", "index_right": 121, "district": "Xã Ô Diên" }, "geometry": { "type": "Point", "coordinates": [ 105.7029221, 21.094516 ] } },
{ "type": "Feature", "properties": { "id": 11126935376, "name": "Vườn hoa trung tâm xã Tân Hội", "index_right": 121, "district": "Xã Ô Diên" }, "geometry": { "type": "Point", "coordinates": [ 105.7029421, 21.0944166 ] } },
{ "type": "Feature", "properties": { "id": 11126935377, "name": "Sân bóng xã Tân Hội", "index_right": 121, "district": "Xã Ô Diên" }, "geometry": { "type": "Point", "coordinates": [ 105.7083495, 21.0925585 ] } },
{ "type": "Feature", "properties": { "id": 11126935378, "name": "Công ty Cổ phần Kính An Phát", "index_right": 121, "district": "Xã Ô Diên" }, "geometry": { "type": "Point", "coordinates": [ 105.7122956, 21.0888938 ] } },
{ "type": "Feature", "properties": { "id": 11126935379, "name": "Trường Cao đẳng Công nghệ và Thương mại Hà Nội", "index_right": 121, "district": "Xã Ô Diên" }, "geometry": { "type": "Point", "coordinates": [ 105.7185481, 21.0885222 ] } },
{ "type": "Feature", "properties": { "id": 11126935380, "name": "Qua làng Ngọc Trúc", "index_right": 121, "district": "Xã Ô Diên" }, "geometry": { "type": "Point", "coordinates": [ 105.7236796, 21.0884208 ] } },
{ "type": "Feature", "properties": { "id": 12098837661, "name": "Qua 30m đối diện cổng làng Hạnh Đàn", "index_right": 121, "district": "Xã Ô Diên" }, "geometry": { "type": "Point", "coordinates": [ 105.7101199, 21.0770534 ] } },
{ "type": "Feature", "properties": { "id": 13166965905, "name": "Nhà văn hóa thôn Thượng Trì", "index_right": 121, "district": "Xã Ô Diên" }, "geometry": { "type": "Point", "coordinates": [ 105.7084758, 21.1176261 ] } },
{ "type": "Feature", "properties": { "id": 13166965906, "name": "Đối diện nhà văn hóa thôn Thượng Trì", "index_right": 121, "district": "Xã Ô Diên" }, "geometry": { "type": "Point", "coordinates": [ 105.7088941, 21.1169633 ] } }
]
}
