{
"type": "FeatureCollection",
"name": "Xã_Gia_Lâm",
"crs": { "type": "name", "properties": { "name": "urn:ogc:def:crs:OGC:1.3:CRS84" } },
"features": [
{ "type": "Feature", "properties": { "id": 481836768, "name": "Cổng Ga Phú Thị", "index_right": 27, "district": "Xã Gia Lâm" }, "geometry": { "type": "Point", "coordinates": [ 105.9625288, 21.0040694 ] } },
{ "type": "Feature", "properties": { "id": 481836768, "name": "Cổng Ga Phú Thị", "index_right": 28, "district": "Xã Gia Lâm" }, "geometry": { "type": "Point", "coordinates": [ 105.9625288, 21.0040694 ] } },
{ "type": "Feature", "properties": { "id": 481836788, "name": "Gần cầu vượt 4 Phú Thị", "index_right": 27, "district": "Xã Gia Lâm" }, "geometry": { "type": "Point", "coordinates": [ 105.9652852, 21.0014071 ] } },
{ "type": "Feature", "properties": { "id": 481836788, "name": "Gần cầu vượt 4 Phú Thị", "index_right": 28, "district": "Xã Gia Lâm" }, "geometry": { "type": "Point", "coordinates": [ 105.9652852, 21.0014071 ] } },
{ "type": "Feature", "properties": { "id": 481836961, "name": "Qua cầu vượt 4 Phú Thị", "index_right": 27, "district": "Xã Gia Lâm" }, "geometry": { "type": "Point", "coordinates": [ 105.9655508, 21.0014841 ] } },
{ "type": "Feature", "properties": { "id": 481836961, "name": "Qua cầu vượt 4 Phú Thị", "index_right": 28, "district": "Xã Gia Lâm" }, "geometry": { "type": "Point", "coordinates": [ 105.9655508, 21.0014841 ] } },
{ "type": "Feature", "properties": { "id": 481837399, "name": "Gần ngã ba Cầu Thanh Trì - Nguyễn Đức Thuận", "index_right": 27, "district": "Xã Gia Lâm" }, "geometry": { "type": "Point", "coordinates": [ 105.9321231, 21.0237373 ] } },
{ "type": "Feature", "properties": { "id": 481837399, "name": "Gần ngã ba Cầu Thanh Trì - Nguyễn Đức Thuận", "index_right": 28, "district": "Xã Gia Lâm" }, "geometry": { "type": "Point", "coordinates": [ 105.9321231, 21.0237373 ] } },
{ "type": "Feature", "properties": { "id": 2517061523, "name": "Đối diện bưu điện Trâu Quỳ - Nguyễn Đức Thuận", "index_right": 27, "district": "Xã Gia Lâm" }, "geometry": { "type": "Point", "coordinates": [ 105.9349919, 21.0220897 ] } },
{ "type": "Feature", "properties": { "id": 2517061523, "name": "Đối diện bưu điện Trâu Quỳ - Nguyễn Đức Thuận", "index_right": 28, "district": "Xã Gia Lâm" }, "geometry": { "type": "Point", "coordinates": [ 105.9349919, 21.0220897 ] } },
{ "type": "Feature", "properties": { "id": 5152792878, "name": "Học viện Nông nghiệp Việt Nam", "index_right": 27, "district": "Xã Gia Lâm" }, "geometry": { "type": "Point", "coordinates": [ 105.9328057, 21.0049814 ] } },
{ "type": "Feature", "properties": { "id": 5152792878, "name": "Học viện Nông nghiệp Việt Nam", "index_right": 28, "district": "Xã Gia Lâm" }, "geometry": { "type": "Point", "coordinates": [ 105.9328057, 21.0049814 ] } },
{ "type": "Feature", "properties": { "id": 8739945232, "name": "Qua ngã 3 Cầu Thanh Trì - Nguyễn Đức Thuận", "index_right": 27, "district": "Xã Gia Lâm" }, "geometry": { "type": "Point", "coordinates": [ 105.9319959, 21.023372 ] } },
{ "type": "Feature", "properties": { "id": 8739945232, "name": "Qua ngã 3 Cầu Thanh Trì - Nguyễn Đức Thuận", "index_right": 28, "district": "Xã Gia Lâm" }, "geometry": { "type": "Point", "coordinates": [ 105.9319959, 21.023372 ] } },
{ "type": "Feature", "properties": { "id": 8739945233, "name": "36 Ngô Xuân Quảng", "index_right": 27, "district": "Xã Gia Lâm" }, "geometry": { "type": "Point", "coordinates": [ 105.9370358, 21.0185708 ] } },
{ "type": "Feature", "properties": { "id": 8739945233, "name": "36 Ngô Xuân Quảng", "index_right": 28, "district": "Xã Gia Lâm" }, "geometry": { "type": "Point", "coordinates": [ 105.9370358, 21.0185708 ] } },
{ "type": "Feature", "properties": { "id": 8739945234, "name": "234 Ngô Xuân Quảng", "index_right": 27, "district": "Xã Gia Lâm" }, "geometry": { "type": "Point", "coordinates": [ 105.9360892, 21.0132952 ] } },
{ "type": "Feature", "properties": { "id": 8739945234, "name": "234 Ngô Xuân Quảng", "index_right": 28, "district": "Xã Gia Lâm" }, "geometry": { "type": "Point", "coordinates": [ 105.9360892, 21.0132952 ] } },
{ "type": "Feature", "properties": { "id": 8739945235, "name": "Số 14 đường Học viện Nông nghiệp", "index_right": 27, "district": "Xã Gia Lâm" }, "geometry": { "type": "Point", "coordinates": [ 105.9339092, 21.0088456 ] } },
{ "type": "Feature", "properties": { "id": 8739945235, "name": "Số 14 đường Học viện Nông nghiệp", "index_right": 28, "district": "Xã Gia Lâm" }, "geometry": { "type": "Point", "coordinates": [ 105.9339092, 21.0088456 ] } },
{ "type": "Feature", "properties": { "id": 8739945237, "name": "Công ty Tư vấn dịch vụ khoa học Nông nghiệp - Ngô Xuân Quảng", "index_right": 27, "district": "Xã Gia Lâm" }, "geometry": { "type": "Point", "coordinates": [ 105.93402, 21.0088871 ] } },
{ "type": "Feature", "properties": { "id": 8739945237, "name": "Công ty Tư vấn dịch vụ khoa học Nông nghiệp - Ngô Xuân Quảng", "index_right": 28, "district": "Xã Gia Lâm" }, "geometry": { "type": "Point", "coordinates": [ 105.93402, 21.0088871 ] } },
{ "type": "Feature", "properties": { "id": 8739945238, "name": "285 Ngô Xuân Quảng", "index_right": 27, "district": "Xã Gia Lâm" }, "geometry": { "type": "Point", "coordinates": [ 105.9362801, 21.0135596 ] } },
{ "type": "Feature", "properties": { "id": 8739945238, "name": "285 Ngô Xuân Quảng", "index_right": 28, "district": "Xã Gia Lâm" }, "geometry": { "type": "Point", "coordinates": [ 105.9362801, 21.0135596 ] } },
{ "type": "Feature", "properties": { "id": 8739945239, "name": "139 Ngô Xuân Quảng", "index_right": 27, "district": "Xã Gia Lâm" }, "geometry": { "type": "Point", "coordinates": [ 105.9368709, 21.0173777 ] } },
{ "type": "Feature", "properties": { "id": 8739945239, "name": "139 Ngô Xuân Quảng", "index_right": 28, "district": "Xã Gia Lâm" }, "geometry": { "type": "Point", "coordinates": [ 105.9368709, 21.0173777 ] } },
{ "type": "Feature", "properties": { "id": 8739945240, "name": "Bưu điện Trâu Quỳ - Nguyễn Đức Thuận", "index_right": 27, "district": "Xã Gia Lâm" }, "geometry": { "type": "Point", "coordinates": [ 105.9375638, 21.0214577 ] } },
{ "type": "Feature", "properties": { "id": 8739945240, "name": "Bưu điện Trâu Quỳ - Nguyễn Đức Thuận", "index_right": 28, "district": "Xã Gia Lâm" }, "geometry": { "type": "Point", "coordinates": [ 105.9375638, 21.0214577 ] } },
{ "type": "Feature", "properties": { "id": 8857316019, "name": "Đối diện tòa nhà S2.10", "index_right": 27, "district": "Xã Gia Lâm" }, "geometry": { "type": "Point", "coordinates": [ 105.9432884, 20.9929455 ] } },
{ "type": "Feature", "properties": { "id": 8857316019, "name": "Đối diện tòa nhà S2.10", "index_right": 28, "district": "Xã Gia Lâm" }, "geometry": { "type": "Point", "coordinates": [ 105.9432884, 20.9929455 ] } },
{ "type": "Feature", "properties": { "id": 8857316021, "name": "Đối diện tòa nhà S1.09", "index_right": 27, "district": "Xã Gia Lâm" }, "geometry": { "type": "Point", "coordinates": [ 105.9440547, 20.9947363 ] } },
{ "type": "Feature", "properties": { "id": 8857316021, "name": "Đối diện tòa nhà S1.09", "index_right": 28, "district": "Xã Gia Lâm" }, "geometry": { "type": "Point", "coordinates": [ 105.9440547, 20.9947363 ] } },
{ "type": "Feature", "properties": { "id": 8857316022, "name": "Khu biệt thự Ngọc Trai 06", "index_right": 27, "district": "Xã Gia Lâm" }, "geometry": { "type": "Point", "coordinates": [ 105.9482386, 20.995671 ] } },
{ "type": "Feature", "properties": { "id": 8857316022, "name": "Khu biệt thự Ngọc Trai 06", "index_right": 28, "district": "Xã Gia Lâm" }, "geometry": { "type": "Point", "coordinates": [ 105.9482386, 20.995671 ] } },
{ "type": "Feature", "properties": { "id": 8857316023, "name": "Khu biệt thự Sao Biển 06", "index_right": 27, "district": "Xã Gia Lâm" }, "geometry": { "type": "Point", "coordinates": [ 105.9535834, 20.9974735 ] } },
{ "type": "Feature", "properties": { "id": 8857316023, "name": "Khu biệt thự Sao Biển 06", "index_right": 28, "district": "Xã Gia Lâm" }, "geometry": { "type": "Point", "coordinates": [ 105.9535834, 20.9974735 ] } },
{ "type": "Feature", "properties": { "id": 8857316024, "name": "Khu Thương mại Dịch vụ Sao Biển 11", "index_right": 27, "district": "Xã Gia Lâm" }, "geometry": { "type": "Point", "coordinates": [ 105.9561337, 20.9955977 ] } },
{ "type": "Feature", "properties": { "id": 8857316024, "name": "Khu Thương mại Dịch vụ Sao Biển 11", "index_right": 28, "district": "Xã Gia Lâm" }, "geometry": { "type": "Point", "coordinates": [ 105.9561337, 20.9955977 ] } },
{ "type": "Feature", "properties": { "id": 8857316025, "name": "Đối diện Vincom Mega Mall Ocean Park", "index_right": 27, "district": "Xã Gia Lâm" }, "geometry": { "type": "Point", "coordinates": [ 105.958546, 20.9937895 ] } },
{ "type": "Feature", "properties": { "id": 8857316025, "name": "Đối diện Vincom Mega Mall Ocean Park", "index_right": 28, "district": "Xã Gia Lâm" }, "geometry": { "type": "Point", "coordinates": [ 105.958546, 20.9937895 ] } },
{ "type": "Feature", "properties": { "id": 8857316026, "name": "Điểm đỗ xe buýt Ocean Park", "index_right": 27, "district": "Xã Gia Lâm" }, "geometry": { "type": "Point", "coordinates": [ 105.9606601, 20.9919495 ] } },
{ "type": "Feature", "properties": { "id": 8857316026, "name": "Điểm đỗ xe buýt Ocean Park", "index_right": 28, "district": "Xã Gia Lâm" }, "geometry": { "type": "Point", "coordinates": [ 105.9606601, 20.9919495 ] } },
{ "type": "Feature", "properties": { "id": 8857316027, "name": "TTTM Vincom OceanPark", "index_right": 27, "district": "Xã Gia Lâm" }, "geometry": { "type": "Point", "coordinates": [ 105.9586274, 20.994004 ] } },
{ "type": "Feature", "properties": { "id": 8857316027, "name": "TTTM Vincom OceanPark", "index_right": 28, "district": "Xã Gia Lâm" }, "geometry": { "type": "Point", "coordinates": [ 105.9586274, 20.994004 ] } },
{ "type": "Feature", "properties": { "id": 8857316028, "name": "Khu Thương mại Dịch vụ Sao Biển 11A", "index_right": 27, "district": "Xã Gia Lâm" }, "geometry": { "type": "Point", "coordinates": [ 105.9555574, 20.9963044 ] } },
{ "type": "Feature", "properties": { "id": 8857316028, "name": "Khu Thương mại Dịch vụ Sao Biển 11A", "index_right": 28, "district": "Xã Gia Lâm" }, "geometry": { "type": "Point", "coordinates": [ 105.9555574, 20.9963044 ] } },
{ "type": "Feature", "properties": { "id": 8857316029, "name": "Khu biệt thự Sao Biển 01", "index_right": 27, "district": "Xã Gia Lâm" }, "geometry": { "type": "Point", "coordinates": [ 105.9529837, 20.9982003 ] } },
{ "type": "Feature", "properties": { "id": 8857316029, "name": "Khu biệt thự Sao Biển 01", "index_right": 28, "district": "Xã Gia Lâm" }, "geometry": { "type": "Point", "coordinates": [ 105.9529837, 20.9982003 ] } },
{ "type": "Feature", "properties": { "id": 8857316030, "name": "Khu biệt thự Ngọc Trai 08", "index_right": 27, "district": "Xã Gia Lâm" }, "geometry": { "type": "Point", "coordinates": [ 105.9480813, 20.9960248 ] } },
{ "type": "Feature", "properties": { "id": 8857316030, "name": "Khu biệt thự Ngọc Trai 08", "index_right": 28, "district": "Xã Gia Lâm" }, "geometry": { "type": "Point", "coordinates": [ 105.9480813, 20.9960248 ] } },
{ "type": "Feature", "properties": { "id": 8857316031, "name": "Tòa nhà S1.10", "index_right": 27, "district": "Xã Gia Lâm" }, "geometry": { "type": "Point", "coordinates": [ 105.9445158, 20.9956306 ] } },
{ "type": "Feature", "properties": { "id": 8857316031, "name": "Tòa nhà S1.10", "index_right": 28, "district": "Xã Gia Lâm" }, "geometry": { "type": "Point", "coordinates": [ 105.9445158, 20.9956306 ] } },
{ "type": "Feature", "properties": { "id": 8857316033, "name": "Tòa nhà S2.09", "index_right": 27, "district": "Xã Gia Lâm" }, "geometry": { "type": "Point", "coordinates": [ 105.9424877, 20.9931577 ] } },
{ "type": "Feature", "properties": { "id": 8857316033, "name": "Tòa nhà S2.09", "index_right": 28, "district": "Xã Gia Lâm" }, "geometry": { "type": "Point", "coordinates": [ 105.9424877, 20.9931577 ] } },
{ "type": "Feature", "properties": { "id": 8859463281, "name": "Đối diện Ký túc xá Đại học VinUniversity", "index_right": 27, "district": "Xã Gia Lâm" }, "geometry": { "type": "Point", "coordinates": [ 105.9485059, 20.9899552 ] } },
{ "type": "Feature", "properties": { "id": 8859463281, "name": "Đối diện Ký túc xá Đại học VinUniversity", "index_right": 28, "district": "Xã Gia Lâm" }, "geometry": { "type": "Point", "coordinates": [ 105.9485059, 20.9899552 ] } },
{ "type": "Feature", "properties": { "id": 8859463282, "name": "Đối diện Đại học VinUniversity", "index_right": 27, "district": "Xã Gia Lâm" }, "geometry": { "type": "Point", "coordinates": [ 105.9459751, 20.9914001 ] } },
{ "type": "Feature", "properties": { "id": 8859463282, "name": "Đối diện Đại học VinUniversity", "index_right": 28, "district": "Xã Gia Lâm" }, "geometry": { "type": "Point", "coordinates": [ 105.9459751, 20.9914001 ] } },
{ "type": "Feature", "properties": { "id": 8859463283, "name": "Sảnh tòa nhà S2.15", "index_right": 27, "district": "Xã Gia Lâm" }, "geometry": { "type": "Point", "coordinates": [ 105.9437542, 20.9909093 ] } },
{ "type": "Feature", "properties": { "id": 8859463283, "name": "Sảnh tòa nhà S2.15", "index_right": 28, "district": "Xã Gia Lâm" }, "geometry": { "type": "Point", "coordinates": [ 105.9437542, 20.9909093 ] } },
{ "type": "Feature", "properties": { "id": 8859463284, "name": "Tòa Technopark", "index_right": 27, "district": "Xã Gia Lâm" }, "geometry": { "type": "Point", "coordinates": [ 105.9411895, 20.9892781 ] } },
{ "type": "Feature", "properties": { "id": 8859463284, "name": "Tòa Technopark", "index_right": 28, "district": "Xã Gia Lâm" }, "geometry": { "type": "Point", "coordinates": [ 105.9411895, 20.9892781 ] } },
{ "type": "Feature", "properties": { "id": 8859463285, "name": "Nhà để xe S2", "index_right": 27, "district": "Xã Gia Lâm" }, "geometry": { "type": "Point", "coordinates": [ 105.94088, 20.991352 ] } },
{ "type": "Feature", "properties": { "id": 8859463285, "name": "Nhà để xe S2", "index_right": 28, "district": "Xã Gia Lâm" }, "geometry": { "type": "Point", "coordinates": [ 105.94088, 20.991352 ] } },
{ "type": "Feature", "properties": { "id": 8859463288, "name": "Nhà Để xe Đại Dương", "index_right": 27, "district": "Xã Gia Lâm" }, "geometry": { "type": "Point", "coordinates": [ 105.9404992, 20.9915191 ] } },
{ "type": "Feature", "properties": { "id": 8859463288, "name": "Nhà Để xe Đại Dương", "index_right": 28, "district": "Xã Gia Lâm" }, "geometry": { "type": "Point", "coordinates": [ 105.9404992, 20.9915191 ] } },
{ "type": "Feature", "properties": { "id": 8859463289, "name": "Đối diện tòa Technopark", "index_right": 27, "district": "Xã Gia Lâm" }, "geometry": { "type": "Point", "coordinates": [ 105.9408293, 20.9894975 ] } },
{ "type": "Feature", "properties": { "id": 8859463289, "name": "Đối diện tòa Technopark", "index_right": 28, "district": "Xã Gia Lâm" }, "geometry": { "type": "Point", "coordinates": [ 105.9408293, 20.9894975 ] } },
{ "type": "Feature", "properties": { "id": 8859463290, "name": "Đại học VinUni", "index_right": 27, "district": "Xã Gia Lâm" }, "geometry": { "type": "Point", "coordinates": [ 105.9457424, 20.9913041 ] } },
{ "type": "Feature", "properties": { "id": 8859463290, "name": "Đại học VinUni", "index_right": 28, "district": "Xã Gia Lâm" }, "geometry": { "type": "Point", "coordinates": [ 105.9457424, 20.9913041 ] } },
{ "type": "Feature", "properties": { "id": 8859463291, "name": "KTX Đại học VinUni", "index_right": 27, "district": "Xã Gia Lâm" }, "geometry": { "type": "Point", "coordinates": [ 105.948549, 20.9896354 ] } },
{ "type": "Feature", "properties": { "id": 8859463291, "name": "KTX Đại học VinUni", "index_right": 28, "district": "Xã Gia Lâm" }, "geometry": { "type": "Point", "coordinates": [ 105.948549, 20.9896354 ] } },
{ "type": "Feature", "properties": { "id": 8919736501, "name": "Đối diện Trường Trung cấp Giao thông vận tải miền Bắc", "index_right": 27, "district": "Xã Gia Lâm" }, "geometry": { "type": "Point", "coordinates": [ 105.9570632, 20.9717838 ] } },
{ "type": "Feature", "properties": { "id": 8919736501, "name": "Đối diện Trường Trung cấp Giao thông vận tải miền Bắc", "index_right": 28, "district": "Xã Gia Lâm" }, "geometry": { "type": "Point", "coordinates": [ 105.9570632, 20.9717838 ] } },
{ "type": "Feature", "properties": { "id": 8919736502, "name": "Qua Trường Trung cấp Giao thông vận tải miền Bắc 100m", "index_right": 27, "district": "Xã Gia Lâm" }, "geometry": { "type": "Point", "coordinates": [ 105.956906, 20.9717249 ] } },
{ "type": "Feature", "properties": { "id": 8919736502, "name": "Qua Trường Trung cấp Giao thông vận tải miền Bắc 100m", "index_right": 28, "district": "Xã Gia Lâm" }, "geometry": { "type": "Point", "coordinates": [ 105.956906, 20.9717249 ] } },
{ "type": "Feature", "properties": { "id": 8919736503, "name": "Đối diện Bưu điện xã Kiêu Kỵ", "index_right": 27, "district": "Xã Gia Lâm" }, "geometry": { "type": "Point", "coordinates": [ 105.9584925, 20.9764563 ] } },
{ "type": "Feature", "properties": { "id": 8919736503, "name": "Đối diện Bưu điện xã Kiêu Kỵ", "index_right": 28, "district": "Xã Gia Lâm" }, "geometry": { "type": "Point", "coordinates": [ 105.9584925, 20.9764563 ] } },
{ "type": "Feature", "properties": { "id": 8919736504, "name": "Bưu điện Kiêu Kỵ", "index_right": 27, "district": "Xã Gia Lâm" }, "geometry": { "type": "Point", "coordinates": [ 105.9583996, 20.9768987 ] } },
{ "type": "Feature", "properties": { "id": 8919736504, "name": "Bưu điện Kiêu Kỵ", "index_right": 28, "district": "Xã Gia Lâm" }, "geometry": { "type": "Point", "coordinates": [ 105.9583996, 20.9768987 ] } },
{ "type": "Feature", "properties": { "id": 8919736505, "name": "Qua 50m Công ty TNHH MTV 76", "index_right": 27, "district": "Xã Gia Lâm" }, "geometry": { "type": "Point", "coordinates": [ 105.9594394, 20.9812356 ] } },
{ "type": "Feature", "properties": { "id": 8919736505, "name": "Qua 50m Công ty TNHH MTV 76", "index_right": 28, "district": "Xã Gia Lâm" }, "geometry": { "type": "Point", "coordinates": [ 105.9594394, 20.9812356 ] } },
{ "type": "Feature", "properties": { "id": 8919736506, "name": "Trường mầm non Sao Mai", "index_right": 27, "district": "Xã Gia Lâm" }, "geometry": { "type": "Point", "coordinates": [ 105.9594278, 20.9816714 ] } },
{ "type": "Feature", "properties": { "id": 8919736506, "name": "Trường mầm non Sao Mai", "index_right": 28, "district": "Xã Gia Lâm" }, "geometry": { "type": "Point", "coordinates": [ 105.9594278, 20.9816714 ] } },
{ "type": "Feature", "properties": { "id": 8919736507, "name": "Kiêu Kỵ", "index_right": 27, "district": "Xã Gia Lâm" }, "geometry": { "type": "Point", "coordinates": [ 105.9604095, 20.9863021 ] } },
{ "type": "Feature", "properties": { "id": 8919736507, "name": "Kiêu Kỵ", "index_right": 28, "district": "Xã Gia Lâm" }, "geometry": { "type": "Point", "coordinates": [ 105.9604095, 20.9863021 ] } },
{ "type": "Feature", "properties": { "id": 8919736508, "name": "Trước Cụm sản xuất làng nghề Kiêu Kỵ 50m", "index_right": 27, "district": "Xã Gia Lâm" }, "geometry": { "type": "Point", "coordinates": [ 105.9608541, 20.9867802 ] } },
{ "type": "Feature", "properties": { "id": 8919736508, "name": "Trước Cụm sản xuất làng nghề Kiêu Kỵ 50m", "index_right": 28, "district": "Xã Gia Lâm" }, "geometry": { "type": "Point", "coordinates": [ 105.9608541, 20.9867802 ] } },
{ "type": "Feature", "properties": { "id": 8919736509, "name": "Qua Cụm sản xuất làng nghề Kiêu Kỵ 50m", "index_right": 27, "district": "Xã Gia Lâm" }, "geometry": { "type": "Point", "coordinates": [ 105.96103, 20.9868363 ] } },
{ "type": "Feature", "properties": { "id": 8919736509, "name": "Qua Cụm sản xuất làng nghề Kiêu Kỵ 50m", "index_right": 28, "district": "Xã Gia Lâm" }, "geometry": { "type": "Point", "coordinates": [ 105.96103, 20.9868363 ] } },
{ "type": "Feature", "properties": { "id": 8925821815, "name": "Đối diện Trung tâm Thể dục thể thao Gia Lâm", "index_right": 27, "district": "Xã Gia Lâm" }, "geometry": { "type": "Point", "coordinates": [ 105.9426976, 21.0179217 ] } },
{ "type": "Feature", "properties": { "id": 8925821815, "name": "Đối diện Trung tâm Thể dục thể thao Gia Lâm", "index_right": 28, "district": "Xã Gia Lâm" }, "geometry": { "type": "Point", "coordinates": [ 105.9426976, 21.0179217 ] } },
{ "type": "Feature", "properties": { "id": 8925835920, "name": "Đối diện nhà D10 (Khu đô thị Đặng Xá)", "index_right": 27, "district": "Xã Gia Lâm" }, "geometry": { "type": "Point", "coordinates": [ 105.9493047, 21.0212404 ] } },
{ "type": "Feature", "properties": { "id": 8925835920, "name": "Đối diện nhà D10 (Khu đô thị Đặng Xá)", "index_right": 28, "district": "Xã Gia Lâm" }, "geometry": { "type": "Point", "coordinates": [ 105.9493047, 21.0212404 ] } },
{ "type": "Feature", "properties": { "id": 8925835921, "name": "Khu đô thị Đặng Xá", "index_right": 27, "district": "Xã Gia Lâm" }, "geometry": { "type": "Point", "coordinates": [ 105.9481554, 21.0190594 ] } },
{ "type": "Feature", "properties": { "id": 8925835921, "name": "Khu đô thị Đặng Xá", "index_right": 28, "district": "Xã Gia Lâm" }, "geometry": { "type": "Point", "coordinates": [ 105.9481554, 21.0190594 ] } },
{ "type": "Feature", "properties": { "id": 8925835923, "name": "Nhà D10 (Khu đô thị Đặng Xá)", "index_right": 27, "district": "Xã Gia Lâm" }, "geometry": { "type": "Point", "coordinates": [ 105.9499557, 21.0217825 ] } },
{ "type": "Feature", "properties": { "id": 8925835923, "name": "Nhà D10 (Khu đô thị Đặng Xá)", "index_right": 28, "district": "Xã Gia Lâm" }, "geometry": { "type": "Point", "coordinates": [ 105.9499557, 21.0217825 ] } },
{ "type": "Feature", "properties": { "id": 8925835928, "name": "Trung tâm Thể dục thể thao Gia Lâm - 399 Nguyễn Đức Thuận", "index_right": 27, "district": "Xã Gia Lâm" }, "geometry": { "type": "Point", "coordinates": [ 105.9425203, 21.0183723 ] } },
{ "type": "Feature", "properties": { "id": 8925835928, "name": "Trung tâm Thể dục thể thao Gia Lâm - 399 Nguyễn Đức Thuận", "index_right": 28, "district": "Xã Gia Lâm" }, "geometry": { "type": "Point", "coordinates": [ 105.9425203, 21.0183723 ] } },
{ "type": "Feature", "properties": { "id": 8990709061, "name": "Đối diện Khu đô thị Đặng Xá", "index_right": 27, "district": "Xã Gia Lâm" }, "geometry": { "type": "Point", "coordinates": [ 105.9488661, 21.0134234 ] } },
{ "type": "Feature", "properties": { "id": 8990709061, "name": "Đối diện Khu đô thị Đặng Xá", "index_right": 28, "district": "Xã Gia Lâm" }, "geometry": { "type": "Point", "coordinates": [ 105.9488661, 21.0134234 ] } },
{ "type": "Feature", "properties": { "id": 8990709062, "name": "Đối diện Khu công nghiệp Gia Lâm", "index_right": 27, "district": "Xã Gia Lâm" }, "geometry": { "type": "Point", "coordinates": [ 105.951775, 21.0112746 ] } },
{ "type": "Feature", "properties": { "id": 8990709062, "name": "Đối diện Khu công nghiệp Gia Lâm", "index_right": 28, "district": "Xã Gia Lâm" }, "geometry": { "type": "Point", "coordinates": [ 105.951775, 21.0112746 ] } },
{ "type": "Feature", "properties": { "id": 8990709063, "name": "Đối diện đường vào Nhà máy Sữa Hà Nội", "index_right": 27, "district": "Xã Gia Lâm" }, "geometry": { "type": "Point", "coordinates": [ 105.9591965, 21.0059802 ] } },
{ "type": "Feature", "properties": { "id": 8990709063, "name": "Đối diện đường vào Nhà máy Sữa Hà Nội", "index_right": 28, "district": "Xã Gia Lâm" }, "geometry": { "type": "Point", "coordinates": [ 105.9591965, 21.0059802 ] } },
{ "type": "Feature", "properties": { "id": 8990709064, "name": "Trường Trung học cơ sở Dương Xá", "index_right": 27, "district": "Xã Gia Lâm" }, "geometry": { "type": "Point", "coordinates": [ 105.9665546, 21.0074764 ] } },
{ "type": "Feature", "properties": { "id": 8990709064, "name": "Trường Trung học cơ sở Dương Xá", "index_right": 28, "district": "Xã Gia Lâm" }, "geometry": { "type": "Point", "coordinates": [ 105.9665546, 21.0074764 ] } },
{ "type": "Feature", "properties": { "id": 8990709065, "name": "Chùa Yên Bình", "index_right": 27, "district": "Xã Gia Lâm" }, "geometry": { "type": "Point", "coordinates": [ 105.9661485, 21.012056 ] } },
{ "type": "Feature", "properties": { "id": 8990709065, "name": "Chùa Yên Bình", "index_right": 28, "district": "Xã Gia Lâm" }, "geometry": { "type": "Point", "coordinates": [ 105.9661485, 21.012056 ] } },
{ "type": "Feature", "properties": { "id": 8990709066, "name": "Đối diện Chợ Sủi", "index_right": 27, "district": "Xã Gia Lâm" }, "geometry": { "type": "Point", "coordinates": [ 105.9650751, 21.0172297 ] } },
{ "type": "Feature", "properties": { "id": 8990709066, "name": "Đối diện Chợ Sủi", "index_right": 28, "district": "Xã Gia Lâm" }, "geometry": { "type": "Point", "coordinates": [ 105.9650751, 21.0172297 ] } },
{ "type": "Feature", "properties": { "id": 8995358221, "name": "Trước Cầu vượt Phú Thị khoảng 50m", "index_right": 27, "district": "Xã Gia Lâm" }, "geometry": { "type": "Point", "coordinates": [ 105.9643192, 20.9965415 ] } },
{ "type": "Feature", "properties": { "id": 8995358221, "name": "Trước Cầu vượt Phú Thị khoảng 50m", "index_right": 28, "district": "Xã Gia Lâm" }, "geometry": { "type": "Point", "coordinates": [ 105.9643192, 20.9965415 ] } },
{ "type": "Feature", "properties": { "id": 8995358222, "name": "Khu Giáo dục thể chất - Trường Trung học phổ thông Dương Xá", "index_right": 27, "district": "Xã Gia Lâm" }, "geometry": { "type": "Point", "coordinates": [ 105.9683927, 21.0083132 ] } },
{ "type": "Feature", "properties": { "id": 8995358222, "name": "Khu Giáo dục thể chất - Trường Trung học phổ thông Dương Xá", "index_right": 28, "district": "Xã Gia Lâm" }, "geometry": { "type": "Point", "coordinates": [ 105.9683927, 21.0083132 ] } },
{ "type": "Feature", "properties": { "id": 8995358223, "name": "Đối diện trạm biến áp Dương Xá 9", "index_right": 27, "district": "Xã Gia Lâm" }, "geometry": { "type": "Point", "coordinates": [ 105.9722542, 21.007512 ] } },
{ "type": "Feature", "properties": { "id": 8995358223, "name": "Đối diện trạm biến áp Dương Xá 9", "index_right": 28, "district": "Xã Gia Lâm" }, "geometry": { "type": "Point", "coordinates": [ 105.9722542, 21.007512 ] } },
{ "type": "Feature", "properties": { "id": 8995358234, "name": "Trạm biến áp Dương Xá 9", "index_right": 27, "district": "Xã Gia Lâm" }, "geometry": { "type": "Point", "coordinates": [ 105.9725321, 21.0077856 ] } },
{ "type": "Feature", "properties": { "id": 8995358234, "name": "Trạm biến áp Dương Xá 9", "index_right": 28, "district": "Xã Gia Lâm" }, "geometry": { "type": "Point", "coordinates": [ 105.9725321, 21.0077856 ] } },
{ "type": "Feature", "properties": { "id": 8995358235, "name": "Đối diện khu Giáo dục thể chất - Trung học phổ thông Dương Xá", "index_right": 27, "district": "Xã Gia Lâm" }, "geometry": { "type": "Point", "coordinates": [ 105.9688069, 21.0079723 ] } },
{ "type": "Feature", "properties": { "id": 8995358235, "name": "Đối diện khu Giáo dục thể chất - Trung học phổ thông Dương Xá", "index_right": 28, "district": "Xã Gia Lâm" }, "geometry": { "type": "Point", "coordinates": [ 105.9688069, 21.0079723 ] } },
{ "type": "Feature", "properties": { "id": 8995358236, "name": "Đối diện Trường Trung học cơ sở Dương Xá", "index_right": 27, "district": "Xã Gia Lâm" }, "geometry": { "type": "Point", "coordinates": [ 105.9665589, 21.0078041 ] } },
{ "type": "Feature", "properties": { "id": 8995358236, "name": "Đối diện Trường Trung học cơ sở Dương Xá", "index_right": 28, "district": "Xã Gia Lâm" }, "geometry": { "type": "Point", "coordinates": [ 105.9665589, 21.0078041 ] } },
{ "type": "Feature", "properties": { "id": 8995358237, "name": "Qua Cầu vượt Phú Thị khoảng 50m", "index_right": 27, "district": "Xã Gia Lâm" }, "geometry": { "type": "Point", "coordinates": [ 105.9644936, 20.9972929 ] } },
{ "type": "Feature", "properties": { "id": 8995358237, "name": "Qua Cầu vượt Phú Thị khoảng 50m", "index_right": 28, "district": "Xã Gia Lâm" }, "geometry": { "type": "Point", "coordinates": [ 105.9644936, 20.9972929 ] } },
{ "type": "Feature", "properties": { "id": 9357113036, "name": "152 Hải Âu 2", "index_right": 27, "district": "Xã Gia Lâm" }, "geometry": { "type": "Point", "coordinates": [ 105.9550954, 20.9923554 ] } },
{ "type": "Feature", "properties": { "id": 9357113036, "name": "152 Hải Âu 2", "index_right": 28, "district": "Xã Gia Lâm" }, "geometry": { "type": "Point", "coordinates": [ 105.9550954, 20.9923554 ] } },
{ "type": "Feature", "properties": { "id": 9357113037, "name": "139 Hải Âu 2", "index_right": 27, "district": "Xã Gia Lâm" }, "geometry": { "type": "Point", "coordinates": [ 105.9551893, 20.9921465 ] } },
{ "type": "Feature", "properties": { "id": 9357113037, "name": "139 Hải Âu 2", "index_right": 28, "district": "Xã Gia Lâm" }, "geometry": { "type": "Point", "coordinates": [ 105.9551893, 20.9921465 ] } },
{ "type": "Feature", "properties": { "id": 9580030946, "name": "Đối diện tòa Ruby", "index_right": 27, "district": "Xã Gia Lâm" }, "geometry": { "type": "Point", "coordinates": [ 105.9431494, 20.9999893 ] } },
{ "type": "Feature", "properties": { "id": 9580030946, "name": "Đối diện tòa Ruby", "index_right": 28, "district": "Xã Gia Lâm" }, "geometry": { "type": "Point", "coordinates": [ 105.9431494, 20.9999893 ] } },
{ "type": "Feature", "properties": { "id": 9582411764, "name": "Tòa Ruby", "index_right": 27, "district": "Xã Gia Lâm" }, "geometry": { "type": "Point", "coordinates": [ 105.9425701, 21.0011404 ] } },
{ "type": "Feature", "properties": { "id": 9582411764, "name": "Tòa Ruby", "index_right": 28, "district": "Xã Gia Lâm" }, "geometry": { "type": "Point", "coordinates": [ 105.9425701, 21.0011404 ] } },
{ "type": "Feature", "properties": { "id": 9582411766, "name": "Khu công nghiệp Gia Lâm", "index_right": 27, "district": "Xã Gia Lâm" }, "geometry": { "type": "Point", "coordinates": [ 105.9521583, 21.011311 ] } },
{ "type": "Feature", "properties": { "id": 9582411766, "name": "Khu công nghiệp Gia Lâm", "index_right": 28, "district": "Xã Gia Lâm" }, "geometry": { "type": "Point", "coordinates": [ 105.9521583, 21.011311 ] } },
{ "type": "Feature", "properties": { "id": 9582411767, "name": "Trước cổng Khu đô thị Đặng Xá 100m", "index_right": 27, "district": "Xã Gia Lâm" }, "geometry": { "type": "Point", "coordinates": [ 105.94916, 21.0135081 ] } },
{ "type": "Feature", "properties": { "id": 9582411767, "name": "Trước cổng Khu đô thị Đặng Xá 100m", "index_right": 28, "district": "Xã Gia Lâm" }, "geometry": { "type": "Point", "coordinates": [ 105.94916, 21.0135081 ] } },
{ "type": "Feature", "properties": { "id": 9903402682, "name": "Đối diện Khu hành chính huyện Gia Lâm", "index_right": 27, "district": "Xã Gia Lâm" }, "geometry": { "type": "Point", "coordinates": [ 105.938908, 21.0100783 ] } },
{ "type": "Feature", "properties": { "id": 9903402682, "name": "Đối diện Khu hành chính huyện Gia Lâm", "index_right": 28, "district": "Xã Gia Lâm" }, "geometry": { "type": "Point", "coordinates": [ 105.938908, 21.0100783 ] } },
{ "type": "Feature", "properties": { "id": 9903402683, "name": "Đối diện Bệnh viện Đa khoa huyện Gia Lâm", "index_right": 27, "district": "Xã Gia Lâm" }, "geometry": { "type": "Point", "coordinates": [ 105.9441879, 21.0070434 ] } },
{ "type": "Feature", "properties": { "id": 9903402683, "name": "Đối diện Bệnh viện Đa khoa huyện Gia Lâm", "index_right": 28, "district": "Xã Gia Lâm" }, "geometry": { "type": "Point", "coordinates": [ 105.9441879, 21.0070434 ] } },
{ "type": "Feature", "properties": { "id": 9903402684, "name": "Bệnh viện Đa khoa huyện Gia Lâm", "index_right": 27, "district": "Xã Gia Lâm" }, "geometry": { "type": "Point", "coordinates": [ 105.9441155, 21.0073089 ] } },
{ "type": "Feature", "properties": { "id": 9903402684, "name": "Bệnh viện Đa khoa huyện Gia Lâm", "index_right": 28, "district": "Xã Gia Lâm" }, "geometry": { "type": "Point", "coordinates": [ 105.9441155, 21.0073089 ] } },
{ "type": "Feature", "properties": { "id": 9903402685, "name": "Khu Hành chính huyện Gia Lâm - Tòa nhà Handico5", "index_right": 27, "district": "Xã Gia Lâm" }, "geometry": { "type": "Point", "coordinates": [ 105.939139, 21.0102038 ] } },
{ "type": "Feature", "properties": { "id": 9903402685, "name": "Khu Hành chính huyện Gia Lâm - Tòa nhà Handico5", "index_right": 28, "district": "Xã Gia Lâm" }, "geometry": { "type": "Point", "coordinates": [ 105.939139, 21.0102038 ] } },
{ "type": "Feature", "properties": { "id": 11281471052, "name": "Đối diện cột điện PT 21 (gần CH bia hơi Hậu Oánh)", "index_right": 27, "district": "Xã Gia Lâm" }, "geometry": { "type": "Point", "coordinates": [ 105.9647791, 21.0202974 ] } },
{ "type": "Feature", "properties": { "id": 11281471052, "name": "Đối diện cột điện PT 21 (gần CH bia hơi Hậu Oánh)", "index_right": 28, "district": "Xã Gia Lâm" }, "geometry": { "type": "Point", "coordinates": [ 105.9647791, 21.0202974 ] } },
{ "type": "Feature", "properties": { "id": 11281471053, "name": "Chợ Sủi", "index_right": 27, "district": "Xã Gia Lâm" }, "geometry": { "type": "Point", "coordinates": [ 105.9649812, 21.0175513 ] } },
{ "type": "Feature", "properties": { "id": 11281471053, "name": "Chợ Sủi", "index_right": 28, "district": "Xã Gia Lâm" }, "geometry": { "type": "Point", "coordinates": [ 105.9649812, 21.0175513 ] } },
{ "type": "Feature", "properties": { "id": 11281471054, "name": "Đối diện Chùa Yên Bình", "index_right": 27, "district": "Xã Gia Lâm" }, "geometry": { "type": "Point", "coordinates": [ 105.9659105, 21.0123629 ] } },
{ "type": "Feature", "properties": { "id": 11281471054, "name": "Đối diện Chùa Yên Bình", "index_right": 28, "district": "Xã Gia Lâm" }, "geometry": { "type": "Point", "coordinates": [ 105.9659105, 21.0123629 ] } },
{ "type": "Feature", "properties": { "id": 11281471055, "name": "Số 45 Ga Phú Thị", "index_right": 27, "district": "Xã Gia Lâm" }, "geometry": { "type": "Point", "coordinates": [ 105.9625252, 21.0044051 ] } },
{ "type": "Feature", "properties": { "id": 11281471055, "name": "Số 45 Ga Phú Thị", "index_right": 28, "district": "Xã Gia Lâm" }, "geometry": { "type": "Point", "coordinates": [ 105.9625252, 21.0044051 ] } },
{ "type": "Feature", "properties": { "id": 11281471056, "name": "Qua đường vào Nhà máy Sữa Hà Nội", "index_right": 27, "district": "Xã Gia Lâm" }, "geometry": { "type": "Point", "coordinates": [ 105.9572897, 21.0076822 ] } },
{ "type": "Feature", "properties": { "id": 11281471056, "name": "Qua đường vào Nhà máy Sữa Hà Nội", "index_right": 28, "district": "Xã Gia Lâm" }, "geometry": { "type": "Point", "coordinates": [ 105.9572897, 21.0076822 ] } },
{ "type": "Feature", "properties": { "id": 11524139306, "name": "Trước lối rẽ vào Trường Cao Đẳng kinh tế kỹ thuật Trung ương", "index_right": 27, "district": "Xã Gia Lâm" }, "geometry": { "type": "Point", "coordinates": [ 105.9701304, 20.9978863 ] } },
{ "type": "Feature", "properties": { "id": 11524139306, "name": "Trước lối rẽ vào Trường Cao Đẳng kinh tế kỹ thuật Trung ương", "index_right": 28, "district": "Xã Gia Lâm" }, "geometry": { "type": "Point", "coordinates": [ 105.9701304, 20.9978863 ] } },
{ "type": "Feature", "properties": { "id": 11534004840, "name": "Đối diện TTTM VinOcean Park Gia Lâm", "index_right": 27, "district": "Xã Gia Lâm" }, "geometry": { "type": "Point", "coordinates": [ 105.9629519, 20.9932758 ] } },
{ "type": "Feature", "properties": { "id": 11534004840, "name": "Đối diện TTTM VinOcean Park Gia Lâm", "index_right": 28, "district": "Xã Gia Lâm" }, "geometry": { "type": "Point", "coordinates": [ 105.9629519, 20.9932758 ] } },
{ "type": "Feature", "properties": { "id": 11534004841, "name": "TTTM VinOcean Park Gia Lâm", "index_right": 27, "district": "Xã Gia Lâm" }, "geometry": { "type": "Point", "coordinates": [ 105.9629484, 20.9935081 ] } },
{ "type": "Feature", "properties": { "id": 11534004841, "name": "TTTM VinOcean Park Gia Lâm", "index_right": 28, "district": "Xã Gia Lâm" }, "geometry": { "type": "Point", "coordinates": [ 105.9629484, 20.9935081 ] } },
{ "type": "Feature", "properties": { "id": 11553654406, "name": "Đối diện trường trung học VinSchool Ocean Park", "index_right": 27, "district": "Xã Gia Lâm" }, "geometry": { "type": "Point", "coordinates": [ 105.9365636, 20.9943993 ] } },
{ "type": "Feature", "properties": { "id": 11553654406, "name": "Đối diện trường trung học VinSchool Ocean Park", "index_right": 28, "district": "Xã Gia Lâm" }, "geometry": { "type": "Point", "coordinates": [ 105.9365636, 20.9943993 ] } },
{ "type": "Feature", "properties": { "id": 11553654407, "name": "Trường Trung học VinSchool Ocean Park", "index_right": 27, "district": "Xã Gia Lâm" }, "geometry": { "type": "Point", "coordinates": [ 105.9366321, 20.994477 ] } },
{ "type": "Feature", "properties": { "id": 11553654407, "name": "Trường Trung học VinSchool Ocean Park", "index_right": 28, "district": "Xã Gia Lâm" }, "geometry": { "type": "Point", "coordinates": [ 105.9366321, 20.994477 ] } },
{ "type": "Feature", "properties": { "id": 11554362838, "name": "TTTM Sao Biển 11A", "index_right": 27, "district": "Xã Gia Lâm" }, "geometry": { "type": "Point", "coordinates": [ 105.954661, 20.9969675 ] } },
{ "type": "Feature", "properties": { "id": 11554362838, "name": "TTTM Sao Biển 11A", "index_right": 28, "district": "Xã Gia Lâm" }, "geometry": { "type": "Point", "coordinates": [ 105.954661, 20.9969675 ] } },
{ "type": "Feature", "properties": { "id": 11554362839, "name": "Nhà để xe Lý Thánh Tông", "index_right": 27, "district": "Xã Gia Lâm" }, "geometry": { "type": "Point", "coordinates": [ 105.9448526, 21.0008919 ] } },
{ "type": "Feature", "properties": { "id": 11554362839, "name": "Nhà để xe Lý Thánh Tông", "index_right": 28, "district": "Xã Gia Lâm" }, "geometry": { "type": "Point", "coordinates": [ 105.9448526, 21.0008919 ] } },
{ "type": "Feature", "properties": { "id": 11554362840, "name": "Nhà để xe Hải Đăng", "index_right": 27, "district": "Xã Gia Lâm" }, "geometry": { "type": "Point", "coordinates": [ 105.9410605, 20.9942346 ] } },
{ "type": "Feature", "properties": { "id": 11554362840, "name": "Nhà để xe Hải Đăng", "index_right": 28, "district": "Xã Gia Lâm" }, "geometry": { "type": "Point", "coordinates": [ 105.9410605, 20.9942346 ] } },
{ "type": "Feature", "properties": { "id": 11554362841, "name": "Trường Quốc tế Brighton College", "index_right": 27, "district": "Xã Gia Lâm" }, "geometry": { "type": "Point", "coordinates": [ 105.9400358, 20.9930646 ] } },
{ "type": "Feature", "properties": { "id": 11554362841, "name": "Trường Quốc tế Brighton College", "index_right": 28, "district": "Xã Gia Lâm" }, "geometry": { "type": "Point", "coordinates": [ 105.9400358, 20.9930646 ] } },
{ "type": "Feature", "properties": { "id": 11554362842, "name": "Bến trả OCP 2-3 (Cạnh VinUni)", "index_right": 27, "district": "Xã Gia Lâm" }, "geometry": { "type": "Point", "coordinates": [ 105.9441069, 20.9906952 ] } },
{ "type": "Feature", "properties": { "id": 11554362842, "name": "Bến trả OCP 2-3 (Cạnh VinUni)", "index_right": 28, "district": "Xã Gia Lâm" }, "geometry": { "type": "Point", "coordinates": [ 105.9441069, 20.9906952 ] } },
{ "type": "Feature", "properties": { "id": 11554362843, "name": "TMDV Hải Âu 09", "index_right": 27, "district": "Xã Gia Lâm" }, "geometry": { "type": "Point", "coordinates": [ 105.9531766, 20.9887592 ] } },
{ "type": "Feature", "properties": { "id": 11554362843, "name": "TMDV Hải Âu 09", "index_right": 28, "district": "Xã Gia Lâm" }, "geometry": { "type": "Point", "coordinates": [ 105.9531766, 20.9887592 ] } },
{ "type": "Feature", "properties": { "id": 11554362844, "name": "Nhà để xe Hải Âu (Phòng khám Vinmec)", "index_right": 27, "district": "Xã Gia Lâm" }, "geometry": { "type": "Point", "coordinates": [ 105.9555727, 20.9908383 ] } },
{ "type": "Feature", "properties": { "id": 11554362844, "name": "Nhà để xe Hải Âu (Phòng khám Vinmec)", "index_right": 28, "district": "Xã Gia Lâm" }, "geometry": { "type": "Point", "coordinates": [ 105.9555727, 20.9908383 ] } },
{ "type": "Feature", "properties": { "id": 12118584188, "name": "TMDV Hải Âu 11", "index_right": 27, "district": "Xã Gia Lâm" }, "geometry": { "type": "Point", "coordinates": [ 105.9576368, 20.9895169 ] } },
{ "type": "Feature", "properties": { "id": 12118584188, "name": "TMDV Hải Âu 11", "index_right": 28, "district": "Xã Gia Lâm" }, "geometry": { "type": "Point", "coordinates": [ 105.9576368, 20.9895169 ] } },
{ "type": "Feature", "properties": { "id": 12118584189, "name": "TMDV Biển Hồ 09", "index_right": 27, "district": "Xã Gia Lâm" }, "geometry": { "type": "Point", "coordinates": [ 105.9490611, 20.999568 ] } },
{ "type": "Feature", "properties": { "id": 12118584189, "name": "TMDV Biển Hồ 09", "index_right": 28, "district": "Xã Gia Lâm" }, "geometry": { "type": "Point", "coordinates": [ 105.9490611, 20.999568 ] } },
{ "type": "Feature", "properties": { "id": 12717509093, "name": "Chùa Sủi", "index_right": 27, "district": "Xã Gia Lâm" }, "geometry": { "type": "Point", "coordinates": [ 105.9624596, 21.0180429 ] } },
{ "type": "Feature", "properties": { "id": 12717509093, "name": "Chùa Sủi", "index_right": 28, "district": "Xã Gia Lâm" }, "geometry": { "type": "Point", "coordinates": [ 105.9624596, 21.0180429 ] } },
{ "type": "Feature", "properties": { "id": 12717509094, "name": "Đối diện Chùa Sủi", "index_right": 27, "district": "Xã Gia Lâm" }, "geometry": { "type": "Point", "coordinates": [ 105.9624589, 21.0182605 ] } },
{ "type": "Feature", "properties": { "id": 12717509094, "name": "Đối diện Chùa Sủi", "index_right": 28, "district": "Xã Gia Lâm" }, "geometry": { "type": "Point", "coordinates": [ 105.9624589, 21.0182605 ] } }
]
}
