{
"type": "FeatureCollection",
"name": "Xã_Hoài_Đức",
"crs": { "type": "name", "properties": { "name": "urn:ogc:def:crs:OGC:1.3:CRS84" } },
"features": [
{ "type": "Feature", "properties": { "id": 8865361274, "name": "Số 1 Lưu Xá", "index_right": 120, "district": "Xã Hoài Đức" }, "geometry": { "type": "Point", "coordinates": [ 105.7074544, 21.0659353 ] } },
{ "type": "Feature", "properties": { "id": 8865361275, "name": "Trường Trung học cơ sở Đức Giang", "index_right": 120, "district": "Xã Hoài Đức" }, "geometry": { "type": "Point", "coordinates": [ 105.706591, 21.0626232 ] } },
{ "type": "Feature", "properties": { "id": 8865361276, "name": "Công Ty CP Xây Dựng Kinh Doanh Tổng Hợp Sơn Hà", "index_right": 120, "district": "Xã Hoài Đức" }, "geometry": { "type": "Point", "coordinates": [ 105.7050602, 21.0545965 ] } },
{ "type": "Feature", "properties": { "id": 8865361278, "name": "Qua ngã tư Sơn Đồng", "index_right": 120, "district": "Xã Hoài Đức" }, "geometry": { "type": "Point", "coordinates": [ 105.7052747, 21.0469848 ] } },
{ "type": "Feature", "properties": { "id": 8865361279, "name": "Công ty Điện lực huyện Hoài Đức", "index_right": 120, "district": "Xã Hoài Đức" }, "geometry": { "type": "Point", "coordinates": [ 105.7111615, 21.0454947 ] } },
{ "type": "Feature", "properties": { "id": 8865361280, "name": "Trạm biến áp Di Trạch 6", "index_right": 120, "district": "Xã Hoài Đức" }, "geometry": { "type": "Point", "coordinates": [ 105.7184682, 21.0431474 ] } },
{ "type": "Feature", "properties": { "id": 8865361281, "name": "Đối diện số 20 LK 39 Khu đô thị Vân Canh", "index_right": 120, "district": "Xã Hoài Đức" }, "geometry": { "type": "Point", "coordinates": [ 105.7221286, 21.040766 ] } },
{ "type": "Feature", "properties": { "id": 8865385018, "name": "Tường rào Nhà máy A34", "index_right": 120, "district": "Xã Hoài Đức" }, "geometry": { "type": "Point", "coordinates": [ 105.7222053, 21.0409263 ] } },
{ "type": "Feature", "properties": { "id": 8865385019, "name": "Đối diện trạm biến áp Di Trạch 6", "index_right": 120, "district": "Xã Hoài Đức" }, "geometry": { "type": "Point", "coordinates": [ 105.7191874, 21.0429862 ] } },
{ "type": "Feature", "properties": { "id": 8865385020, "name": "Trước cổng làng Văn Hóa Đại Tự 50m", "index_right": 120, "district": "Xã Hoài Đức" }, "geometry": { "type": "Point", "coordinates": [ 105.7123215, 21.0453302 ] } },
{ "type": "Feature", "properties": { "id": 8865385022, "name": "Trường Trung học phổ thông Hoài Đức A", "index_right": 120, "district": "Xã Hoài Đức" }, "geometry": { "type": "Point", "coordinates": [ 105.7041248, 21.0498119 ] } },
{ "type": "Feature", "properties": { "id": 8865385023, "name": "Công Ty CP Xây Dựng Kinh Doanh Tổng Hợp Sơn Hà", "index_right": 120, "district": "Xã Hoài Đức" }, "geometry": { "type": "Point", "coordinates": [ 105.7050604, 21.0540492 ] } },
{ "type": "Feature", "properties": { "id": 8865385024, "name": "Đối diện trường Trung học cơ sở Đức Giang", "index_right": 120, "district": "Xã Hoài Đức" }, "geometry": { "type": "Point", "coordinates": [ 105.7066452, 21.0622499 ] } },
{ "type": "Feature", "properties": { "id": 8865385025, "name": "UBND huyện Hoài Đức", "index_right": 120, "district": "Xã Hoài Đức" }, "geometry": { "type": "Point", "coordinates": [ 105.7076074, 21.0653174 ] } },
{ "type": "Feature", "properties": { "id": 8865385026, "name": "Bưu điện Hoài Đức - Ngã tư Trôi", "index_right": 120, "district": "Xã Hoài Đức" }, "geometry": { "type": "Point", "coordinates": [ 105.7083694, 21.0694212 ] } },
{ "type": "Feature", "properties": { "id": 8901852876, "name": "Đại học Thành Đô - Quốc lộ 32", "index_right": 120, "district": "Xã Hoài Đức" }, "geometry": { "type": "Point", "coordinates": [ 105.7213555, 21.062236 ] } },
{ "type": "Feature", "properties": { "id": 8901852877, "name": "Đối diện Khu đô thị Kim Chung - Di Trạch", "index_right": 120, "district": "Xã Hoài Đức" }, "geometry": { "type": "Point", "coordinates": [ 105.7163405, 21.0653088 ] } },
{ "type": "Feature", "properties": { "id": 8901852878, "name": "Qua lối rẽ HV Khoa học Quân Sự - Quốc lộ 32", "index_right": 120, "district": "Xã Hoài Đức" }, "geometry": { "type": "Point", "coordinates": [ 105.7136672, 21.066838 ] } },
{ "type": "Feature", "properties": { "id": 8901852879, "name": "Bưu điện Hoài Đức - Ngã tư Trôi", "index_right": 120, "district": "Xã Hoài Đức" }, "geometry": { "type": "Point", "coordinates": [ 105.7084978, 21.0696536 ] } },
{ "type": "Feature", "properties": { "id": 8901852880, "name": "Trước KĐT Lideco 25m", "index_right": 120, "district": "Xã Hoài Đức" }, "geometry": { "type": "Point", "coordinates": [ 105.7088186, 21.0725937 ] } },
{ "type": "Feature", "properties": { "id": 8911997211, "name": "Đối diện lối rẽ Học viện Khoa học Quân sự", "index_right": 120, "district": "Xã Hoài Đức" }, "geometry": { "type": "Point", "coordinates": [ 105.7138581, 21.0664074 ] } },
{ "type": "Feature", "properties": { "id": 8911997212, "name": "Khu đô thị Kim Chung - Di Trạch", "index_right": 120, "district": "Xã Hoài Đức" }, "geometry": { "type": "Point", "coordinates": [ 105.7171542, 21.0645929 ] } },
{ "type": "Feature", "properties": { "id": 8911997213, "name": "Đối diện Đại học Thành Đô", "index_right": 120, "district": "Xã Hoài Đức" }, "geometry": { "type": "Point", "coordinates": [ 105.7224334, 21.0612189 ] } },
{ "type": "Feature", "properties": { "id": 8911997214, "name": "Qua đường vào TT Huấn luyện Thể thao Quốc Gia I - Quốc lộ 32", "index_right": 120, "district": "Xã Hoài Đức" }, "geometry": { "type": "Point", "coordinates": [ 105.7272858, 21.057891 ] } },
{ "type": "Feature", "properties": { "id": 8971521320, "name": "Khu đô thị Tân Tây Đô", "index_right": 120, "district": "Xã Hoài Đức" }, "geometry": { "type": "Point", "coordinates": [ 105.703164, 21.0722644 ] } },
{ "type": "Feature", "properties": { "id": 12579155907, "name": "Trạm Y tế Xã Đức Giang", "index_right": 120, "district": "Xã Hoài Đức" }, "geometry": { "type": "Point", "coordinates": [ 105.7058379, 21.0584653 ] } },
{ "type": "Feature", "properties": { "id": 12579155908, "name": "Đối diện Trạm Y tế Xã Đức Giang", "index_right": 120, "district": "Xã Hoài Đức" }, "geometry": { "type": "Point", "coordinates": [ 105.7059848, 21.0584756 ] } }
]
}
