{
"type": "FeatureCollection",
"name": "Xã_Dân_Hòa",
"crs": { "type": "name", "properties": { "name": "urn:ogc:def:crs:OGC:1.3:CRS84" } },
"features": [
{ "type": "Feature", "properties": { "id": 9006046624, "name": "Làng Ngọc Đình", "index_right": 168, "district": "Xã Dân Hòa" }, "geometry": { "type": "Point", "coordinates": [ 105.7782671, 20.8003971 ] } },
{ "type": "Feature", "properties": { "id": 9006046626, "name": "Đình làng Canh Hoạch", "index_right": 168, "district": "Xã Dân Hòa" }, "geometry": { "type": "Point", "coordinates": [ 105.7763196, 20.8091282 ] } },
{ "type": "Feature", "properties": { "id": 9006046627, "name": "Qua đối diện định làng Canh Hoạch", "index_right": 168, "district": "Xã Dân Hòa" }, "geometry": { "type": "Point", "coordinates": [ 105.7763817, 20.8078626 ] } },
{ "type": "Feature", "properties": { "id": 9006046630, "name": "50-52 Cao Xá", "index_right": 168, "district": "Xã Dân Hòa" }, "geometry": { "type": "Point", "coordinates": [ 105.7672271, 20.8115164 ] } },
{ "type": "Feature", "properties": { "id": 9006046631, "name": "Số 143 thôn Mới, Dốc Mọc, Cao Dương", "index_right": 168, "district": "Xã Dân Hòa" }, "geometry": { "type": "Point", "coordinates": [ 105.7618783, 20.8122222 ] } },
{ "type": "Feature", "properties": { "id": 9006046632, "name": "Số 94 thôn Mới, Dốc Mọc, Cao Dương", "index_right": 168, "district": "Xã Dân Hòa" }, "geometry": { "type": "Point", "coordinates": [ 105.7608161, 20.8125625 ] } },
{ "type": "Feature", "properties": { "id": 9006046633, "name": "Nhà Hàng Thành Phong", "index_right": 168, "district": "Xã Dân Hòa" }, "geometry": { "type": "Point", "coordinates": [ 105.7567149, 20.8134262 ] } },
{ "type": "Feature", "properties": { "id": 9006046634, "name": "Đối diện nhà hàng Thành Phong", "index_right": 168, "district": "Xã Dân Hòa" }, "geometry": { "type": "Point", "coordinates": [ 105.75688, 20.8134048 ] } },
{ "type": "Feature", "properties": { "id": 9006046635, "name": "Qua lối vào Đền Mẫu thôn Phú Khang 80m", "index_right": 168, "district": "Xã Dân Hòa" }, "geometry": { "type": "Point", "coordinates": [ 105.7540828, 20.8114955 ] } },
{ "type": "Feature", "properties": { "id": 9006046636, "name": "Trước lối rẽ vào Đền Mẫu, thôn Phú Khang 80m", "index_right": 168, "district": "Xã Dân Hòa" }, "geometry": { "type": "Point", "coordinates": [ 105.7537487, 20.8109635 ] } },
{ "type": "Feature", "properties": { "id": 9006046637, "name": "Trước biển báo lối vào ngõ 2 xóm Bãi, thôn Trường Xuân", "index_right": 168, "district": "Xã Dân Hòa" }, "geometry": { "type": "Point", "coordinates": [ 105.7500375, 20.8071195 ] } },
{ "type": "Feature", "properties": { "id": 9006046638, "name": "Cửa hàng Viettel số 3 thôn Trường Xuân", "index_right": 168, "district": "Xã Dân Hòa" }, "geometry": { "type": "Point", "coordinates": [ 105.7495174, 20.8068312 ] } },
{ "type": "Feature", "properties": { "id": 9006046639, "name": "Đối diện giáo họ Vân Đồng", "index_right": 168, "district": "Xã Dân Hòa" }, "geometry": { "type": "Point", "coordinates": [ 105.7451003, 20.8038566 ] } },
{ "type": "Feature", "properties": { "id": 9006046640, "name": "Số 19 thôn Vân Đồng", "index_right": 168, "district": "Xã Dân Hòa" }, "geometry": { "type": "Point", "coordinates": [ 105.7449982, 20.8036586 ] } },
{ "type": "Feature", "properties": { "id": 9006046641, "name": "Số 24 xóm Thanh Si, thôn Xuyên Dương, xã Xuân Dương", "index_right": 168, "district": "Xã Dân Hòa" }, "geometry": { "type": "Point", "coordinates": [ 105.7381223, 20.8063152 ] } },
{ "type": "Feature", "properties": { "id": 9006046642, "name": "Số 31 xóm Thanh Si, thôn Xuyên Dương", "index_right": 168, "district": "Xã Dân Hòa" }, "geometry": { "type": "Point", "coordinates": [ 105.7384591, 20.8062152 ] } },
{ "type": "Feature", "properties": { "id": 9007641829, "name": "Cổng làng Vũ Lăng", "index_right": 168, "district": "Xã Dân Hòa" }, "geometry": { "type": "Point", "coordinates": [ 105.7739552, 20.8193213 ] } },
{ "type": "Feature", "properties": { "id": 9007641831, "name": "Bưu điện huyện Thanh Oai", "index_right": 168, "district": "Xã Dân Hòa" }, "geometry": { "type": "Point", "coordinates": [ 105.7756865, 20.8142647 ] } },
{ "type": "Feature", "properties": { "id": 11543484322, "name": "Giữa số nhà 39-41 Cao Xá, Cao Dương", "index_right": 168, "district": "Xã Dân Hòa" }, "geometry": { "type": "Point", "coordinates": [ 105.7668789, 20.8113979 ] } },
{ "type": "Feature", "properties": { "id": 11549840984, "name": "Qua ngã 3 đường vào xã Tân Ước khoảng 50m", "index_right": 168, "district": "Xã Dân Hòa" }, "geometry": { "type": "Point", "coordinates": [ 105.8082173, 20.8385555 ] } },
{ "type": "Feature", "properties": { "id": 11549840985, "name": "Đối diện UBND xã Tân Ước", "index_right": 168, "district": "Xã Dân Hòa" }, "geometry": { "type": "Point", "coordinates": [ 105.8069295, 20.8318397 ] } },
{ "type": "Feature", "properties": { "id": 11549840986, "name": "Trước Cầu Tri Lễ khoảng 50m", "index_right": 168, "district": "Xã Dân Hòa" }, "geometry": { "type": "Point", "coordinates": [ 105.8022067, 20.8289086 ] } },
{ "type": "Feature", "properties": { "id": 11549840987, "name": "Trước đường vào Chùa Tây Quế Sơn khoảng 50m", "index_right": 168, "district": "Xã Dân Hòa" }, "geometry": { "type": "Point", "coordinates": [ 105.7964034, 20.8227694 ] } },
{ "type": "Feature", "properties": { "id": 11549840988, "name": "Trước cổng làng vân hóa An Khoái khoảng 50m", "index_right": 168, "district": "Xã Dân Hòa" }, "geometry": { "type": "Point", "coordinates": [ 105.7927319, 20.8181035 ] } },
{ "type": "Feature", "properties": { "id": 11549840990, "name": "Trước đường vào Làng văn hóa thôn Tiên Lữ khoảng 50m", "index_right": 168, "district": "Xã Dân Hòa" }, "geometry": { "type": "Point", "coordinates": [ 105.7900214, 20.8153198 ] } },
{ "type": "Feature", "properties": { "id": 11549840991, "name": "UBND xã Dân Hòa", "index_right": 168, "district": "Xã Dân Hòa" }, "geometry": { "type": "Point", "coordinates": [ 105.7773983, 20.8127872 ] } },
{ "type": "Feature", "properties": { "id": 11549841023, "name": "Đối diện UBND xã Dân Hòa", "index_right": 168, "district": "Xã Dân Hòa" }, "geometry": { "type": "Point", "coordinates": [ 105.7799196, 20.8131496 ] } },
{ "type": "Feature", "properties": { "id": 11549841024, "name": "Đường vào Làng văn hóa thôn Tiên Lữ", "index_right": 168, "district": "Xã Dân Hòa" }, "geometry": { "type": "Point", "coordinates": [ 105.7899149, 20.8151419 ] } },
{ "type": "Feature", "properties": { "id": 11549841025, "name": "Cổng làng văn hóa An Khoái", "index_right": 168, "district": "Xã Dân Hòa" }, "geometry": { "type": "Point", "coordinates": [ 105.7929896, 20.8182408 ] } },
{ "type": "Feature", "properties": { "id": 11549841026, "name": "Đường vào Chùa Tây Quế Sơn", "index_right": 168, "district": "Xã Dân Hòa" }, "geometry": { "type": "Point", "coordinates": [ 105.7961951, 20.8224042 ] } },
{ "type": "Feature", "properties": { "id": 11549841027, "name": "Qua cầu Tri Lễ khoảng 70m", "index_right": 168, "district": "Xã Dân Hòa" }, "geometry": { "type": "Point", "coordinates": [ 105.8018955, 20.8286231 ] } },
{ "type": "Feature", "properties": { "id": 11549841028, "name": "UBND xã Tân Ước", "index_right": 168, "district": "Xã Dân Hòa" }, "geometry": { "type": "Point", "coordinates": [ 105.8070275, 20.83193 ] } },
{ "type": "Feature", "properties": { "id": 11549841029, "name": "Ngã 3 đường vào xã Tân Ước khoảng 70m", "index_right": 168, "district": "Xã Dân Hòa" }, "geometry": { "type": "Point", "coordinates": [ 105.8082671, 20.8380259 ] } }
]
}
