{
"type": "FeatureCollection",
"name": "Xã_Sóc_Sơn",
"crs": { "type": "name", "properties": { "name": "urn:ogc:def:crs:OGC:1.3:CRS84" } },
"features": [
{ "type": "Feature", "properties": { "id": 5601753123, "name": "Công ty chè Kim Anh - Km 1+900 Quốc lộ 2", "index_right": 73, "district": "Xã Sóc Sơn" }, "geometry": { "type": "Point", "coordinates": [ 105.830334, 21.1982682 ] } },
{ "type": "Feature", "properties": { "id": 9025161135, "name": "Khu Công Nghiệp Nội Bài", "index_right": 73, "district": "Xã Sóc Sơn" }, "geometry": { "type": "Point", "coordinates": [ 105.8095946, 21.2358615 ] } },
{ "type": "Feature", "properties": { "id": 9025161137, "name": "Ngã 3 Quảng Hội", "index_right": 73, "district": "Xã Sóc Sơn" }, "geometry": { "type": "Point", "coordinates": [ 105.816108, 21.2388605 ] } },
{ "type": "Feature", "properties": { "id": 9025161138, "name": "Ngã 3 Quảng Hội", "index_right": 73, "district": "Xã Sóc Sơn" }, "geometry": { "type": "Point", "coordinates": [ 105.8169555, 21.2393845 ] } },
{ "type": "Feature", "properties": { "id": 9025161140, "name": "Đối diện Chùa Phật Quang", "index_right": 73, "district": "Xã Sóc Sơn" }, "geometry": { "type": "Point", "coordinates": [ 105.8225836, 21.2418951 ] } },
{ "type": "Feature", "properties": { "id": 9025161141, "name": "Đối diện trường Trung cấp KTKT đa ngành Sóc Sơn", "index_right": 73, "district": "Xã Sóc Sơn" }, "geometry": { "type": "Point", "coordinates": [ 105.8289896, 21.248005 ] } },
{ "type": "Feature", "properties": { "id": 9025161142, "name": "Trường Đại Học Thủ Đô Hà Nội", "index_right": 73, "district": "Xã Sóc Sơn" }, "geometry": { "type": "Point", "coordinates": [ 105.8281099, 21.247509 ] } },
{ "type": "Feature", "properties": { "id": 9025161204, "name": "Ngã 4 Đồi Rađa", "index_right": 73, "district": "Xã Sóc Sơn" }, "geometry": { "type": "Point", "coordinates": [ 105.8331337, 21.25175 ] } },
{ "type": "Feature", "properties": { "id": 9025161205, "name": "Ngã 4 Đồi Rađa", "index_right": 73, "district": "Xã Sóc Sơn" }, "geometry": { "type": "Point", "coordinates": [ 105.8335525, 21.2523892 ] } },
{ "type": "Feature", "properties": { "id": 9025161206, "name": "Cách cổng làng Dược Thượng 30m", "index_right": 73, "district": "Xã Sóc Sơn" }, "geometry": { "type": "Point", "coordinates": [ 105.8406033, 21.2567655 ] } },
{ "type": "Feature", "properties": { "id": 9025161207, "name": "Đối diện TT Quảng cáo Xuân Du", "index_right": 73, "district": "Xã Sóc Sơn" }, "geometry": { "type": "Point", "coordinates": [ 105.8420638, 21.2571662 ] } },
{ "type": "Feature", "properties": { "id": 9025161208, "name": "Tường rào Trạm thú y huyện Sóc Sơn", "index_right": 73, "district": "Xã Sóc Sơn" }, "geometry": { "type": "Point", "coordinates": [ 105.8460318, 21.2572905 ] } },
{ "type": "Feature", "properties": { "id": 9025161209, "name": "Đài Phát Thanh Huyện Sóc Sơn", "index_right": 73, "district": "Xã Sóc Sơn" }, "geometry": { "type": "Point", "coordinates": [ 105.8467874, 21.2571293 ] } },
{ "type": "Feature", "properties": { "id": 9025161210, "name": "Đối diện Trường ĐH Thủ Đô Hà Nội", "index_right": 73, "district": "Xã Sóc Sơn" }, "geometry": { "type": "Point", "coordinates": [ 105.8504405, 21.257096 ] } },
{ "type": "Feature", "properties": { "id": 9025161211, "name": "Trường cao đẳng thực hành Đa Phúc", "index_right": 73, "district": "Xã Sóc Sơn" }, "geometry": { "type": "Point", "coordinates": [ 105.8508385, 21.2573124 ] } },
{ "type": "Feature", "properties": { "id": 9025161212, "name": "Ban Quản Lý Dự Án Huyện Sóc Sơn", "index_right": 73, "district": "Xã Sóc Sơn" }, "geometry": { "type": "Point", "coordinates": [ 105.8537286, 21.2573686 ] } },
{ "type": "Feature", "properties": { "id": 9025161213, "name": "Số nhà 73 Đường Núi Đôi", "index_right": 73, "district": "Xã Sóc Sơn" }, "geometry": { "type": "Point", "coordinates": [ 105.8541977, 21.2574981 ] } },
{ "type": "Feature", "properties": { "id": 9025161214, "name": "Công Ty Nam Sơn", "index_right": 73, "district": "Xã Sóc Sơn" }, "geometry": { "type": "Point", "coordinates": [ 105.8580089, 21.2573276 ] } },
{ "type": "Feature", "properties": { "id": 9025161215, "name": "Số nhà 227 đường Núi Đôi", "index_right": 73, "district": "Xã Sóc Sơn" }, "geometry": { "type": "Point", "coordinates": [ 105.8583499, 21.2574134 ] } },
{ "type": "Feature", "properties": { "id": 9025161216, "name": "Số 158 đường Núi Đôi", "index_right": 73, "district": "Xã Sóc Sơn" }, "geometry": { "type": "Point", "coordinates": [ 105.860405, 21.2569891 ] } },
{ "type": "Feature", "properties": { "id": 9025164717, "name": "Khu A Cột Điện SS1", "index_right": 73, "district": "Xã Sóc Sơn" }, "geometry": { "type": "Point", "coordinates": [ 105.8608972, 21.2572266 ] } },
{ "type": "Feature", "properties": { "id": 9025164718, "name": "Điểm Đỗ Xe Bus Núi Đôi", "index_right": 73, "district": "Xã Sóc Sơn" }, "geometry": { "type": "Point", "coordinates": [ 105.8679855, 21.256991 ] } },
{ "type": "Feature", "properties": { "id": 9025879836, "name": "Học viện Phật giáo Việt Nam", "index_right": 73, "district": "Xã Sóc Sơn" }, "geometry": { "type": "Point", "coordinates": [ 105.8345568, 21.2867232 ] } },
{ "type": "Feature", "properties": { "id": 9025879837, "name": "Trạm Xe Bus Lữ Đoàn Tác Chiến Điện Tử 87", "index_right": 73, "district": "Xã Sóc Sơn" }, "geometry": { "type": "Point", "coordinates": [ 105.8450798, 21.2795817 ] } },
{ "type": "Feature", "properties": { "id": 9025879838, "name": "Trung đoàn 141", "index_right": 73, "district": "Xã Sóc Sơn" }, "geometry": { "type": "Point", "coordinates": [ 105.8457474, 21.2791264 ] } },
{ "type": "Feature", "properties": { "id": 9025879839, "name": "Trạm y tế xã Phù Linh", "index_right": 73, "district": "Xã Sóc Sơn" }, "geometry": { "type": "Point", "coordinates": [ 105.852822, 21.271662 ] } },
{ "type": "Feature", "properties": { "id": 9025879840, "name": "Trường Tiểu học Phù Linh", "index_right": 73, "district": "Xã Sóc Sơn" }, "geometry": { "type": "Point", "coordinates": [ 105.852674, 21.2721079 ] } },
{ "type": "Feature", "properties": { "id": 9025879841, "name": "Phố Mã - Phù Linh (Km 26+180) Cột điện BĐ 39", "index_right": 73, "district": "Xã Sóc Sơn" }, "geometry": { "type": "Point", "coordinates": [ 105.8543795, 21.2686511 ] } },
{ "type": "Feature", "properties": { "id": 9025879842, "name": "Phố Mã - Phù Linh (Km 26+100 Quốc lộ 3)", "index_right": 73, "district": "Xã Sóc Sơn" }, "geometry": { "type": "Point", "coordinates": [ 105.8540988, 21.268097 ] } },
{ "type": "Feature", "properties": { "id": 9025879843, "name": "Cty Đầu tư & Thương mại khoáng sản Sóc Sơn - Km 25+250 Quốc lộ 3", "index_right": 73, "district": "Xã Sóc Sơn" }, "geometry": { "type": "Point", "coordinates": [ 105.8493951, 21.2602826 ] } },
{ "type": "Feature", "properties": { "id": 9025879844, "name": "Đối diện Cty CP Đầu tư thương mại và khoáng sản Sóc Sơn - Km 25+150 Quốc lộ 3", "index_right": 73, "district": "Xã Sóc Sơn" }, "geometry": { "type": "Point", "coordinates": [ 105.8491562, 21.2594813 ] } },
{ "type": "Feature", "properties": { "id": 9025879845, "name": "Số nhà 190 đường Núi Đôi", "index_right": 73, "district": "Xã Sóc Sơn" }, "geometry": { "type": "Point", "coordinates": [ 105.867719, 21.2568933 ] } },
{ "type": "Feature", "properties": { "id": 9025879846, "name": "Qua ngã tư lối vào Đại học Điện lực 50m", "index_right": 73, "district": "Xã Sóc Sơn" }, "geometry": { "type": "Point", "coordinates": [ 105.8674077, 21.2569765 ] } },
{ "type": "Feature", "properties": { "id": 9025879847, "name": "Đối diện Phòng khám đa khoa Xuân Giang", "index_right": 73, "district": "Xã Sóc Sơn" }, "geometry": { "type": "Point", "coordinates": [ 105.8753675, 21.252346 ] } },
{ "type": "Feature", "properties": { "id": 9025879869, "name": "UBND xã Tân Minh", "index_right": 73, "district": "Xã Sóc Sơn" }, "geometry": { "type": "Point", "coordinates": [ 105.8776177, 21.2641482 ] } },
{ "type": "Feature", "properties": { "id": 9025879870, "name": "Đối diện Km 0+500 -Tỉnh lộ 296", "index_right": 73, "district": "Xã Sóc Sơn" }, "geometry": { "type": "Point", "coordinates": [ 105.8714603, 21.2613909 ] } },
{ "type": "Feature", "properties": { "id": 9025879871, "name": "Phòng Khám Đa Khoa Xuân Giang", "index_right": 73, "district": "Xã Sóc Sơn" }, "geometry": { "type": "Point", "coordinates": [ 105.8754249, 21.252568 ] } },
{ "type": "Feature", "properties": { "id": 9025879892, "name": "Km 2+300 - Tỉnh Lộ 296", "index_right": 73, "district": "Xã Sóc Sơn" }, "geometry": { "type": "Point", "coordinates": [ 105.8822351, 21.2691924 ] } },
{ "type": "Feature", "properties": { "id": 9025879893, "name": "Đối diện gần UBND xã Tân Minh", "index_right": 73, "district": "Xã Sóc Sơn" }, "geometry": { "type": "Point", "coordinates": [ 105.8778721, 21.2640962 ] } },
{ "type": "Feature", "properties": { "id": 9025879894, "name": "Km 0+600 - Tỉnh Lộ 296", "index_right": 73, "district": "Xã Sóc Sơn" }, "geometry": { "type": "Point", "coordinates": [ 105.8717982, 21.2615199 ] } },
{ "type": "Feature", "properties": { "id": 11129082360, "name": "Nhà văn hoá thôn Cả", "index_right": 73, "district": "Xã Sóc Sơn" }, "geometry": { "type": "Point", "coordinates": [ 105.8773263, 21.2120165 ] } },
{ "type": "Feature", "properties": { "id": 11129082361, "name": "Qua ngã tư đê Xuân Dương đường 16", "index_right": 73, "district": "Xã Sóc Sơn" }, "geometry": { "type": "Point", "coordinates": [ 105.8763366, 21.2125316 ] } },
{ "type": "Feature", "properties": { "id": 11129082363, "name": "Đối diện Công ty TNHH MTV Cơ khí 17", "index_right": 73, "district": "Xã Sóc Sơn" }, "geometry": { "type": "Point", "coordinates": [ 105.8721362, 21.2126274 ] } },
{ "type": "Feature", "properties": { "id": 11129082364, "name": "Công ty TNHH MTV Cơ khí 17", "index_right": 73, "district": "Xã Sóc Sơn" }, "geometry": { "type": "Point", "coordinates": [ 105.8719391, 21.2124599 ] } },
{ "type": "Feature", "properties": { "id": 11129082365, "name": "Đố diện quầy thuốc Phú Minh", "index_right": 73, "district": "Xã Sóc Sơn" }, "geometry": { "type": "Point", "coordinates": [ 105.8656535, 21.2086465 ] } },
{ "type": "Feature", "properties": { "id": 11129082366, "name": "Quầy thuốc Phú Minh", "index_right": 73, "district": "Xã Sóc Sơn" }, "geometry": { "type": "Point", "coordinates": [ 105.8650607, 21.2083914 ] } },
{ "type": "Feature", "properties": { "id": 11129082367, "name": "Đối diện Công ty TNHH Toàn Năng", "index_right": 73, "district": "Xã Sóc Sơn" }, "geometry": { "type": "Point", "coordinates": [ 105.8587939, 21.2062209 ] } },
{ "type": "Feature", "properties": { "id": 11129082368, "name": "Công ty TNHH Toàn Năng", "index_right": 73, "district": "Xã Sóc Sơn" }, "geometry": { "type": "Point", "coordinates": [ 105.8581448, 21.2059384 ] } },
{ "type": "Feature", "properties": { "id": 11129082369, "name": "Gần nhà 57 đường 16", "index_right": 73, "district": "Xã Sóc Sơn" }, "geometry": { "type": "Point", "coordinates": [ 105.8517933, 21.2039354 ] } },
{ "type": "Feature", "properties": { "id": 11129082370, "name": "Nhà 57", "index_right": 73, "district": "Xã Sóc Sơn" }, "geometry": { "type": "Point", "coordinates": [ 105.8517236, 21.2037704 ] } },
{ "type": "Feature", "properties": { "id": 11129082371, "name": "Đối diện chợ Phủ Lỗ - Km 18+650 Quốc lộ 3", "index_right": 73, "district": "Xã Sóc Sơn" }, "geometry": { "type": "Point", "coordinates": [ 105.8488844, 21.2008696 ] } },
{ "type": "Feature", "properties": { "id": 11129082372, "name": "Chợ Phủ Lỗ, Chùa Thiên Tuế - Km 18+600 Quốc lộ 3", "index_right": 73, "district": "Xã Sóc Sơn" }, "geometry": { "type": "Point", "coordinates": [ 105.8487208, 21.200527 ] } },
{ "type": "Feature", "properties": { "id": 11129082373, "name": "Cửa hàng KD tổng hợp số 3 - Km 0+200 Quốc lộ 2", "index_right": 73, "district": "Xã Sóc Sơn" }, "geometry": { "type": "Point", "coordinates": [ 105.8463346, 21.1997643 ] } },
{ "type": "Feature", "properties": { "id": 11129082374, "name": "Số 67 đường 3 Phủ Lỗ - Sóc Sơn", "index_right": 73, "district": "Xã Sóc Sơn" }, "geometry": { "type": "Point", "coordinates": [ 105.8450816, 21.1993767 ] } },
{ "type": "Feature", "properties": { "id": 11129082375, "name": "Số 36B QL2 Phủ Lỗ - Sóc Sơn", "index_right": 73, "district": "Xã Sóc Sơn" }, "geometry": { "type": "Point", "coordinates": [ 105.8412809, 21.1986565 ] } },
{ "type": "Feature", "properties": { "id": 11129082376, "name": "Sân vận động xã Phù Lỗ - Km 0+750 Quốc lộ 2", "index_right": 73, "district": "Xã Sóc Sơn" }, "geometry": { "type": "Point", "coordinates": [ 105.8404521, 21.198639 ] } },
{ "type": "Feature", "properties": { "id": 11129082379, "name": "Số 254 đường 2 Phủ Lỗ - Sóc Sơn", "index_right": 73, "district": "Xã Sóc Sơn" }, "geometry": { "type": "Point", "coordinates": [ 105.8362504, 21.198019 ] } },
{ "type": "Feature", "properties": { "id": 11129082380, "name": "Cạnh cây xăng Vinapco - Km 1+360 Quốc lộ 2", "index_right": 73, "district": "Xã Sóc Sơn" }, "geometry": { "type": "Point", "coordinates": [ 105.8339095, 21.198199 ] } },
{ "type": "Feature", "properties": { "id": 11129082382, "name": "Số 9 Phủ Lỗ - Km 2+400 Quốc lộ 2", "index_right": 73, "district": "Xã Sóc Sơn" }, "geometry": { "type": "Point", "coordinates": [ 105.8253503, 21.1983291 ] } },
{ "type": "Feature", "properties": { "id": 11516291193, "name": "Đối diện Trường Trung học phổ thông Lam Hồng - Km 17+850 Quốc lộ 3", "index_right": 73, "district": "Xã Sóc Sơn" }, "geometry": { "type": "Point", "coordinates": [ 105.8482581, 21.1949209 ] } },
{ "type": "Feature", "properties": { "id": 11516291194, "name": "Đối diện Công ty CTGT 228 - Km 19+400 Quốc lộ 3", "index_right": 73, "district": "Xã Sóc Sơn" }, "geometry": { "type": "Point", "coordinates": [ 105.849021, 21.2091052 ] } },
{ "type": "Feature", "properties": { "id": 11516291195, "name": "Đối diện cửa hàng xăng dầu Đồng Quýt - QL3", "index_right": 73, "district": "Xã Sóc Sơn" }, "geometry": { "type": "Point", "coordinates": [ 105.8489966, 21.2137227 ] } },
{ "type": "Feature", "properties": { "id": 11516291196, "name": "Cty xây dựng Sông Đà số 8 (Nội Phật) - Km 20+900 Quốc lộ 3", "index_right": 73, "district": "Xã Sóc Sơn" }, "geometry": { "type": "Point", "coordinates": [ 105.849028, 21.2229665 ] } },
{ "type": "Feature", "properties": { "id": 11516291198, "name": "Thôn Dược Hạ, Tiên Dược - Km 21+850 Quốc lộ 3", "index_right": 73, "district": "Xã Sóc Sơn" }, "geometry": { "type": "Point", "coordinates": [ 105.849213, 21.2311227 ] } },
{ "type": "Feature", "properties": { "id": 11516291199, "name": "Đối diện đường vào thôn Đồng Lạc - Km 22+470 Quốc lộ 3", "index_right": 73, "district": "Xã Sóc Sơn" }, "geometry": { "type": "Point", "coordinates": [ 105.8493106, 21.2369219 ] } },
{ "type": "Feature", "properties": { "id": 11516291200, "name": "Trung tâm Giáo dục thường xuyên Sóc Sơn, Tiên Dược - Km 23+390 Quốc lộ 3", "index_right": 73, "district": "Xã Sóc Sơn" }, "geometry": { "type": "Point", "coordinates": [ 105.8489696, 21.2448925 ] } },
{ "type": "Feature", "properties": { "id": 11516291201, "name": "Bệnh viện đa khoa Sóc Sơn - Km 23+900 Quốc lộ 3", "index_right": 73, "district": "Xã Sóc Sơn" }, "geometry": { "type": "Point", "coordinates": [ 105.8484798, 21.2496885 ] } },
{ "type": "Feature", "properties": { "id": 11516291202, "name": "Ngân hàng Agribank Sóc Sơn - Quốc lộ 3", "index_right": 73, "district": "Xã Sóc Sơn" }, "geometry": { "type": "Point", "coordinates": [ 105.8482034, 21.2531882 ] } },
{ "type": "Feature", "properties": { "id": 11516291203, "name": "Ngã 4 Đa Phúc, Thị trấn Sóc Sơn - Km 24+600 Quốc lộ 3", "index_right": 73, "district": "Xã Sóc Sơn" }, "geometry": { "type": "Point", "coordinates": [ 105.848093, 21.2559333 ] } },
{ "type": "Feature", "properties": { "id": 11516291204, "name": "Ấp Vuông, Tân Minh - Km 27+200 Quốc lộ 3", "index_right": 73, "district": "Xã Sóc Sơn" }, "geometry": { "type": "Point", "coordinates": [ 105.8577203, 21.2769862 ] } },
{ "type": "Feature", "properties": { "id": 11516291205, "name": "Cty cơ khí & xây dựng Thủy lợi 2, Tân Minh - Km 27+950 Quốc lộ 3", "index_right": 73, "district": "Xã Sóc Sơn" }, "geometry": { "type": "Point", "coordinates": [ 105.859678, 21.2834294 ] } },
{ "type": "Feature", "properties": { "id": 11518476648, "name": "Đối diện Cty CP cơ khí & xây dựng Thủy lợi 5 Tân Minh - Km 28+050 Quốc lộ 3", "index_right": 73, "district": "Xã Sóc Sơn" }, "geometry": { "type": "Point", "coordinates": [ 105.8592312, 21.2825866 ] } },
{ "type": "Feature", "properties": { "id": 11518476649, "name": "Ấp Vuông - Tân Minh (Km 27+150 Quốc lộ 3) Cột điện BĐ 20", "index_right": 73, "district": "Xã Sóc Sơn" }, "geometry": { "type": "Point", "coordinates": [ 105.857897, 21.278164 ] } },
{ "type": "Feature", "properties": { "id": 11518476650, "name": "Công an Sóc Sơn, ngã 4 Đa Phúc - Km 24+650 Quốc lộ 3", "index_right": 73, "district": "Xã Sóc Sơn" }, "geometry": { "type": "Point", "coordinates": [ 105.8477949, 21.2564965 ] } },
{ "type": "Feature", "properties": { "id": 11518476651, "name": "Đối diện ngân hàng Agribank Sóc Sơn - Quốc lộ 3", "index_right": 73, "district": "Xã Sóc Sơn" }, "geometry": { "type": "Point", "coordinates": [ 105.8480601, 21.2530585 ] } },
{ "type": "Feature", "properties": { "id": 11518476652, "name": "Đối diện Bệnh viện đa khoa Sóc Sơn - Km 23+950 Quốc lộ 3", "index_right": 73, "district": "Xã Sóc Sơn" }, "geometry": { "type": "Point", "coordinates": [ 105.8483143, 21.2499393 ] } },
{ "type": "Feature", "properties": { "id": 11518476653, "name": "Đối diện Trung tâm Giáo dục thường xuyên Sóc Sơn, Tiên Dược - Km 23+420 Quốc lộ 3", "index_right": 73, "district": "Xã Sóc Sơn" }, "geometry": { "type": "Point", "coordinates": [ 105.8488233, 21.2451602 ] } },
{ "type": "Feature", "properties": { "id": 11518476654, "name": "Cạnh đường vào thôn Đồng Lạc, Tiên Dược - Km 22+560 Quốc lộ 3", "index_right": 73, "district": "Xã Sóc Sơn" }, "geometry": { "type": "Point", "coordinates": [ 105.8491273, 21.2376975 ] } },
{ "type": "Feature", "properties": { "id": 11518476655, "name": "Đối diện Thôn Dược Hạ, Tiên Dược - Km 21+920 Quốc lộ 3", "index_right": 73, "district": "Xã Sóc Sơn" }, "geometry": { "type": "Point", "coordinates": [ 105.8490589, 21.2320373 ] } },
{ "type": "Feature", "properties": { "id": 11518476656, "name": "Đối diện đường vào Trường Tiểu học Lương thực Thành phố& Vật tư Nông nghiệp (Nội Phật) - Km 21+00 Quốc lộ 3", "index_right": 73, "district": "Xã Sóc Sơn" }, "geometry": { "type": "Point", "coordinates": [ 105.8488516, 21.221744 ] } },
{ "type": "Feature", "properties": { "id": 11518476657, "name": "Cạnh trạm xăng dầu Đồng Quýt 50m", "index_right": 73, "district": "Xã Sóc Sơn" }, "geometry": { "type": "Point", "coordinates": [ 105.8488227, 21.214116 ] } },
{ "type": "Feature", "properties": { "id": 11518476658, "name": "Công ty CTGT 228 - Km 19+500 Quốc lộ 3", "index_right": 73, "district": "Xã Sóc Sơn" }, "geometry": { "type": "Point", "coordinates": [ 105.8488397, 21.2095915 ] } },
{ "type": "Feature", "properties": { "id": 11518476659, "name": "Trường Trung học phổ thông Lam Hồng - Km 17+750 Quốc lộ 3", "index_right": 73, "district": "Xã Sóc Sơn" }, "geometry": { "type": "Point", "coordinates": [ 105.8480577, 21.1938773 ] } },
{ "type": "Feature", "properties": { "id": 11528457068, "name": "Xã Mai Đình", "index_right": 73, "district": "Xã Sóc Sơn" }, "geometry": { "type": "Point", "coordinates": [ 105.8218095, 21.2413924 ] } }
]
}
