{
"type": "FeatureCollection",
"name": "Xã_Tam_Giang",
"crs": { "type": "name", "properties": { "name": "urn:ogc:def:crs:OGC:1.3:CRS84" } },
"features": [
{ "type": "Feature", "properties": { "id": 13043137242, "name": "Cầu Đò Lo", "index_right": 19, "district": "Xã Tam Giang" }, "geometry": { "type": "Point", "coordinates": [ 105.9112986, 21.2004417 ] } },
{ "type": "Feature", "properties": { "id": 13043137243, "name": "Cầu Đò Lo", "index_right": 19, "district": "Xã Tam Giang" }, "geometry": { "type": "Point", "coordinates": [ 105.9116591, 21.2002386 ] } },
{ "type": "Feature", "properties": { "id": 13043137244, "name": "Không tên", "index_right": 19, "district": "Xã Tam Giang" }, "geometry": { "type": "Point", "coordinates": [ 105.9165343, 21.199982 ] } },
{ "type": "Feature", "properties": { "id": 13043137245, "name": "Không tên", "index_right": 19, "district": "Xã Tam Giang" }, "geometry": { "type": "Point", "coordinates": [ 105.9175211, 21.1997005 ] } },
{ "type": "Feature", "properties": { "id": 13043137246, "name": "Không tên", "index_right": 19, "district": "Xã Tam Giang" }, "geometry": { "type": "Point", "coordinates": [ 105.9213559, 21.199362 ] } }
]
}
