{
"type": "FeatureCollection",
"name": "Xã_Như_Quỳnh",
"crs": { "type": "name", "properties": { "name": "urn:ogc:def:crs:OGC:1.3:CRS84" } },
"features": [
{ "type": "Feature", "properties": { "id": 481836727, "name": "Vịnh chờ xe buýt gần cầu vượt chợ Như Quỳnh", "index_right": 189, "district": "Xã Như Quỳnh" }, "geometry": { "type": "Point", "coordinates": [ 105.9831999, 20.9825608 ] } },
{ "type": "Feature", "properties": { "id": 481836727, "name": "Vịnh chờ xe buýt gần cầu vượt chợ Như Quỳnh", "index_right": 190, "district": "Xã Như Quỳnh" }, "geometry": { "type": "Point", "coordinates": [ 105.9831999, 20.9825608 ] } },
{ "type": "Feature", "properties": { "id": 481836984, "name": "Trạm bus", "index_right": 189, "district": "Xã Như Quỳnh" }, "geometry": { "type": "Point", "coordinates": [ 105.980282, 20.984495 ] } },
{ "type": "Feature", "properties": { "id": 481836984, "name": "Trạm bus", "index_right": 190, "district": "Xã Như Quỳnh" }, "geometry": { "type": "Point", "coordinates": [ 105.980282, 20.984495 ] } },
{ "type": "Feature", "properties": { "id": 738815790, "name": "40,204,207", "index_right": 189, "district": "Xã Như Quỳnh" }, "geometry": { "type": "Point", "coordinates": [ 105.9850895, 20.9811103 ] } },
{ "type": "Feature", "properties": { "id": 738815790, "name": "40,204,207", "index_right": 190, "district": "Xã Như Quỳnh" }, "geometry": { "type": "Point", "coordinates": [ 105.9850895, 20.9811103 ] } },
{ "type": "Feature", "properties": { "id": 738815810, "name": "40", "index_right": 189, "district": "Xã Như Quỳnh" }, "geometry": { "type": "Point", "coordinates": [ 105.9727841, 20.9861007 ] } },
{ "type": "Feature", "properties": { "id": 738815810, "name": "40", "index_right": 190, "district": "Xã Như Quỳnh" }, "geometry": { "type": "Point", "coordinates": [ 105.9727841, 20.9861007 ] } },
{ "type": "Feature", "properties": { "id": 11524139307, "name": "Ngã ba Như Quỳnh", "index_right": 189, "district": "Xã Như Quỳnh" }, "geometry": { "type": "Point", "coordinates": [ 105.9760068, 20.9887979 ] } },
{ "type": "Feature", "properties": { "id": 11524139307, "name": "Ngã ba Như Quỳnh", "index_right": 190, "district": "Xã Như Quỳnh" }, "geometry": { "type": "Point", "coordinates": [ 105.9760068, 20.9887979 ] } },
{ "type": "Feature", "properties": { "id": 11524139308, "name": "Nhà 28-30 Thị trấn Như Quỳnh", "index_right": 189, "district": "Xã Như Quỳnh" }, "geometry": { "type": "Point", "coordinates": [ 105.9841299, 20.9814839 ] } },
{ "type": "Feature", "properties": { "id": 11524139308, "name": "Nhà 28-30 Thị trấn Như Quỳnh", "index_right": 190, "district": "Xã Như Quỳnh" }, "geometry": { "type": "Point", "coordinates": [ 105.9841299, 20.9814839 ] } },
{ "type": "Feature", "properties": { "id": 11524139309, "name": "Gần ngã 3 Ngọc Lịch", "index_right": 189, "district": "Xã Như Quỳnh" }, "geometry": { "type": "Point", "coordinates": [ 105.9913703, 20.9709107 ] } },
{ "type": "Feature", "properties": { "id": 11524139309, "name": "Gần ngã 3 Ngọc Lịch", "index_right": 190, "district": "Xã Như Quỳnh" }, "geometry": { "type": "Point", "coordinates": [ 105.9913703, 20.9709107 ] } },
{ "type": "Feature", "properties": { "id": 11524139310, "name": "Văn Lâm - Tuyến 40", "index_right": 189, "district": "Xã Như Quỳnh" }, "geometry": { "type": "Point", "coordinates": [ 105.9943856, 20.9648307 ] } },
{ "type": "Feature", "properties": { "id": 11524139310, "name": "Văn Lâm - Tuyến 40", "index_right": 190, "district": "Xã Như Quỳnh" }, "geometry": { "type": "Point", "coordinates": [ 105.9943856, 20.9648307 ] } },
{ "type": "Feature", "properties": { "id": 11524139311, "name": "138 - 140 Chợ đường Cái", "index_right": 189, "district": "Xã Như Quỳnh" }, "geometry": { "type": "Point", "coordinates": [ 105.9982296, 20.9584782 ] } },
{ "type": "Feature", "properties": { "id": 11524139311, "name": "138 - 140 Chợ đường Cái", "index_right": 190, "district": "Xã Như Quỳnh" }, "geometry": { "type": "Point", "coordinates": [ 105.9982296, 20.9584782 ] } },
{ "type": "Feature", "properties": { "id": 11524139312, "name": "15 - 17 Chợ đường Cái", "index_right": 189, "district": "Xã Như Quỳnh" }, "geometry": { "type": "Point", "coordinates": [ 105.9986679, 20.9584834 ] } },
{ "type": "Feature", "properties": { "id": 11524139312, "name": "15 - 17 Chợ đường Cái", "index_right": 190, "district": "Xã Như Quỳnh" }, "geometry": { "type": "Point", "coordinates": [ 105.9986679, 20.9584834 ] } },
{ "type": "Feature", "properties": { "id": 11524139313, "name": "Trước cổng trạm trộn BT Việt Đức 100m", "index_right": 189, "district": "Xã Như Quỳnh" }, "geometry": { "type": "Point", "coordinates": [ 105.9946266, 20.9651889 ] } },
{ "type": "Feature", "properties": { "id": 11524139313, "name": "Trước cổng trạm trộn BT Việt Đức 100m", "index_right": 190, "district": "Xã Như Quỳnh" }, "geometry": { "type": "Point", "coordinates": [ 105.9946266, 20.9651889 ] } },
{ "type": "Feature", "properties": { "id": 11524139314, "name": "Qua cổng làng Đình Dù (Hưng Yên) 100m", "index_right": 189, "district": "Xã Như Quỳnh" }, "geometry": { "type": "Point", "coordinates": [ 105.9920304, 20.9702239 ] } },
{ "type": "Feature", "properties": { "id": 11524139314, "name": "Qua cổng làng Đình Dù (Hưng Yên) 100m", "index_right": 190, "district": "Xã Như Quỳnh" }, "geometry": { "type": "Point", "coordinates": [ 105.9920304, 20.9702239 ] } },
{ "type": "Feature", "properties": { "id": 11524139315, "name": "Ngã ba Như Quỳnh", "index_right": 189, "district": "Xã Như Quỳnh" }, "geometry": { "type": "Point", "coordinates": [ 105.9770885, 20.9880315 ] } },
{ "type": "Feature", "properties": { "id": 11524139315, "name": "Ngã ba Như Quỳnh", "index_right": 190, "district": "Xã Như Quỳnh" }, "geometry": { "type": "Point", "coordinates": [ 105.9770885, 20.9880315 ] } },
{ "type": "Feature", "properties": { "id": 12118587809, "name": "Phân khu Vịnh Tây – Đường Đại lộ bốn mùa", "index_right": 189, "district": "Xã Như Quỳnh" }, "geometry": { "type": "Point", "coordinates": [ 105.9712513, 20.9613894 ] } },
{ "type": "Feature", "properties": { "id": 12118587809, "name": "Phân khu Vịnh Tây – Đường Đại lộ bốn mùa", "index_right": 190, "district": "Xã Như Quỳnh" }, "geometry": { "type": "Point", "coordinates": [ 105.9712513, 20.9613894 ] } }
]
}
