{
"type": "FeatureCollection",
"name": "Xã_Thuận_An",
"crs": { "type": "name", "properties": { "name": "urn:ogc:def:crs:OGC:1.3:CRS84" } },
"features": [
{ "type": "Feature", "properties": { "id": 8925821816, "name": "Đối diện nhà CT8B - Đường DX2", "index_right": 26, "district": "Xã Thuận An" }, "geometry": { "type": "Point", "coordinates": [ 105.9502515, 21.0136162 ] } },
{ "type": "Feature", "properties": { "id": 8925835917, "name": "Đối diện nhà A3-D1 (Khu đô thị Đặng Xá)", "index_right": 26, "district": "Xã Thuận An" }, "geometry": { "type": "Point", "coordinates": [ 105.9530134, 21.0133022 ] } },
{ "type": "Feature", "properties": { "id": 8925835918, "name": "Đối diện nhà D5 (Khu đô thị Đặng Xá)", "index_right": 26, "district": "Xã Thuận An" }, "geometry": { "type": "Point", "coordinates": [ 105.9557886, 21.0166982 ] } },
{ "type": "Feature", "properties": { "id": 8925835919, "name": "Đối diện nhà D16 (Khu đô thị Đặng Xá)", "index_right": 26, "district": "Xã Thuận An" }, "geometry": { "type": "Point", "coordinates": [ 105.9545349, 21.0193122 ] } },
{ "type": "Feature", "properties": { "id": 8925835924, "name": "Nhà D16 (Khu đô thị Đặng Xá)", "index_right": 26, "district": "Xã Thuận An" }, "geometry": { "type": "Point", "coordinates": [ 105.9543946, 21.0192515 ] } },
{ "type": "Feature", "properties": { "id": 8925835925, "name": "Nhà D5 (Khu đô thị Đặng Xá)", "index_right": 26, "district": "Xã Thuận An" }, "geometry": { "type": "Point", "coordinates": [ 105.9557626, 21.0168148 ] } },
{ "type": "Feature", "properties": { "id": 8925835926, "name": "Nhà A3-D1 (Khu đô thị Đặng Xá)", "index_right": 26, "district": "Xã Thuận An" }, "geometry": { "type": "Point", "coordinates": [ 105.9529733, 21.0134346 ] } },
{ "type": "Feature", "properties": { "id": 8925835927, "name": "Nhà CT8B - Đường DX2", "index_right": 26, "district": "Xã Thuận An" }, "geometry": { "type": "Point", "coordinates": [ 105.9504223, 21.0136416 ] } },
{ "type": "Feature", "properties": { "id": 8990709067, "name": "Trạm y tế xã Phú Thị", "index_right": 26, "district": "Xã Thuận An" }, "geometry": { "type": "Point", "coordinates": [ 105.9701149, 21.0218544 ] } },
{ "type": "Feature", "properties": { "id": 8990709068, "name": "Cửa hàng xăng dầu số 65 Phú Thị", "index_right": 26, "district": "Xã Thuận An" }, "geometry": { "type": "Point", "coordinates": [ 105.9755549, 21.0236861 ] } },
{ "type": "Feature", "properties": { "id": 8990709069, "name": "Đường vào khu Di Tích Lịch Sử Kim Sơn", "index_right": 26, "district": "Xã Thuận An" }, "geometry": { "type": "Point", "coordinates": [ 105.9843228, 21.0257403 ] } },
{ "type": "Feature", "properties": { "id": 8990709070, "name": "UBND xã Kim Sơn", "index_right": 26, "district": "Xã Thuận An" }, "geometry": { "type": "Point", "coordinates": [ 105.9884477, 21.0259352 ] } },
{ "type": "Feature", "properties": { "id": 8990709071, "name": "Học Viện Tòa Án", "index_right": 26, "district": "Xã Thuận An" }, "geometry": { "type": "Point", "coordinates": [ 105.9979559, 21.0268911 ] } },
{ "type": "Feature", "properties": { "id": 8995358224, "name": "Đối diện Nhà văn hóa thôn Bài Tâm", "index_right": 26, "district": "Xã Thuận An" }, "geometry": { "type": "Point", "coordinates": [ 105.9767731, 21.0070727 ] } },
{ "type": "Feature", "properties": { "id": 8995358225, "name": "Trước Cầu Trung khoảng 30m", "index_right": 26, "district": "Xã Thuận An" }, "geometry": { "type": "Point", "coordinates": [ 105.9821929, 21.0058284 ] } },
{ "type": "Feature", "properties": { "id": 8995358226, "name": "Trường THCS Dương Quang", "index_right": 26, "district": "Xã Thuận An" }, "geometry": { "type": "Point", "coordinates": [ 105.9851655, 21.0074882 ] } },
{ "type": "Feature", "properties": { "id": 8995358227, "name": "Qua Trạm biến áp Dương Quang 10 khoảng 30m", "index_right": 26, "district": "Xã Thuận An" }, "geometry": { "type": "Point", "coordinates": [ 105.9936272, 21.0078171 ] } },
{ "type": "Feature", "properties": { "id": 8995358230, "name": "Trước Trạm biến áp Dương Quang 10 khoảng 20m", "index_right": 26, "district": "Xã Thuận An" }, "geometry": { "type": "Point", "coordinates": [ 105.9942486, 21.0073937 ] } },
{ "type": "Feature", "properties": { "id": 8995358231, "name": "Đối diện Trường THCS Dương Quang", "index_right": 26, "district": "Xã Thuận An" }, "geometry": { "type": "Point", "coordinates": [ 105.9853163, 21.0076953 ] } },
{ "type": "Feature", "properties": { "id": 8995358232, "name": "Qua Cầu Trung khoảng 30m", "index_right": 26, "district": "Xã Thuận An" }, "geometry": { "type": "Point", "coordinates": [ 105.9820048, 21.0059243 ] } },
{ "type": "Feature", "properties": { "id": 8995358233, "name": "Nhà văn hóa thôn Bài Tâm", "index_right": 26, "district": "Xã Thuận An" }, "geometry": { "type": "Point", "coordinates": [ 105.9760469, 21.0067834 ] } },
{ "type": "Feature", "properties": { "id": 11281471049, "name": "Điểm đỗ xe buýt Đặng Xá", "index_right": 26, "district": "Xã Thuận An" }, "geometry": { "type": "Point", "coordinates": [ 105.9556892, 21.0349153 ] } },
{ "type": "Feature", "properties": { "id": 11281471050, "name": "Trước đường vào THCS Đặng Xá", "index_right": 26, "district": "Xã Thuận An" }, "geometry": { "type": "Point", "coordinates": [ 105.96012, 21.0284805 ] } },
{ "type": "Feature", "properties": { "id": 11281471051, "name": "Đối diện Công ty May Nam Sơn", "index_right": 26, "district": "Xã Thuận An" }, "geometry": { "type": "Point", "coordinates": [ 105.9624438, 21.0237432 ] } },
{ "type": "Feature", "properties": { "id": 11281471058, "name": "Cột điện PT 21 (gần CH bia hơi Hậu Oánh)", "index_right": 26, "district": "Xã Thuận An" }, "geometry": { "type": "Point", "coordinates": [ 105.9646084, 21.0209131 ] } },
{ "type": "Feature", "properties": { "id": 11281471059, "name": "Công ty May Nam Sơn", "index_right": 26, "district": "Xã Thuận An" }, "geometry": { "type": "Point", "coordinates": [ 105.9624011, 21.0242313 ] } },
{ "type": "Feature", "properties": { "id": 11281471060, "name": "Trước đối diện 100m đường vào Trường THCS Đặng Xá", "index_right": 26, "district": "Xã Thuận An" }, "geometry": { "type": "Point", "coordinates": [ 105.9594936, 21.0298404 ] } },
{ "type": "Feature", "properties": { "id": 11527354919, "name": "274 Phó Keo", "index_right": 26, "district": "Xã Thuận An" }, "geometry": { "type": "Point", "coordinates": [ 105.9913459, 21.0258895 ] } },
{ "type": "Feature", "properties": { "id": 11527354920, "name": "Đường vào chùa Sen Hồ", "index_right": 26, "district": "Xã Thuận An" }, "geometry": { "type": "Point", "coordinates": [ 105.998906, 21.0272801 ] } },
{ "type": "Feature", "properties": { "id": 11527354921, "name": "Chùa Keo", "index_right": 26, "district": "Xã Thuận An" }, "geometry": { "type": "Point", "coordinates": [ 105.9914214, 21.0260201 ] } },
{ "type": "Feature", "properties": { "id": 11527354922, "name": "Đối diện UBND xã Kim Sơn", "index_right": 26, "district": "Xã Thuận An" }, "geometry": { "type": "Point", "coordinates": [ 105.9879282, 21.0260269 ] } },
{ "type": "Feature", "properties": { "id": 11527354923, "name": "Làng Kim Sơn", "index_right": 26, "district": "Xã Thuận An" }, "geometry": { "type": "Point", "coordinates": [ 105.9836099, 21.0259146 ] } },
{ "type": "Feature", "properties": { "id": 11527354924, "name": "Đối diện Cửa hàng xăng dầu số 65 Phú Thị", "index_right": 26, "district": "Xã Thuận An" }, "geometry": { "type": "Point", "coordinates": [ 105.9764049, 21.0241411 ] } },
{ "type": "Feature", "properties": { "id": 11527354925, "name": "Sân vận động xã Phú Thị", "index_right": 26, "district": "Xã Thuận An" }, "geometry": { "type": "Point", "coordinates": [ 105.9705301, 21.0221855 ] } },
{ "type": "Feature", "properties": { "id": 12082634695, "name": "Đối diên Đình Bình Trù", "index_right": 26, "district": "Xã Thuận An" }, "geometry": { "type": "Point", "coordinates": [ 105.9894199, 21.0084823 ] } },
{ "type": "Feature", "properties": { "id": 12082634696, "name": "Đình Bình Trù", "index_right": 26, "district": "Xã Thuận An" }, "geometry": { "type": "Point", "coordinates": [ 105.9902987, 21.0087989 ] } }
]
}
