{
"type": "FeatureCollection",
"name": "Xã_Thư_Lâm",
"crs": { "type": "name", "properties": { "name": "urn:ogc:def:crs:OGC:1.3:CRS84" } },
"features": [
{ "type": "Feature", "properties": { "id": 11246285546, "name": "Điếm canh đê số 23 - Xuân Nộn (Đông Anh)", "index_right": 33, "district": "Xã Thư Lâm" }, "geometry": { "type": "Point", "coordinates": [ 105.8756962, 21.1869294 ] } },
{ "type": "Feature", "properties": { "id": 11246285568, "name": "Trường Cao đẳng nghề Việt Nam - Hàn Quốc", "index_right": 33, "district": "Xã Thư Lâm" }, "geometry": { "type": "Point", "coordinates": [ 105.8560788, 21.1767713 ] } },
{ "type": "Feature", "properties": { "id": 11246285569, "name": "Đối diện số 66, Tổ 22, Đường Uy Nỗ", "index_right": 33, "district": "Xã Thư Lâm" }, "geometry": { "type": "Point", "coordinates": [ 105.8568659, 21.1697819 ] } },
{ "type": "Feature", "properties": { "id": 11246285570, "name": "Đối diện Sân bóng Uy Nỗ - Đường Uy Nỗ", "index_right": 33, "district": "Xã Thư Lâm" }, "geometry": { "type": "Point", "coordinates": [ 105.857689, 21.1663971 ] } },
{ "type": "Feature", "properties": { "id": 11246285571, "name": "Cách 50 m Cổng làng khu Kình Nỗ", "index_right": 33, "district": "Xã Thư Lâm" }, "geometry": { "type": "Point", "coordinates": [ 105.8564433, 21.1616658 ] } },
{ "type": "Feature", "properties": { "id": 11246285574, "name": "Đội Cảnh sát phòng cháy chữa cháy (Uy Nỗ)", "index_right": 33, "district": "Xã Thư Lâm" }, "geometry": { "type": "Point", "coordinates": [ 105.858623, 21.1501645 ] } },
{ "type": "Feature", "properties": { "id": 11531107952, "name": "Đối diện đội Cảnh Sát Phòng Cháy Chữa Cháy (Uy Nỗ)", "index_right": 33, "district": "Xã Thư Lâm" }, "geometry": { "type": "Point", "coordinates": [ 105.8589701, 21.1500609 ] } },
{ "type": "Feature", "properties": { "id": 11531107953, "name": "Cách 60 m cổng làng Khu Kính Nỗ", "index_right": 33, "district": "Xã Thư Lâm" }, "geometry": { "type": "Point", "coordinates": [ 105.8569569, 21.1627169 ] } },
{ "type": "Feature", "properties": { "id": 11531107954, "name": "Sân bóng trên đường Uy Nỗ", "index_right": 33, "district": "Xã Thư Lâm" }, "geometry": { "type": "Point", "coordinates": [ 105.8578613, 21.1660806 ] } },
{ "type": "Feature", "properties": { "id": 11531107955, "name": "Số 66, Tổ 22, đường Uy Nỗ", "index_right": 33, "district": "Xã Thư Lâm" }, "geometry": { "type": "Point", "coordinates": [ 105.8569309, 21.1704718 ] } },
{ "type": "Feature", "properties": { "id": 11531107956, "name": "Qua cổng Trường Cao Đẳng Nghề Việt - Hàn 150 m", "index_right": 33, "district": "Xã Thư Lâm" }, "geometry": { "type": "Point", "coordinates": [ 105.8562178, 21.1757694 ] } },
{ "type": "Feature", "properties": { "id": 11531495089, "name": "Qua cổng làng Lỗ Khê 20m", "index_right": 33, "district": "Xã Thư Lâm" }, "geometry": { "type": "Point", "coordinates": [ 105.8878824, 21.1507237 ] } },
{ "type": "Feature", "properties": { "id": 11531495090, "name": "Trường THPT Liên Hà", "index_right": 33, "district": "Xã Thư Lâm" }, "geometry": { "type": "Point", "coordinates": [ 105.8921459, 21.1542072 ] } },
{ "type": "Feature", "properties": { "id": 11531495091, "name": "Công an huyện Đông Anh - 118 Liên Hà", "index_right": 33, "district": "Xã Thư Lâm" }, "geometry": { "type": "Point", "coordinates": [ 105.8968186, 21.1536902 ] } },
{ "type": "Feature", "properties": { "id": 11531495092, "name": "Đối diện TT y tế huyện Đông Anh - Liên Hà", "index_right": 33, "district": "Xã Thư Lâm" }, "geometry": { "type": "Point", "coordinates": [ 105.9020344, 21.1521289 ] } },
{ "type": "Feature", "properties": { "id": 11531495093, "name": "Đối diện số 75 Thiết Bình", "index_right": 33, "district": "Xã Thư Lâm" }, "geometry": { "type": "Point", "coordinates": [ 105.9185651, 21.1447496 ] } },
{ "type": "Feature", "properties": { "id": 11531495094, "name": "Trạm Y tế xã Vân Hà", "index_right": 33, "district": "Xã Thư Lâm" }, "geometry": { "type": "Point", "coordinates": [ 105.9186019, 21.1432893 ] } },
{ "type": "Feature", "properties": { "id": 11531495095, "name": "Đối diện số 29 Thiết Ứng", "index_right": 33, "district": "Xã Thư Lâm" }, "geometry": { "type": "Point", "coordinates": [ 105.916008, 21.1412151 ] } },
{ "type": "Feature", "properties": { "id": 11531495096, "name": "Đồ gỗ mỹ nghệ Thành Hưng - Thiết Úng", "index_right": 33, "district": "Xã Thư Lâm" }, "geometry": { "type": "Point", "coordinates": [ 105.9115003, 21.1354296 ] } },
{ "type": "Feature", "properties": { "id": 11531495097, "name": "221 Đình Tràng", "index_right": 33, "district": "Xã Thư Lâm" }, "geometry": { "type": "Point", "coordinates": [ 105.9097963, 21.1288989 ] } },
{ "type": "Feature", "properties": { "id": 11531495098, "name": "Dục Tú (Đông Anh) - Tuyến 61", "index_right": 33, "district": "Xã Thư Lâm" }, "geometry": { "type": "Point", "coordinates": [ 105.9093971, 21.1256417 ] } },
{ "type": "Feature", "properties": { "id": 11533262474, "name": "Đối diện 201 Đình Tràng", "index_right": 33, "district": "Xã Thư Lâm" }, "geometry": { "type": "Point", "coordinates": [ 105.9097469, 21.1281381 ] } },
{ "type": "Feature", "properties": { "id": 11533262475, "name": "Đối diện đồ gỗ mỹ nghệ Thành Hưng - Thiết Úng", "index_right": 33, "district": "Xã Thư Lâm" }, "geometry": { "type": "Point", "coordinates": [ 105.911546, 21.1352153 ] } },
{ "type": "Feature", "properties": { "id": 11533262476, "name": "Cầu Vân Hà", "index_right": 33, "district": "Xã Thư Lâm" }, "geometry": { "type": "Point", "coordinates": [ 105.9167597, 21.1416779 ] } },
{ "type": "Feature", "properties": { "id": 11533262477, "name": "Đối diện Trạm Y tế xã Vân Hà", "index_right": 33, "district": "Xã Thư Lâm" }, "geometry": { "type": "Point", "coordinates": [ 105.9187861, 21.143276 ] } },
{ "type": "Feature", "properties": { "id": 11533262478, "name": "Nhà Văn hóa thôn Thiết Bình", "index_right": 33, "district": "Xã Thư Lâm" }, "geometry": { "type": "Point", "coordinates": [ 105.917541, 21.146256 ] } },
{ "type": "Feature", "properties": { "id": 11533262479, "name": "Trường THCS Vân Hà", "index_right": 33, "district": "Xã Thư Lâm" }, "geometry": { "type": "Point", "coordinates": [ 105.9147842, 21.148779 ] } },
{ "type": "Feature", "properties": { "id": 11533262480, "name": "TT y tế huyện Đông Anh", "index_right": 33, "district": "Xã Thư Lâm" }, "geometry": { "type": "Point", "coordinates": [ 105.9017261, 21.1523294 ] } },
{ "type": "Feature", "properties": { "id": 11533262481, "name": "Đối diện 192 Hà Hương", "index_right": 33, "district": "Xã Thư Lâm" }, "geometry": { "type": "Point", "coordinates": [ 105.8973687, 21.1536615 ] } },
{ "type": "Feature", "properties": { "id": 11533262482, "name": "Đối diện trường THPT Liên Hà", "index_right": 33, "district": "Xã Thư Lâm" }, "geometry": { "type": "Point", "coordinates": [ 105.8927381, 21.1545334 ] } },
{ "type": "Feature", "properties": { "id": 11533262483, "name": "Làng Lỗ Khê", "index_right": 33, "district": "Xã Thư Lâm" }, "geometry": { "type": "Point", "coordinates": [ 105.88755, 21.1503579 ] } },
{ "type": "Feature", "properties": { "id": 11533516185, "name": "Ngõ 160 đường Đản Dị", "index_right": 33, "district": "Xã Thư Lâm" }, "geometry": { "type": "Point", "coordinates": [ 105.8604773, 21.1501819 ] } },
{ "type": "Feature", "properties": { "id": 11533516186, "name": "Đối diện số 55 - Tổ 11 - Thị trấn Đông Anh", "index_right": 33, "district": "Xã Thư Lâm" }, "geometry": { "type": "Point", "coordinates": [ 105.8615636, 21.1524883 ] } },
{ "type": "Feature", "properties": { "id": 11533516187, "name": "Đối diện tổ dân phố số 46 - Lương Quy - Xuân Nội", "index_right": 33, "district": "Xã Thư Lâm" }, "geometry": { "type": "Point", "coordinates": [ 105.8643962, 21.1615068 ] } },
{ "type": "Feature", "properties": { "id": 11533516188, "name": "Cách 100m ngã 3 Chợ Kim - Xuân Nội", "index_right": 33, "district": "Xã Thư Lâm" }, "geometry": { "type": "Point", "coordinates": [ 105.8659655, 21.1645804 ] } },
{ "type": "Feature", "properties": { "id": 11533516189, "name": "Qua ngã 3 chợ Kim, Làng văn hóa thôn Đường Yên", "index_right": 33, "district": "Xã Thư Lâm" }, "geometry": { "type": "Point", "coordinates": [ 105.8710659, 21.1675934 ] } },
{ "type": "Feature", "properties": { "id": 11533516190, "name": "114 Hà Lâm 2", "index_right": 33, "district": "Xã Thư Lâm" }, "geometry": { "type": "Point", "coordinates": [ 105.879855, 21.1694477 ] } },
{ "type": "Feature", "properties": { "id": 11533516191, "name": "35 Thư Lâm", "index_right": 33, "district": "Xã Thư Lâm" }, "geometry": { "type": "Point", "coordinates": [ 105.8842204, 21.1704799 ] } },
{ "type": "Feature", "properties": { "id": 11533516192, "name": "Trường Tiểu học, THCS Thụy Lâm", "index_right": 33, "district": "Xã Thư Lâm" }, "geometry": { "type": "Point", "coordinates": [ 105.8919281, 21.1727562 ] } },
{ "type": "Feature", "properties": { "id": 11533516193, "name": "Đối diện UBND xã Thụy Lâm", "index_right": 33, "district": "Xã Thư Lâm" }, "geometry": { "type": "Point", "coordinates": [ 105.8960511, 21.1728601 ] } },
{ "type": "Feature", "properties": { "id": 11533516194, "name": "Đối diện số 133 thôn Mạnh Tân - Thụy Lâm", "index_right": 33, "district": "Xã Thư Lâm" }, "geometry": { "type": "Point", "coordinates": [ 105.8988791, 21.1732922 ] } },
{ "type": "Feature", "properties": { "id": 11533516195, "name": "Thụy Lâm (Đông Anh) - Tuyến 65", "index_right": 33, "district": "Xã Thư Lâm" }, "geometry": { "type": "Point", "coordinates": [ 105.9057772, 21.1756523 ] } },
{ "type": "Feature", "properties": { "id": 11533625754, "name": "Đối diện trạm y tế xã Thụy Lâm", "index_right": 33, "district": "Xã Thư Lâm" }, "geometry": { "type": "Point", "coordinates": [ 105.8998064, 21.1737941 ] } },
{ "type": "Feature", "properties": { "id": 11533625755, "name": "UBND xã Thụy Lâm", "index_right": 33, "district": "Xã Thư Lâm" }, "geometry": { "type": "Point", "coordinates": [ 105.8955621, 21.1730232 ] } },
{ "type": "Feature", "properties": { "id": 11533625756, "name": "Đối diện trước Trường Tiểu học, THCS Thụy Lâm", "index_right": 33, "district": "Xã Thư Lâm" }, "geometry": { "type": "Point", "coordinates": [ 105.8910539, 21.1723664 ] } },
{ "type": "Feature", "properties": { "id": 11533625757, "name": "Đối diện TNHH đầu tư , sản xuất và TM Việt ý", "index_right": 33, "district": "Xã Thư Lâm" }, "geometry": { "type": "Point", "coordinates": [ 105.8836749, 21.170452 ] } },
{ "type": "Feature", "properties": { "id": 11533625758, "name": "67 Hà Lâm 2", "index_right": 33, "district": "Xã Thư Lâm" }, "geometry": { "type": "Point", "coordinates": [ 105.8794844, 21.1694378 ] } },
{ "type": "Feature", "properties": { "id": 11533625759, "name": "Gần ngã 3 chợ Kim, Làng văn hóa thôn Đường Yên", "index_right": 33, "district": "Xã Thư Lâm" }, "geometry": { "type": "Point", "coordinates": [ 105.8710574, 21.1676781 ] } },
{ "type": "Feature", "properties": { "id": 11533625760, "name": "Đối diện Xóm 3 Thôn Lương Quy", "index_right": 33, "district": "Xã Thư Lâm" }, "geometry": { "type": "Point", "coordinates": [ 105.8658487, 21.1646666 ] } },
{ "type": "Feature", "properties": { "id": 11533625761, "name": "108A1 - Tổ dân phố 46 - Lương Quy - TT Đông Anh", "index_right": 33, "district": "Xã Thư Lâm" }, "geometry": { "type": "Point", "coordinates": [ 105.8640658, 21.1610748 ] } },
{ "type": "Feature", "properties": { "id": 11533625762, "name": "99 G3 tổ 11 - Lương Quy - TT Đông Anh", "index_right": 33, "district": "Xã Thư Lâm" }, "geometry": { "type": "Point", "coordinates": [ 105.8615377, 21.1529532 ] } },
{ "type": "Feature", "properties": { "id": 11533625763, "name": "Đối diện Ngõ 160 đường Đản Dị", "index_right": 33, "district": "Xã Thư Lâm" }, "geometry": { "type": "Point", "coordinates": [ 105.8605239, 21.1505442 ] } },
{ "type": "Feature", "properties": { "id": 11539698725, "name": "Tố dân phố Văn Hóa số 23 thị trấn Đông Anh", "index_right": 33, "district": "Xã Thư Lâm" }, "geometry": { "type": "Point", "coordinates": [ 105.8529265, 21.1719154 ] } },
{ "type": "Feature", "properties": { "id": 11539698726, "name": "Đông Anh (BVĐK Bắc Thăng Long) - Tuyến 96", "index_right": 33, "district": "Xã Thư Lâm" }, "geometry": { "type": "Point", "coordinates": [ 105.8566841, 21.1623196 ] } },
{ "type": "Feature", "properties": { "id": 11539698727, "name": "Tổ dân phố số 23 Thị trấn Đông Anh", "index_right": 33, "district": "Xã Thư Lâm" }, "geometry": { "type": "Point", "coordinates": [ 105.8531342, 21.1720078 ] } },
{ "type": "Feature", "properties": { "id": 12307349209, "name": "Trường THCS Xuân Nộn", "index_right": 33, "district": "Xã Thư Lâm" }, "geometry": { "type": "Point", "coordinates": [ 105.8664397, 21.1838262 ] } },
{ "type": "Feature", "properties": { "id": 12307349210, "name": "Đối diện Trường THCS Xuân Nộn", "index_right": 33, "district": "Xã Thư Lâm" }, "geometry": { "type": "Point", "coordinates": [ 105.8665581, 21.1840144 ] } },
{ "type": "Feature", "properties": { "id": 12307349211, "name": "Trường Tiểu học Thị trấn A Đông Anh", "index_right": 33, "district": "Xã Thư Lâm" }, "geometry": { "type": "Point", "coordinates": [ 105.8659539, 21.178311 ] } },
{ "type": "Feature", "properties": { "id": 12307349212, "name": "Đối diện Trường Tiểu học Thị trấn A Đông Anh", "index_right": 33, "district": "Xã Thư Lâm" }, "geometry": { "type": "Point", "coordinates": [ 105.8658346, 21.1786559 ] } },
{ "type": "Feature", "properties": { "id": 12307349213, "name": "Trường Cơ khí Hà Nội", "index_right": 33, "district": "Xã Thư Lâm" }, "geometry": { "type": "Point", "coordinates": [ 105.8596627, 21.1778028 ] } },
{ "type": "Feature", "properties": { "id": 12307349214, "name": "Đối diện Công ty Việt Tiệp", "index_right": 33, "district": "Xã Thư Lâm" }, "geometry": { "type": "Point", "coordinates": [ 105.859587, 21.1776852 ] } }
]
}
