{
"type": "FeatureCollection",
"name": "Xã_Thiên_Lộc",
"crs": { "type": "name", "properties": { "name": "urn:ogc:def:crs:OGC:1.3:CRS84" } },
"features": [
{ "type": "Feature", "properties": { "id": 963363533, "name": "UBND xã Kim Chung- Km 2+200 Cao tốc BTL-NB", "index_right": 35, "district": "Xã Thiên Lộc" }, "geometry": { "type": "Point", "coordinates": [ 105.7790622, 21.1316178 ] } },
{ "type": "Feature", "properties": { "id": 7294678088, "name": "Trước ngã tư khu CN Thăng Long 100m (chiều Nội Bài - Hà Nội)", "index_right": 35, "district": "Xã Thiên Lộc" }, "geometry": { "type": "Point", "coordinates": [ 105.7807131, 21.1264127 ] } },
{ "type": "Feature", "properties": { "id": 7294698186, "name": "Qua cầu chui dân sinh số 4 - đối diện đường vào thôn Nhuế, Km 11+200 (chiều sân bay Nội Bài đi Hà Nội)", "index_right": 35, "district": "Xã Thiên Lộc" }, "geometry": { "type": "Point", "coordinates": [ 105.7784783, 21.1415336 ] } },
{ "type": "Feature", "properties": { "id": 8807115895, "name": "Bệnh viện Nhiệt đới Trung ương cơ sở 2", "index_right": 35, "district": "Xã Thiên Lộc" }, "geometry": { "type": "Point", "coordinates": [ 105.7728916, 21.1300833 ] } },
{ "type": "Feature", "properties": { "id": 8807115903, "name": "Đối diện khu nhà D3 và D6 - Chung cư Kim Chung", "index_right": 35, "district": "Xã Thiên Lộc" }, "geometry": { "type": "Point", "coordinates": [ 105.7748552, 21.1240807 ] } },
{ "type": "Feature", "properties": { "id": 8807115904, "name": "Cổng khu công nghiệp Bắc Thăng Long", "index_right": 35, "district": "Xã Thiên Lộc" }, "geometry": { "type": "Point", "coordinates": [ 105.7765752, 21.1238738 ] } },
{ "type": "Feature", "properties": { "id": 8807115923, "name": "Vịnh xén hè cho xe buýt (số 2 chiều đi Bắc Thăng Long)", "index_right": 35, "district": "Xã Thiên Lộc" }, "geometry": { "type": "Point", "coordinates": [ 105.8043034, 21.1249211 ] } },
{ "type": "Feature", "properties": { "id": 8807115924, "name": "Vịnh xén hè cho xe buýt (số 1 chiều đi Bắc Thăng Long)", "index_right": 35, "district": "Xã Thiên Lộc" }, "geometry": { "type": "Point", "coordinates": [ 105.7991149, 21.1249832 ] } },
{ "type": "Feature", "properties": { "id": 8807115925, "name": "Đối diện cổng Khu công nghiệp Bắc Thăng Long", "index_right": 35, "district": "Xã Thiên Lộc" }, "geometry": { "type": "Point", "coordinates": [ 105.7790048, 21.1250073 ] } },
{ "type": "Feature", "properties": { "id": 8807115926, "name": "Khu nhà D6 và D3 - Chung cư Kim Chung", "index_right": 35, "district": "Xã Thiên Lộc" }, "geometry": { "type": "Point", "coordinates": [ 105.7741983, 21.127209 ] } },
{ "type": "Feature", "properties": { "id": 8829926851, "name": "KCN Bắc Thăng Long - Km 0+800 Cao tốc BTL-NB", "index_right": 35, "district": "Xã Thiên Lộc" }, "geometry": { "type": "Point", "coordinates": [ 105.783156, 21.1195644 ] } },
{ "type": "Feature", "properties": { "id": 8831420043, "name": "Qua ngã tư khu CN Thăng Long 100m (chiều Hà Nội - Nội Bài)", "index_right": 35, "district": "Xã Thiên Lộc" }, "geometry": { "type": "Point", "coordinates": [ 105.7812214, 21.126532 ] } },
{ "type": "Feature", "properties": { "id": 8831420044, "name": "Đối diện UBND xã Kim Chung- Km 2+230 Cao tốc BTL-NB", "index_right": 35, "district": "Xã Thiên Lộc" }, "geometry": { "type": "Point", "coordinates": [ 105.7792553, 21.1320306 ] } },
{ "type": "Feature", "properties": { "id": 8831420045, "name": "Qua cầu chui dân sinh số 4 - đường vào thôn Nhuế, Km 11+200 (chiều Hà Nội đi sân bay Nội Bài)", "index_right": 35, "district": "Xã Thiên Lộc" }, "geometry": { "type": "Point", "coordinates": [ 105.7787594, 21.1417604 ] } },
{ "type": "Feature", "properties": { "id": 8933203654, "name": "Qua gầm cầu Thăng Long", "index_right": 35, "district": "Xã Thiên Lộc" }, "geometry": { "type": "Point", "coordinates": [ 105.7880844, 21.1063101 ] } },
{ "type": "Feature", "properties": { "id": 8933203655, "name": "Điếm canh đê số 5", "index_right": 35, "district": "Xã Thiên Lộc" }, "geometry": { "type": "Point", "coordinates": [ 105.7805112, 21.1056144 ] } },
{ "type": "Feature", "properties": { "id": 8933203656, "name": "Đối diện điếm canh đê số 5", "index_right": 35, "district": "Xã Thiên Lộc" }, "geometry": { "type": "Point", "coordinates": [ 105.7802622, 21.1054593 ] } },
{ "type": "Feature", "properties": { "id": 8933203657, "name": "Nhà văn hóa thôn Đại Độ", "index_right": 35, "district": "Xã Thiên Lộc" }, "geometry": { "type": "Point", "coordinates": [ 105.7722671, 21.1073968 ] } },
{ "type": "Feature", "properties": { "id": 8933203658, "name": "Đối diện Nhà văn hóa thôn Đại Độ", "index_right": 35, "district": "Xã Thiên Lộc" }, "geometry": { "type": "Point", "coordinates": [ 105.7715182, 21.1077532 ] } },
{ "type": "Feature", "properties": { "id": 8933203659, "name": "Trước đường số 5, thôn Sáp Mai khoảng 50m", "index_right": 35, "district": "Xã Thiên Lộc" }, "geometry": { "type": "Point", "coordinates": [ 105.7641073, 21.1116158 ] } },
{ "type": "Feature", "properties": { "id": 8933203660, "name": "Qua đường số 5 thôn Sáp Mai khoảng 30m", "index_right": 35, "district": "Xã Thiên Lộc" }, "geometry": { "type": "Point", "coordinates": [ 105.7641391, 21.1114946 ] } },
{ "type": "Feature", "properties": { "id": 8933203661, "name": "Trước đường vào Nghĩa trang liệt sỹ xã Võng La khoảng 30 m", "index_right": 35, "district": "Xã Thiên Lộc" }, "geometry": { "type": "Point", "coordinates": [ 105.7612662, 21.1151887 ] } },
{ "type": "Feature", "properties": { "id": 8933203662, "name": "Trước đường vào Nghĩa trang liệt sỹ xã Võng La khoảng 70m", "index_right": 35, "district": "Xã Thiên Lộc" }, "geometry": { "type": "Point", "coordinates": [ 105.7617368, 21.1160267 ] } },
{ "type": "Feature", "properties": { "id": 9009781172, "name": "Đối diện Trung tâm giao dịch Viettel (Đại Đồng - Đại Mạch)", "index_right": 35, "district": "Xã Thiên Lộc" }, "geometry": { "type": "Point", "coordinates": [ 105.7704948, 21.119933 ] } },
{ "type": "Feature", "properties": { "id": 9009781173, "name": "Trung tâm giao dịch Viettel (Đại Đồng - Đại Mạch)", "index_right": 35, "district": "Xã Thiên Lộc" }, "geometry": { "type": "Point", "coordinates": [ 105.7709712, 21.1196811 ] } },
{ "type": "Feature", "properties": { "id": 9009781179, "name": "Qua ngã 3 Trung tâm điều dưỡng", "index_right": 35, "district": "Xã Thiên Lộc" }, "geometry": { "type": "Point", "coordinates": [ 105.7635641, 21.1212289 ] } },
{ "type": "Feature", "properties": { "id": 9009781180, "name": "Qua đối diện ngã ba Trung tâm Điều dưỡng", "index_right": 35, "district": "Xã Thiên Lộc" }, "geometry": { "type": "Point", "coordinates": [ 105.7638331, 21.1214946 ] } },
{ "type": "Feature", "properties": { "id": 9009781181, "name": "Đối diện tổ dân phố số 35 - Đại Mạch", "index_right": 35, "district": "Xã Thiên Lộc" }, "geometry": { "type": "Point", "coordinates": [ 105.7578, 21.1161176 ] } },
{ "type": "Feature", "properties": { "id": 9009781182, "name": "Trước tổ dân phố số 35 - Đại Mạch", "index_right": 35, "district": "Xã Thiên Lộc" }, "geometry": { "type": "Point", "coordinates": [ 105.7577249, 21.1159134 ] } },
{ "type": "Feature", "properties": { "id": 9009781183, "name": "Qua 100m miếu Lũng", "index_right": 35, "district": "Xã Thiên Lộc" }, "geometry": { "type": "Point", "coordinates": [ 105.747441, 21.1184289 ] } },
{ "type": "Feature", "properties": { "id": 9009781184, "name": "Trước 50m miếu Lũng", "index_right": 35, "district": "Xã Thiên Lộc" }, "geometry": { "type": "Point", "coordinates": [ 105.747514, 21.1182568 ] } },
{ "type": "Feature", "properties": { "id": 9009781185, "name": "Qua 10m trạm biến áp Mạch Lũng", "index_right": 35, "district": "Xã Thiên Lộc" }, "geometry": { "type": "Point", "coordinates": [ 105.743169, 21.1207805 ] } },
{ "type": "Feature", "properties": { "id": 9009781186, "name": "Trước 50m đối diện trạm biến áp Mạch Lũng", "index_right": 35, "district": "Xã Thiên Lộc" }, "geometry": { "type": "Point", "coordinates": [ 105.7434071, 21.1205314 ] } },
{ "type": "Feature", "properties": { "id": 9009781187, "name": "Qua 50m Bia khu di tích lịch sử Miếu Mạch Lũng", "index_right": 35, "district": "Xã Thiên Lộc" }, "geometry": { "type": "Point", "coordinates": [ 105.7409021, 21.1222182 ] } },
{ "type": "Feature", "properties": { "id": 9009781188, "name": "Trước 80m Bia khu di tích lịch sử Miếu Mạch Lũng", "index_right": 35, "district": "Xã Thiên Lộc" }, "geometry": { "type": "Point", "coordinates": [ 105.7407291, 21.1221022 ] } },
{ "type": "Feature", "properties": { "id": 9009781189, "name": "Trước 100m đường vào thôn Đẹp Thôn", "index_right": 35, "district": "Xã Thiên Lộc" }, "geometry": { "type": "Point", "coordinates": [ 105.7423075, 21.1287155 ] } },
{ "type": "Feature", "properties": { "id": 9009781190, "name": "Qua 50m đường vào thôn Đẹp Thôn", "index_right": 35, "district": "Xã Thiên Lộc" }, "geometry": { "type": "Point", "coordinates": [ 105.7421722, 21.1285442 ] } },
{ "type": "Feature", "properties": { "id": 11531495083, "name": "Cổng Khu công nghiệp Bắc Thăng Long", "index_right": 35, "district": "Xã Thiên Lộc" }, "geometry": { "type": "Point", "coordinates": [ 105.7790168, 21.1245682 ] } },
{ "type": "Feature", "properties": { "id": 11533262490, "name": "Khu công nghiệp Bắc Thăng Long - Tuyến 63, 122", "index_right": 35, "district": "Xã Thiên Lộc" }, "geometry": { "type": "Point", "coordinates": [ 105.7682401, 21.1161176 ] } },
{ "type": "Feature", "properties": { "id": 11533262491, "name": "Công ty Sei Electronic Components Việt Nam", "index_right": 35, "district": "Xã Thiên Lộc" }, "geometry": { "type": "Point", "coordinates": [ 105.7730396, 21.1164592 ] } },
{ "type": "Feature", "properties": { "id": 11533262493, "name": "Đối diện Công ty Mitsubishi Việt Nam", "index_right": 35, "district": "Xã Thiên Lộc" }, "geometry": { "type": "Point", "coordinates": [ 105.7793589, 21.1170921 ] } },
{ "type": "Feature", "properties": { "id": 11533262494, "name": "Đối diện Nhà máy Sei - KCN Bắc Thăng Long", "index_right": 35, "district": "Xã Thiên Lộc" }, "geometry": { "type": "Point", "coordinates": [ 105.778337, 21.122656 ] } },
{ "type": "Feature", "properties": { "id": 11533262495, "name": "Đối diện Công ty TNHH Sato", "index_right": 35, "district": "Xã Thiên Lộc" }, "geometry": { "type": "Point", "coordinates": [ 105.7762846, 21.1241399 ] } },
{ "type": "Feature", "properties": { "id": 11533397304, "name": "Cầu vượt bộ hành - Đối diện Công ty Sato", "index_right": 35, "district": "Xã Thiên Lộc" }, "geometry": { "type": "Point", "coordinates": [ 105.7780291, 21.1227407 ] } },
{ "type": "Feature", "properties": { "id": 11533397305, "name": "Đối diện Công ty Sei Electronic Components-Việt Nam", "index_right": 35, "district": "Xã Thiên Lộc" }, "geometry": { "type": "Point", "coordinates": [ 105.7732772, 21.1167433 ] } },
{ "type": "Feature", "properties": { "id": 11553654377, "name": "Xóm Trại - Kim Nỗ", "index_right": 35, "district": "Xã Thiên Lộc" }, "geometry": { "type": "Point", "coordinates": [ 105.8006947, 21.1310077 ] } },
{ "type": "Feature", "properties": { "id": 11553654378, "name": "Xóm Bến - Kim Nỗ", "index_right": 35, "district": "Xã Thiên Lộc" }, "geometry": { "type": "Point", "coordinates": [ 105.797557, 21.1289281 ] } },
{ "type": "Feature", "properties": { "id": 11553654379, "name": "Đối diện Trường tiểu học Kim Nỗ", "index_right": 35, "district": "Xã Thiên Lộc" }, "geometry": { "type": "Point", "coordinates": [ 105.7947277, 21.1310765 ] } },
{ "type": "Feature", "properties": { "id": 11553654380, "name": "68 Thôn Bắc - Kim Nỗ", "index_right": 35, "district": "Xã Thiên Lộc" }, "geometry": { "type": "Point", "coordinates": [ 105.7915853, 21.1341009 ] } },
{ "type": "Feature", "properties": { "id": 11553654381, "name": "Đối diện 16 Thôn Cầu - Kim Nỗ", "index_right": 35, "district": "Xã Thiên Lộc" }, "geometry": { "type": "Point", "coordinates": [ 105.7889598, 21.1293663 ] } },
{ "type": "Feature", "properties": { "id": 11553654386, "name": "Công ty CP tự động hóa", "index_right": 35, "district": "Xã Thiên Lộc" }, "geometry": { "type": "Point", "coordinates": [ 105.789106, 21.1296217 ] } },
{ "type": "Feature", "properties": { "id": 11553654387, "name": "Đối diện 54 Đông Quang", "index_right": 35, "district": "Xã Thiên Lộc" }, "geometry": { "type": "Point", "coordinates": [ 105.7917912, 21.1338443 ] } },
{ "type": "Feature", "properties": { "id": 11553654388, "name": "Trường tiểu học Kim Nỗ", "index_right": 35, "district": "Xã Thiên Lộc" }, "geometry": { "type": "Point", "coordinates": [ 105.7947826, 21.1312372 ] } },
{ "type": "Feature", "properties": { "id": 11553654389, "name": "Xóm Bến - Kim Nỗ", "index_right": 35, "district": "Xã Thiên Lộc" }, "geometry": { "type": "Point", "coordinates": [ 105.7972398, 21.1286483 ] } },
{ "type": "Feature", "properties": { "id": 11553654390, "name": "Xóm Trại - Kim Nỗ", "index_right": 35, "district": "Xã Thiên Lộc" }, "geometry": { "type": "Point", "coordinates": [ 105.8007397, 21.1309389 ] } },
{ "type": "Feature", "properties": { "id": 12730943465, "name": "Công ty Mitsubishi Việt Nam", "index_right": 35, "district": "Xã Thiên Lộc" }, "geometry": { "type": "Point", "coordinates": [ 105.7790642, 21.1172071 ] } }
]
}
