{
"type": "FeatureCollection",
"name": "Xã_Vĩnh_Thanh",
"crs": { "type": "name", "properties": { "name": "urn:ogc:def:crs:OGC:1.3:CRS84" } },
"features": [
{ "type": "Feature", "properties": { "id": 6742138880, "name": "Qua ngã tư Quốc lộ 2 - Võ Nguyên Giáp", "index_right": 34, "district": "Xã Vĩnh Thanh" }, "geometry": { "type": "Point", "coordinates": [ 105.8268402, 21.1196238 ] } },
{ "type": "Feature", "properties": { "id": 8807115905, "name": "Vịnh xén hè cho xe buýt (số 1 chiều về Hà Nội)", "index_right": 34, "district": "Xã Vĩnh Thanh" }, "geometry": { "type": "Point", "coordinates": [ 105.7991558, 21.1243396 ] } },
{ "type": "Feature", "properties": { "id": 8807115906, "name": "Vịnh xén hè cho xe buýt (số 2 chiều về Hà Nội)", "index_right": 34, "district": "Xã Vĩnh Thanh" }, "geometry": { "type": "Point", "coordinates": [ 105.8042521, 21.1243873 ] } },
{ "type": "Feature", "properties": { "id": 8807115907, "name": "Vịnh xén hè cho xe buýt (số 3 chiều về Hà Nội)", "index_right": 34, "district": "Xã Vĩnh Thanh" }, "geometry": { "type": "Point", "coordinates": [ 105.8098585, 21.1243645 ] } },
{ "type": "Feature", "properties": { "id": 8807115908, "name": "Vịnh xe buýt đường Hoàng Sa - gần điểm mở đi đường 6 cây", "index_right": 34, "district": "Xã Vĩnh Thanh" }, "geometry": { "type": "Point", "coordinates": [ 105.8200342, 21.1243162 ] } },
{ "type": "Feature", "properties": { "id": 8807115920, "name": "Ngã 4 cầu vượt Quốc lộ 5 - Võ Nguyên Giáp", "index_right": 34, "district": "Xã Vĩnh Thanh" }, "geometry": { "type": "Point", "coordinates": [ 105.827481, 21.1201255 ] } },
{ "type": "Feature", "properties": { "id": 8821681983, "name": "Qua ngã 3 Hải Bối-Vĩnh Ngọc 300m", "index_right": 34, "district": "Xã Vĩnh Thanh" }, "geometry": { "type": "Point", "coordinates": [ 105.7842063, 21.1171201 ] } },
{ "type": "Feature", "properties": { "id": 8933203643, "name": "Điếm canh đê số 10", "index_right": 34, "district": "Xã Vĩnh Thanh" }, "geometry": { "type": "Point", "coordinates": [ 105.8438384, 21.1069498 ] } },
{ "type": "Feature", "properties": { "id": 8933203644, "name": "Đối diện điếm canh đê số 10", "index_right": 34, "district": "Xã Vĩnh Thanh" }, "geometry": { "type": "Point", "coordinates": [ 105.8430895, 21.1074182 ] } },
{ "type": "Feature", "properties": { "id": 8933203645, "name": "Điếm canh đê số 9", "index_right": 34, "district": "Xã Vĩnh Thanh" }, "geometry": { "type": "Point", "coordinates": [ 105.8305275, 21.1111461 ] } },
{ "type": "Feature", "properties": { "id": 8933203646, "name": "Đối diện điếm canh đê số 9", "index_right": 34, "district": "Xã Vĩnh Thanh" }, "geometry": { "type": "Point", "coordinates": [ 105.8296535, 21.1112055 ] } },
{ "type": "Feature", "properties": { "id": 8933203647, "name": "Điếm canh đê số 8", "index_right": 34, "district": "Xã Vĩnh Thanh" }, "geometry": { "type": "Point", "coordinates": [ 105.8160343, 21.1112123 ] } },
{ "type": "Feature", "properties": { "id": 8933203648, "name": "Đối diện điếm canh đê số 8", "index_right": 34, "district": "Xã Vĩnh Thanh" }, "geometry": { "type": "Point", "coordinates": [ 105.8158665, 21.1110709 ] } },
{ "type": "Feature", "properties": { "id": 8933203649, "name": "Điếm canh đê số 7 - Trạm y tế xã Hải Bối", "index_right": 34, "district": "Xã Vĩnh Thanh" }, "geometry": { "type": "Point", "coordinates": [ 105.802166, 21.1108262 ] } },
{ "type": "Feature", "properties": { "id": 8933203650, "name": "Đối diện điếm canh đê số 7", "index_right": 34, "district": "Xã Vĩnh Thanh" }, "geometry": { "type": "Point", "coordinates": [ 105.8015972, 21.110469 ] } },
{ "type": "Feature", "properties": { "id": 8933203651, "name": "Điếm canh đê số 6", "index_right": 34, "district": "Xã Vĩnh Thanh" }, "geometry": { "type": "Point", "coordinates": [ 105.7956761, 21.1072695 ] } },
{ "type": "Feature", "properties": { "id": 8933203652, "name": "Đối diện điếm canh đê số 6", "index_right": 34, "district": "Xã Vĩnh Thanh" }, "geometry": { "type": "Point", "coordinates": [ 105.7955132, 21.1071492 ] } },
{ "type": "Feature", "properties": { "id": 8933203653, "name": "Gầm cầu Thăng Long", "index_right": 34, "district": "Xã Vĩnh Thanh" }, "geometry": { "type": "Point", "coordinates": [ 105.7877797, 21.1063882 ] } },
{ "type": "Feature", "properties": { "id": 11524859514, "name": "Chợ đầu mối Hải Bối", "index_right": 34, "district": "Xã Vĩnh Thanh" }, "geometry": { "type": "Point", "coordinates": [ 105.7905468, 21.115891 ] } },
{ "type": "Feature", "properties": { "id": 11524859515, "name": "Liên doanh EBARA", "index_right": 34, "district": "Xã Vĩnh Thanh" }, "geometry": { "type": "Point", "coordinates": [ 105.8021713, 21.1183206 ] } },
{ "type": "Feature", "properties": { "id": 11524859516, "name": "Gần cổng làng Phương Trạch", "index_right": 34, "district": "Xã Vĩnh Thanh" }, "geometry": { "type": "Point", "coordinates": [ 105.8143656, 21.1221358 ] } },
{ "type": "Feature", "properties": { "id": 11524859529, "name": "Qua đối diện cổng làng Phương Trạch 200m", "index_right": 34, "district": "Xã Vĩnh Thanh" }, "geometry": { "type": "Point", "coordinates": [ 105.8147175, 21.1223542 ] } },
{ "type": "Feature", "properties": { "id": 11524859530, "name": "Đối diện liên doanh EBARA", "index_right": 34, "district": "Xã Vĩnh Thanh" }, "geometry": { "type": "Point", "coordinates": [ 105.8030494, 21.1187941 ] } },
{ "type": "Feature", "properties": { "id": 11524859531, "name": "Đối diện chợ đầu mối Hải Bối", "index_right": 34, "district": "Xã Vĩnh Thanh" }, "geometry": { "type": "Point", "coordinates": [ 105.7895837, 21.1161096 ] } },
{ "type": "Feature", "properties": { "id": 11551502889, "name": "Gần cổng làng Ngọc Chi", "index_right": 34, "district": "Xã Vĩnh Thanh" }, "geometry": { "type": "Point", "coordinates": [ 105.8300774, 21.1220817 ] } },
{ "type": "Feature", "properties": { "id": 11553654382, "name": "Gia dụng Bông Bông", "index_right": 34, "district": "Xã Vĩnh Thanh" }, "geometry": { "type": "Point", "coordinates": [ 105.788232, 21.1198278 ] } },
{ "type": "Feature", "properties": { "id": 11553654383, "name": "Cây xăng thôn Cổ Điển", "index_right": 34, "district": "Xã Vĩnh Thanh" }, "geometry": { "type": "Point", "coordinates": [ 105.7869315, 21.1161852 ] } },
{ "type": "Feature", "properties": { "id": 11553654384, "name": "Đối diện cây xăng Cổ Điển", "index_right": 34, "district": "Xã Vĩnh Thanh" }, "geometry": { "type": "Point", "coordinates": [ 105.7871057, 21.116052 ] } },
{ "type": "Feature", "properties": { "id": 11553654385, "name": "Công ty cổ phần Gia Lộc Tài", "index_right": 34, "district": "Xã Vĩnh Thanh" }, "geometry": { "type": "Point", "coordinates": [ 105.7882991, 21.1188603 ] } }
]
}
