{
"type": "FeatureCollection",
"name": "Xã_Phù_Đổng",
"crs": { "type": "name", "properties": { "name": "urn:ogc:def:crs:OGC:1.3:CRS84" } },
"features": [
{ "type": "Feature", "properties": { "id": 738813727, "name": "Trạm Xe Bus 10,15,17,43,54", "index_right": 31, "district": "Xã Phù Đổng" }, "geometry": { "type": "Point", "coordinates": [ 105.9048752, 21.0899508 ] } },
{ "type": "Feature", "properties": { "id": 6546414572, "name": "Số 1 Dốc Lã", "index_right": 31, "district": "Xã Phù Đổng" }, "geometry": { "type": "Point", "coordinates": [ 105.9280597, 21.0965012 ] } },
{ "type": "Feature", "properties": { "id": 7178804713, "name": "102 Thiên Đức, Yên Viên - Quốc lộ 3", "index_right": 31, "district": "Xã Phù Đổng" }, "geometry": { "type": "Point", "coordinates": [ 105.9068935, 21.0799902 ] } },
{ "type": "Feature", "properties": { "id": 7178808033, "name": "Ngõ 53 Thiên Đức, Yên Viên - Quốc lộ 3", "index_right": 31, "district": "Xã Phù Đổng" }, "geometry": { "type": "Point", "coordinates": [ 105.9070989, 21.0796695 ] } },
{ "type": "Feature", "properties": { "id": 8919509904, "name": "Cạnh đường vào Phù Đổng - 44 Hà Huy Tập", "index_right": 31, "district": "Xã Phù Đổng" }, "geometry": { "type": "Point", "coordinates": [ 105.9116358, 21.0795865 ] } },
{ "type": "Feature", "properties": { "id": 8919509905, "name": "270-272 Hà Huy Tập", "index_right": 31, "district": "Xã Phù Đổng" }, "geometry": { "type": "Point", "coordinates": [ 105.9159486, 21.0839094 ] } },
{ "type": "Feature", "properties": { "id": 8919509906, "name": "Công ty Giày Yên Viên - 488 Hà Huy Tập", "index_right": 31, "district": "Xã Phù Đổng" }, "geometry": { "type": "Point", "coordinates": [ 105.9201648, 21.0881456 ] } },
{ "type": "Feature", "properties": { "id": 8919509907, "name": "664 Hà Huy Tập", "index_right": 31, "district": "Xã Phù Đổng" }, "geometry": { "type": "Point", "coordinates": [ 105.9245247, 21.0925835 ] } },
{ "type": "Feature", "properties": { "id": 8919509908, "name": "38 Dốc Lã", "index_right": 31, "district": "Xã Phù Đổng" }, "geometry": { "type": "Point", "coordinates": [ 105.9274178, 21.0956606 ] } },
{ "type": "Feature", "properties": { "id": 8919509909, "name": "Chợ Trùng Quán", "index_right": 31, "district": "Xã Phù Đổng" }, "geometry": { "type": "Point", "coordinates": [ 105.9310307, 21.098887 ] } },
{ "type": "Feature", "properties": { "id": 9032745589, "name": "Xưởng Vẽ Tranh Sơn Dầu Mai Hồng", "index_right": 31, "district": "Xã Phù Đổng" }, "geometry": { "type": "Point", "coordinates": [ 105.9304546, 21.095435 ] } },
{ "type": "Feature", "properties": { "id": 9032745590, "name": "Trạm biến áp Trùng Quán 1", "index_right": 31, "district": "Xã Phù Đổng" }, "geometry": { "type": "Point", "coordinates": [ 105.9309797, 21.0951909 ] } },
{ "type": "Feature", "properties": { "id": 9032745591, "name": "Cửa Hàng Vải Dũng Thúy", "index_right": 31, "district": "Xã Phù Đổng" }, "geometry": { "type": "Point", "coordinates": [ 105.9379028, 21.0891061 ] } },
{ "type": "Feature", "properties": { "id": 9032745592, "name": "Cuối Chợ Vải Ninh Hiệp", "index_right": 31, "district": "Xã Phù Đổng" }, "geometry": { "type": "Point", "coordinates": [ 105.9382655, 21.0889361 ] } },
{ "type": "Feature", "properties": { "id": 9032745594, "name": "Trạm biến áp số 10", "index_right": 31, "district": "Xã Phù Đổng" }, "geometry": { "type": "Point", "coordinates": [ 105.9397298, 21.0856016 ] } },
{ "type": "Feature", "properties": { "id": 9032745595, "name": "Bưu Điện Xã Ninh Hiệp", "index_right": 31, "district": "Xã Phù Đổng" }, "geometry": { "type": "Point", "coordinates": [ 105.9401621, 21.0835008 ] } },
{ "type": "Feature", "properties": { "id": 9032745596, "name": "Đối Diện Bưu Điện Xã Ninh Hiệp", "index_right": 31, "district": "Xã Phù Đổng" }, "geometry": { "type": "Point", "coordinates": [ 105.9402608, 21.0829742 ] } },
{ "type": "Feature", "properties": { "id": 9032745597, "name": "Xóm 8 - xã Ninh Hiệp", "index_right": 31, "district": "Xã Phù Đổng" }, "geometry": { "type": "Point", "coordinates": [ 105.9398839, 21.0814223 ] } },
{ "type": "Feature", "properties": { "id": 9032745598, "name": "Xóm 8 - Gần đường vào Đình Xuyên", "index_right": 31, "district": "Xã Phù Đổng" }, "geometry": { "type": "Point", "coordinates": [ 105.9395653, 21.0804115 ] } },
{ "type": "Feature", "properties": { "id": 9032745599, "name": "Khu Sinh Thái Cánh Buồm Xanh", "index_right": 31, "district": "Xã Phù Đổng" }, "geometry": { "type": "Point", "coordinates": [ 105.9430379, 21.0766456 ] } },
{ "type": "Feature", "properties": { "id": 9032745600, "name": "Khu Sinh Thái Cánh Buồm Xanh", "index_right": 31, "district": "Xã Phù Đổng" }, "geometry": { "type": "Point", "coordinates": [ 105.9433879, 21.0761068 ] } },
{ "type": "Feature", "properties": { "id": 9032745601, "name": "Qua cổng Khu công nghiệp Ninh Hiệp 70m", "index_right": 31, "district": "Xã Phù Đổng" }, "geometry": { "type": "Point", "coordinates": [ 105.9500373, 21.0696558 ] } },
{ "type": "Feature", "properties": { "id": 9032745602, "name": "Qua đối diện cổng Khu công nghiệp Ninh Hiệp 50m", "index_right": 31, "district": "Xã Phù Đổng" }, "geometry": { "type": "Point", "coordinates": [ 105.9511449, 21.0683588 ] } },
{ "type": "Feature", "properties": { "id": 9032745603, "name": "Hầm Chui Quốc Lộ 1B - Phù Đổng", "index_right": 31, "district": "Xã Phù Đổng" }, "geometry": { "type": "Point", "coordinates": [ 105.9554886, 21.062476 ] } },
{ "type": "Feature", "properties": { "id": 9032745604, "name": "Hầm Chui Quốc Lộ 1B - Phù Đổng", "index_right": 31, "district": "Xã Phù Đổng" }, "geometry": { "type": "Point", "coordinates": [ 105.956132, 21.0625609 ] } },
{ "type": "Feature", "properties": { "id": 9032745605, "name": "Trường Trung học cơ sở Phù Đổng", "index_right": 31, "district": "Xã Phù Đổng" }, "geometry": { "type": "Point", "coordinates": [ 105.9656807, 21.0619183 ] } },
{ "type": "Feature", "properties": { "id": 9032745606, "name": "Qua đường vào Trường Trung học cơ sở Phù Đổng", "index_right": 31, "district": "Xã Phù Đổng" }, "geometry": { "type": "Point", "coordinates": [ 105.9666274, 21.0617278 ] } },
{ "type": "Feature", "properties": { "id": 9032745607, "name": "Trước lối vào thôn Đổng Viên, xã Phù Đổng 10m", "index_right": 31, "district": "Xã Phù Đổng" }, "geometry": { "type": "Point", "coordinates": [ 105.9725924, 21.0614972 ] } },
{ "type": "Feature", "properties": { "id": 9032745608, "name": "Qua lối vào Thôn Đổng Viên, xã Phù Đổng 20m", "index_right": 31, "district": "Xã Phù Đổng" }, "geometry": { "type": "Point", "coordinates": [ 105.9727328, 21.0613448 ] } },
{ "type": "Feature", "properties": { "id": 9032745609, "name": "Trung Mầu", "index_right": 31, "district": "Xã Phù Đổng" }, "geometry": { "type": "Point", "coordinates": [ 105.9824273, 21.060814 ] } },
{ "type": "Feature", "properties": { "id": 9032745610, "name": "Đối diện 666 Hà Huy Tập", "index_right": 31, "district": "Xã Phù Đổng" }, "geometry": { "type": "Point", "coordinates": [ 105.9244464, 21.0927414 ] } },
{ "type": "Feature", "properties": { "id": 9032745611, "name": "Đối diện Công ty Giày Yên Viên", "index_right": 31, "district": "Xã Phù Đổng" }, "geometry": { "type": "Point", "coordinates": [ 105.9195543, 21.0877632 ] } },
{ "type": "Feature", "properties": { "id": 9032745612, "name": "Đối diện 274 Hà Huy Tập", "index_right": 31, "district": "Xã Phù Đổng" }, "geometry": { "type": "Point", "coordinates": [ 105.9159077, 21.0840187 ] } },
{ "type": "Feature", "properties": { "id": 9032745613, "name": "115 Hà Huy Tập", "index_right": 31, "district": "Xã Phù Đổng" }, "geometry": { "type": "Point", "coordinates": [ 105.9122915, 21.0804678 ] } },
{ "type": "Feature", "properties": { "id": 11516139560, "name": "Đối diện Chợ Trùng Quán", "index_right": 31, "district": "Xã Phù Đổng" }, "geometry": { "type": "Point", "coordinates": [ 105.9309526, 21.0990767 ] } }
]
}
