{
"type": "FeatureCollection",
"name": "Xã_Tiến_Thắng",
"crs": { "type": "name", "properties": { "name": "urn:ogc:def:crs:OGC:1.3:CRS84" } },
"features": [
{ "type": "Feature", "properties": { "id": 9006720530, "name": "Trước đối diện Bệnh viện Đa khoa Mê Linh 400m", "index_right": 70, "district": "Xã Tiến Thắng" }, "geometry": { "type": "Point", "coordinates": [ 105.7121945, 21.1949252 ] } },
{ "type": "Feature", "properties": { "id": 9006720530, "name": "Trước đối diện Bệnh viện Đa khoa Mê Linh 400m", "index_right": 71, "district": "Xã Tiến Thắng" }, "geometry": { "type": "Point", "coordinates": [ 105.7121945, 21.1949252 ] } },
{ "type": "Feature", "properties": { "id": 9006720531, "name": "Qua điểm cuối Bệnh viện Đa khoa Mê Linh 300m", "index_right": 70, "district": "Xã Tiến Thắng" }, "geometry": { "type": "Point", "coordinates": [ 105.711905, 21.1950091 ] } },
{ "type": "Feature", "properties": { "id": 9006720531, "name": "Qua điểm cuối Bệnh viện Đa khoa Mê Linh 300m", "index_right": 71, "district": "Xã Tiến Thắng" }, "geometry": { "type": "Point", "coordinates": [ 105.711905, 21.1950091 ] } },
{ "type": "Feature", "properties": { "id": 9006720532, "name": "Chi cục Thuế huyện Mê Linh", "index_right": 70, "district": "Xã Tiến Thắng" }, "geometry": { "type": "Point", "coordinates": [ 105.707578, 21.2043474 ] } },
{ "type": "Feature", "properties": { "id": 9006720532, "name": "Chi cục Thuế huyện Mê Linh", "index_right": 71, "district": "Xã Tiến Thắng" }, "geometry": { "type": "Point", "coordinates": [ 105.707578, 21.2043474 ] } },
{ "type": "Feature", "properties": { "id": 9006720533, "name": "Đối Diện Chi Cục Thuế Huyện Mê Linh", "index_right": 70, "district": "Xã Tiến Thắng" }, "geometry": { "type": "Point", "coordinates": [ 105.7081546, 21.202698 ] } },
{ "type": "Feature", "properties": { "id": 9006720533, "name": "Đối Diện Chi Cục Thuế Huyện Mê Linh", "index_right": 71, "district": "Xã Tiến Thắng" }, "geometry": { "type": "Point", "coordinates": [ 105.7081546, 21.202698 ] } },
{ "type": "Feature", "properties": { "id": 9006720534, "name": "Khu du lịch Đồi 79 Mùa Xuân", "index_right": 70, "district": "Xã Tiến Thắng" }, "geometry": { "type": "Point", "coordinates": [ 105.7058197, 21.2081823 ] } },
{ "type": "Feature", "properties": { "id": 9006720534, "name": "Khu du lịch Đồi 79 Mùa Xuân", "index_right": 71, "district": "Xã Tiến Thắng" }, "geometry": { "type": "Point", "coordinates": [ 105.7058197, 21.2081823 ] } },
{ "type": "Feature", "properties": { "id": 9006720535, "name": "Nghĩa trang Thanh Tước", "index_right": 70, "district": "Xã Tiến Thắng" }, "geometry": { "type": "Point", "coordinates": [ 105.705192, 21.2092852 ] } },
{ "type": "Feature", "properties": { "id": 9006720535, "name": "Nghĩa trang Thanh Tước", "index_right": 71, "district": "Xã Tiến Thắng" }, "geometry": { "type": "Point", "coordinates": [ 105.705192, 21.2092852 ] } },
{ "type": "Feature", "properties": { "id": 9006720536, "name": "Đối diện Xí nghiệp Đo đạc và Bản đồ", "index_right": 70, "district": "Xã Tiến Thắng" }, "geometry": { "type": "Point", "coordinates": [ 105.7060836, 21.2128215 ] } },
{ "type": "Feature", "properties": { "id": 9006720536, "name": "Đối diện Xí nghiệp Đo đạc và Bản đồ", "index_right": 71, "district": "Xã Tiến Thắng" }, "geometry": { "type": "Point", "coordinates": [ 105.7060836, 21.2128215 ] } },
{ "type": "Feature", "properties": { "id": 9006720537, "name": "Xí Nghiệp Đo Đạc Và Bản Đồ", "index_right": 70, "district": "Xã Tiến Thắng" }, "geometry": { "type": "Point", "coordinates": [ 105.7055557, 21.2131295 ] } },
{ "type": "Feature", "properties": { "id": 9006720537, "name": "Xí Nghiệp Đo Đạc Và Bản Đồ", "index_right": 71, "district": "Xã Tiến Thắng" }, "geometry": { "type": "Point", "coordinates": [ 105.7055557, 21.2131295 ] } },
{ "type": "Feature", "properties": { "id": 9006720538, "name": "Thanh Lâm (Mê Linh) - Tuyến 35B", "index_right": 70, "district": "Xã Tiến Thắng" }, "geometry": { "type": "Point", "coordinates": [ 105.70379, 21.2166119 ] } },
{ "type": "Feature", "properties": { "id": 9006720538, "name": "Thanh Lâm (Mê Linh) - Tuyến 35B", "index_right": 71, "district": "Xã Tiến Thắng" }, "geometry": { "type": "Point", "coordinates": [ 105.70379, 21.2166119 ] } },
{ "type": "Feature", "properties": { "id": 11528593157, "name": "Công ty TNHH Hoàng Giang", "index_right": 70, "district": "Xã Tiến Thắng" }, "geometry": { "type": "Point", "coordinates": [ 105.7031328, 21.2181288 ] } },
{ "type": "Feature", "properties": { "id": 11528593157, "name": "Công ty TNHH Hoàng Giang", "index_right": 71, "district": "Xã Tiến Thắng" }, "geometry": { "type": "Point", "coordinates": [ 105.7031328, 21.2181288 ] } },
{ "type": "Feature", "properties": { "id": 11528593158, "name": "Đối diện thuốc thú y - Đường Thạch Đà", "index_right": 70, "district": "Xã Tiến Thắng" }, "geometry": { "type": "Point", "coordinates": [ 105.7059567, 21.204814 ] } },
{ "type": "Feature", "properties": { "id": 11528593158, "name": "Đối diện thuốc thú y - Đường Thạch Đà", "index_right": 71, "district": "Xã Tiến Thắng" }, "geometry": { "type": "Point", "coordinates": [ 105.7059567, 21.204814 ] } },
{ "type": "Feature", "properties": { "id": 11528593159, "name": "Thôn Văn Lôi, xã Tam Đồng", "index_right": 70, "district": "Xã Tiến Thắng" }, "geometry": { "type": "Point", "coordinates": [ 105.7001537, 21.2016965 ] } },
{ "type": "Feature", "properties": { "id": 11528593159, "name": "Thôn Văn Lôi, xã Tam Đồng", "index_right": 71, "district": "Xã Tiến Thắng" }, "geometry": { "type": "Point", "coordinates": [ 105.7001537, 21.2016965 ] } },
{ "type": "Feature", "properties": { "id": 11531107932, "name": "Thuốc thú y - Đường Thạch Đà", "index_right": 70, "district": "Xã Tiến Thắng" }, "geometry": { "type": "Point", "coordinates": [ 105.7056085, 21.2044853 ] } },
{ "type": "Feature", "properties": { "id": 11531107932, "name": "Thuốc thú y - Đường Thạch Đà", "index_right": 71, "district": "Xã Tiến Thắng" }, "geometry": { "type": "Point", "coordinates": [ 105.7056085, 21.2044853 ] } },
{ "type": "Feature", "properties": { "id": 11531107933, "name": "Đối diện Công ty TNHH Hoàng Giang", "index_right": 70, "district": "Xã Tiến Thắng" }, "geometry": { "type": "Point", "coordinates": [ 105.7032952, 21.2181533 ] } },
{ "type": "Feature", "properties": { "id": 11531107933, "name": "Đối diện Công ty TNHH Hoàng Giang", "index_right": 71, "district": "Xã Tiến Thắng" }, "geometry": { "type": "Point", "coordinates": [ 105.7032952, 21.2181533 ] } }
]
}
