{
"type": "FeatureCollection",
"name": "Xã_Thanh_Oai",
"crs": { "type": "name", "properties": { "name": "urn:ogc:def:crs:OGC:1.3:CRS84" } },
"features": [
{ "type": "Feature", "properties": { "id": 9006046628, "name": "Đối diện 35 phố Vác", "index_right": 169, "district": "Xã Thanh Oai" }, "geometry": { "type": "Point", "coordinates": [ 105.7745427, 20.8122167 ] } },
{ "type": "Feature", "properties": { "id": 9006046629, "name": "27 Phố Vác", "index_right": 169, "district": "Xã Thanh Oai" }, "geometry": { "type": "Point", "coordinates": [ 105.7739446, 20.812015 ] } },
{ "type": "Feature", "properties": { "id": 9007633069, "name": "Cửa Hàng Sửa Chữa Xe Máy Xuân Bắc", "index_right": 169, "district": "Xã Thanh Oai" }, "geometry": { "type": "Point", "coordinates": [ 105.7587114, 20.8712112 ] } },
{ "type": "Feature", "properties": { "id": 9007633070, "name": "Đối diện cửa hàng sửa chữa xe máy Xuân Bắc", "index_right": 169, "district": "Xã Thanh Oai" }, "geometry": { "type": "Point", "coordinates": [ 105.7586041, 20.8721455 ] } },
{ "type": "Feature", "properties": { "id": 9007633071, "name": "Qua lối vào Bệnh viện huyện Thanh Oai 30m", "index_right": 169, "district": "Xã Thanh Oai" }, "geometry": { "type": "Point", "coordinates": [ 105.7608029, 20.8653199 ] } },
{ "type": "Feature", "properties": { "id": 9007633072, "name": "Qua đối diện lối vào Bệnh viện huyện Thanh Oai 30m", "index_right": 169, "district": "Xã Thanh Oai" }, "geometry": { "type": "Point", "coordinates": [ 105.7611306, 20.8651526 ] } },
{ "type": "Feature", "properties": { "id": 9007633114, "name": "Trước 30m đối diện lối vào trạm biến áp Thanh Oai", "index_right": 169, "district": "Xã Thanh Oai" }, "geometry": { "type": "Point", "coordinates": [ 105.7636022, 20.8606333 ] } },
{ "type": "Feature", "properties": { "id": 9007633115, "name": "Qua 70m lối vào trạm biến áp Thanh Oai", "index_right": 169, "district": "Xã Thanh Oai" }, "geometry": { "type": "Point", "coordinates": [ 105.7636329, 20.8611037 ] } },
{ "type": "Feature", "properties": { "id": 9007633116, "name": "Chợ Kim Bài", "index_right": 169, "district": "Xã Thanh Oai" }, "geometry": { "type": "Point", "coordinates": [ 105.7663432, 20.8561715 ] } },
{ "type": "Feature", "properties": { "id": 9007641817, "name": "Bưu điện Kim Bài", "index_right": 169, "district": "Xã Thanh Oai" }, "geometry": { "type": "Point", "coordinates": [ 105.7671693, 20.8553875 ] } },
{ "type": "Feature", "properties": { "id": 9007641818, "name": "Đối diện UBND huyện Thanh Oai", "index_right": 169, "district": "Xã Thanh Oai" }, "geometry": { "type": "Point", "coordinates": [ 105.7688952, 20.8526278 ] } },
{ "type": "Feature", "properties": { "id": 9007641819, "name": "UBND huyện Thanh Oai", "index_right": 169, "district": "Xã Thanh Oai" }, "geometry": { "type": "Point", "coordinates": [ 105.7692452, 20.8520955 ] } },
{ "type": "Feature", "properties": { "id": 9007641820, "name": "Cây Xăng 370 Kim Bài", "index_right": 169, "district": "Xã Thanh Oai" }, "geometry": { "type": "Point", "coordinates": [ 105.7699277, 20.8472486 ] } },
{ "type": "Feature", "properties": { "id": 9007641821, "name": "Qua đối diện trạm xăng 370 Kim Bài 50m", "index_right": 169, "district": "Xã Thanh Oai" }, "geometry": { "type": "Point", "coordinates": [ 105.7701337, 20.8478141 ] } },
{ "type": "Feature", "properties": { "id": 9007641822, "name": "Thôn Tân Thư", "index_right": 169, "district": "Xã Thanh Oai" }, "geometry": { "type": "Point", "coordinates": [ 105.7707904, 20.8411974 ] } },
{ "type": "Feature", "properties": { "id": 9007641823, "name": "Thôn Tân Thư, xã Kim Thư", "index_right": 169, "district": "Xã Thanh Oai" }, "geometry": { "type": "Point", "coordinates": [ 105.7708409, 20.8427892 ] } },
{ "type": "Feature", "properties": { "id": 9007641824, "name": "Thôn Đôn Thư, xã Kim Thư (Chiều đi Phú Túc)", "index_right": 169, "district": "Xã Thanh Oai" }, "geometry": { "type": "Point", "coordinates": [ 105.7715083, 20.8356511 ] } },
{ "type": "Feature", "properties": { "id": 9007641825, "name": "Thôn Đôn Thư, xã Kim Thư (Chiều đi Yên Nghĩa)", "index_right": 169, "district": "Xã Thanh Oai" }, "geometry": { "type": "Point", "coordinates": [ 105.77159, 20.8362043 ] } },
{ "type": "Feature", "properties": { "id": 9007641826, "name": "Trung tâm Giáo dục thường xuyên Thanh Oai", "index_right": 169, "district": "Xã Thanh Oai" }, "geometry": { "type": "Point", "coordinates": [ 105.7723757, 20.8290025 ] } },
{ "type": "Feature", "properties": { "id": 9007641827, "name": "Gần cửa hàng xăng dầu Phương Trung", "index_right": 169, "district": "Xã Thanh Oai" }, "geometry": { "type": "Point", "coordinates": [ 105.7726822, 20.8277999 ] } },
{ "type": "Feature", "properties": { "id": 9007641828, "name": "Đối diện cổng làng Vũ Lăng", "index_right": 169, "district": "Xã Thanh Oai" }, "geometry": { "type": "Point", "coordinates": [ 105.7740273, 20.8186702 ] } },
{ "type": "Feature", "properties": { "id": 9007641830, "name": "Đối diện cây xăng Phố Vác", "index_right": 169, "district": "Xã Thanh Oai" }, "geometry": { "type": "Point", "coordinates": [ 105.7755393, 20.814103 ] } },
{ "type": "Feature", "properties": { "id": 11537292360, "name": "Kim Bài", "index_right": 169, "district": "Xã Thanh Oai" }, "geometry": { "type": "Point", "coordinates": [ 105.7682192, 20.8537232 ] } },
{ "type": "Feature", "properties": { "id": 11549233080, "name": "Trước lói vào xóm Thượng An Thôn My Dương 30m", "index_right": 169, "district": "Xã Thanh Oai" }, "geometry": { "type": "Point", "coordinates": [ 105.7345522, 20.8703769 ] } },
{ "type": "Feature", "properties": { "id": 11549233081, "name": "Đối diện làng Văn hóa Nga My Thượng, xóm Phượng Lĩnh", "index_right": 169, "district": "Xã Thanh Oai" }, "geometry": { "type": "Point", "coordinates": [ 105.7416231, 20.8651452 ] } },
{ "type": "Feature", "properties": { "id": 11549233082, "name": "Gần chợ Mai, thôn Nga My Hạ, xã Thanh Mai", "index_right": 169, "district": "Xã Thanh Oai" }, "geometry": { "type": "Point", "coordinates": [ 105.7453761, 20.861756 ] } },
{ "type": "Feature", "properties": { "id": 11549233083, "name": "Đối diện nhà văn hóa thôn Cát Động", "index_right": 169, "district": "Xã Thanh Oai" }, "geometry": { "type": "Point", "coordinates": [ 105.7575706, 20.8549523 ] } },
{ "type": "Feature", "properties": { "id": 11549233084, "name": "103 Đường Kim Bài", "index_right": 169, "district": "Xã Thanh Oai" }, "geometry": { "type": "Point", "coordinates": [ 105.7654819, 20.8512134 ] } },
{ "type": "Feature", "properties": { "id": 11549233092, "name": "Nhà văn hóa thôn Cát Động", "index_right": 169, "district": "Xã Thanh Oai" }, "geometry": { "type": "Point", "coordinates": [ 105.7581726, 20.8545968 ] } },
{ "type": "Feature", "properties": { "id": 11549233093, "name": "Đối diện chợ Mai, thôn Nga My Hạ, xã Thanh Mai", "index_right": 169, "district": "Xã Thanh Oai" }, "geometry": { "type": "Point", "coordinates": [ 105.7463121, 20.8612516 ] } },
{ "type": "Feature", "properties": { "id": 11549233094, "name": "Làng Văn hóa Nga My Thượng, xóm Phượng Lĩnh", "index_right": 169, "district": "Xã Thanh Oai" }, "geometry": { "type": "Point", "coordinates": [ 105.7417322, 20.8651194 ] } },
{ "type": "Feature", "properties": { "id": 11549233095, "name": "Đối diện Trước lốii vào xóm Thượng An Thôn My Dương 30m", "index_right": 169, "district": "Xã Thanh Oai" }, "geometry": { "type": "Point", "coordinates": [ 105.734711, 20.8702824 ] } },
{ "type": "Feature", "properties": { "id": 11983419218, "name": "Ngõ 14 Xóm Bãi Trung Chính", "index_right": 169, "district": "Xã Thanh Oai" }, "geometry": { "type": "Point", "coordinates": [ 105.7612359, 20.8307571 ] } },
{ "type": "Feature", "properties": { "id": 11983419220, "name": "Qua Ngõ 14 Xóm Bãi Trung Chính", "index_right": 169, "district": "Xã Thanh Oai" }, "geometry": { "type": "Point", "coordinates": [ 105.7611724, 20.8307797 ] } },
{ "type": "Feature", "properties": { "id": 12083496451, "name": "98-100 Đường Kim Bài", "index_right": 169, "district": "Xã Thanh Oai" }, "geometry": { "type": "Point", "coordinates": [ 105.7652937, 20.8510971 ] } },
{ "type": "Feature", "properties": { "id": 12083496452, "name": "Đối diện đình làng thôn Cát Động", "index_right": 169, "district": "Xã Thanh Oai" }, "geometry": { "type": "Point", "coordinates": [ 105.7523033, 20.8575403 ] } },
{ "type": "Feature", "properties": { "id": 12083496453, "name": "Đình làng thôn Cát Động", "index_right": 169, "district": "Xã Thanh Oai" }, "geometry": { "type": "Point", "coordinates": [ 105.752689, 20.8574042 ] } }
]
}
