{
"type": "FeatureCollection",
"name": "Xã_Nội_Bài",
"crs": { "type": "name", "properties": { "name": "urn:ogc:def:crs:OGC:1.3:CRS84" } },
"features": [
{ "type": "Feature", "properties": { "id": 4570480399, "name": "Sảnh tầng 2 nhà ga T2", "index_right": 72, "district": "Xã Nội Bài" }, "geometry": { "type": "Point", "coordinates": [ 105.791154, 21.217548 ] } },
{ "type": "Feature", "properties": { "id": 5404990957, "name": "Sảnh tầng 1 nhà ga T1", "index_right": 72, "district": "Xã Nội Bài" }, "geometry": { "type": "Point", "coordinates": [ 105.8025364, 21.2144016 ] } },
{ "type": "Feature", "properties": { "id": 7040031287, "name": "Sảnh tầng 2 nhà ga T1", "index_right": 72, "district": "Xã Nội Bài" }, "geometry": { "type": "Point", "coordinates": [ 105.8033356, 21.2141169 ] } },
{ "type": "Feature", "properties": { "id": 7194734187, "name": "Sân bay Nội Bài (Nhà ga T2)", "index_right": 72, "district": "Xã Nội Bài" }, "geometry": { "type": "Point", "coordinates": [ 105.7937453, 21.2169534 ] } },
{ "type": "Feature", "properties": { "id": 8831420051, "name": "Soát vé cao tốc Bắc Thăng Long - Km 10+230 Cao tốc BTL-NB", "index_right": 72, "district": "Xã Nội Bài" }, "geometry": { "type": "Point", "coordinates": [ 105.7798486, 21.2049329 ] } },
{ "type": "Feature", "properties": { "id": 8831420052, "name": "Ngã tư Cao tốc TL- Phúc Yên - Km 11+700 Cao tốc BTL-NB", "index_right": 72, "district": "Xã Nội Bài" }, "geometry": { "type": "Point", "coordinates": [ 105.7787937, 21.2144397 ] } },
{ "type": "Feature", "properties": { "id": 8831420053, "name": "Qua 50m ngã 3 vào thôn Điền Xá - cao tốc BTL-NB (đường Võ Văn Kiệt)", "index_right": 72, "district": "Xã Nội Bài" }, "geometry": { "type": "Point", "coordinates": [ 105.7818418, 21.2186046 ] } },
{ "type": "Feature", "properties": { "id": 8831420054, "name": "Đối diện nhà ga T2 sân bay Nội Bài - cao tốc BTL-NB (đường Võ Văn Kiệt)", "index_right": 72, "district": "Xã Nội Bài" }, "geometry": { "type": "Point", "coordinates": [ 105.7964119, 21.2143752 ] } },
{ "type": "Feature", "properties": { "id": 8831420055, "name": "Đối diện nhà ga T1 sân bay Nội Bài - Văn phòng Nassco", "index_right": 72, "district": "Xã Nội Bài" }, "geometry": { "type": "Point", "coordinates": [ 105.8026634, 21.2125604 ] } },
{ "type": "Feature", "properties": { "id": 8831420059, "name": "Qua 50m đối diện ngã 3 vào thôn Điền Xá - cao tốc BTL-NB (đường Võ Văn Kiệt)", "index_right": 72, "district": "Xã Nội Bài" }, "geometry": { "type": "Point", "coordinates": [ 105.7817467, 21.2193097 ] } },
{ "type": "Feature", "properties": { "id": 8831420060, "name": "Qua ngã tư cao tốc TL - Phúc Yên - Km 11+380 Cao tốc BTL-NB", "index_right": 72, "district": "Xã Nội Bài" }, "geometry": { "type": "Point", "coordinates": [ 105.7784449, 21.2151759 ] } },
{ "type": "Feature", "properties": { "id": 8831420061, "name": "Soát vé cao tốc Bắc Thăng Long - Km 10+010 Cao tốc BTL-NB", "index_right": 72, "district": "Xã Nội Bài" }, "geometry": { "type": "Point", "coordinates": [ 105.7797146, 21.2024507 ] } },
{ "type": "Feature", "properties": { "id": 8927363856, "name": "Nhà ga hàng hóa Nội Bài - đường Võ Văn Kiệt", "index_right": 72, "district": "Xã Nội Bài" }, "geometry": { "type": "Point", "coordinates": [ 105.8073731, 21.2119323 ] } },
{ "type": "Feature", "properties": { "id": 8927363887, "name": "Sảnh tầng 1 nhà ga T2", "index_right": 72, "district": "Xã Nội Bài" }, "geometry": { "type": "Point", "coordinates": [ 105.7911099, 21.217442 ] } },
{ "type": "Feature", "properties": { "id": 8927529643, "name": "Đối diện Ga hàng hóa ALS - Trung tâm dịch vụ kỹ thuật cung ứng điện", "index_right": 72, "district": "Xã Nội Bài" }, "geometry": { "type": "Point", "coordinates": [ 105.809762, 21.2105105 ] } },
{ "type": "Feature", "properties": { "id": 8933730773, "name": "Công ty CP suất ăn hàng không Nội Bài - NCS", "index_right": 72, "district": "Xã Nội Bài" }, "geometry": { "type": "Point", "coordinates": [ 105.8153515, 21.2089264 ] } },
{ "type": "Feature", "properties": { "id": 8933730776, "name": "Công ty xăng dầu hàng không Việt Nam (Vinapco) - đường Võ Văn Kiệt", "index_right": 72, "district": "Xã Nội Bài" }, "geometry": { "type": "Point", "coordinates": [ 105.8144896, 21.2098331 ] } },
{ "type": "Feature", "properties": { "id": 9025161129, "name": "Trước ngã 3 Quốc lộ 2 - cao tốc Nội Bài, Lào Cai 50m", "index_right": 72, "district": "Xã Nội Bài" }, "geometry": { "type": "Point", "coordinates": [ 105.7743843, 21.2189405 ] } },
{ "type": "Feature", "properties": { "id": 9025161130, "name": "Qua ngã ba Quốc lộ 2 - cao tốc Nội Bài, Lào Cai 50m", "index_right": 72, "district": "Xã Nội Bài" }, "geometry": { "type": "Point", "coordinates": [ 105.7754551, 21.2179901 ] } },
{ "type": "Feature", "properties": { "id": 9025161131, "name": "Qua đường vào thôn Đồng Giá 50m", "index_right": 72, "district": "Xã Nội Bài" }, "geometry": { "type": "Point", "coordinates": [ 105.7792866, 21.2250908 ] } },
{ "type": "Feature", "properties": { "id": 9025161132, "name": "Đường vào thôn Đồng Giá", "index_right": 72, "district": "Xã Nội Bài" }, "geometry": { "type": "Point", "coordinates": [ 105.7793549, 21.2253468 ] } },
{ "type": "Feature", "properties": { "id": 9025161133, "name": "Thôn Bắc Hạ, xã Quang Tiến", "index_right": 72, "district": "Xã Nội Bài" }, "geometry": { "type": "Point", "coordinates": [ 105.7900078, 21.2295785 ] } },
{ "type": "Feature", "properties": { "id": 9025161134, "name": "Thôn Bắc Hạ, xã Quang Tiến", "index_right": 72, "district": "Xã Nội Bài" }, "geometry": { "type": "Point", "coordinates": [ 105.7905055, 21.2295473 ] } },
{ "type": "Feature", "properties": { "id": 9025161136, "name": "Nhà chờ đối diện Khu công nghiệp Nội Bài", "index_right": 72, "district": "Xã Nội Bài" }, "geometry": { "type": "Point", "coordinates": [ 105.8084616, 21.2355166 ] } },
{ "type": "Feature", "properties": { "id": 11129082381, "name": "Số 82 QL2 Phú Minh - Sóc Sơn", "index_right": 72, "district": "Xã Nội Bài" }, "geometry": { "type": "Point", "coordinates": [ 105.8297059, 21.1981803 ] } },
{ "type": "Feature", "properties": { "id": 11129082383, "name": "Cạnh đường vào chùa Hưng Long - Km 2+450 Quốc lộ 2", "index_right": 72, "district": "Xã Nội Bài" }, "geometry": { "type": "Point", "coordinates": [ 105.8251894, 21.1982415 ] } },
{ "type": "Feature", "properties": { "id": 11129082400, "name": "Đối diện bưu điện Phú Minh - Km 2+850 Quốc lộ 2", "index_right": 72, "district": "Xã Nội Bài" }, "geometry": { "type": "Point", "coordinates": [ 105.8202736, 21.1984007 ] } },
{ "type": "Feature", "properties": { "id": 11129082401, "name": "Bưu điện Phú Minh - Km 3 Quốc lộ 2", "index_right": 72, "district": "Xã Nội Bài" }, "geometry": { "type": "Point", "coordinates": [ 105.8199732, 21.1983307 ] } },
{ "type": "Feature", "properties": { "id": 11129082402, "name": "Qua số nhà 26 khu 3- QL2 30m", "index_right": 72, "district": "Xã Nội Bài" }, "geometry": { "type": "Point", "coordinates": [ 105.8157857, 21.1988583 ] } },
{ "type": "Feature", "properties": { "id": 11129082403, "name": "Đối diện số nhà 26 khu 3- QL2", "index_right": 72, "district": "Xã Nội Bài" }, "geometry": { "type": "Point", "coordinates": [ 105.8158715, 21.1987608 ] } },
{ "type": "Feature", "properties": { "id": 11518476667, "name": "Đối diện Cty CP giao nhận kho vận hàng không TBS - Nội Bài", "index_right": 72, "district": "Xã Nội Bài" }, "geometry": { "type": "Point", "coordinates": [ 105.8172781, 21.2061541 ] } },
{ "type": "Feature", "properties": { "id": 11518505969, "name": "Cổng A Công ty kỹ thuật bay VAECO Nội Bài", "index_right": 72, "district": "Xã Nội Bài" }, "geometry": { "type": "Point", "coordinates": [ 105.8118035, 21.2106587 ] } },
{ "type": "Feature", "properties": { "id": 11518505970, "name": "Bãi đỗ xe nhà ga T1", "index_right": 72, "district": "Xã Nội Bài" }, "geometry": { "type": "Point", "coordinates": [ 105.8001206, 21.2148019 ] } },
{ "type": "Feature", "properties": { "id": 11518979146, "name": "Đối diện Cổng A Công ty kỹ thuật bay VAECO Nội Bài", "index_right": 72, "district": "Xã Nội Bài" }, "geometry": { "type": "Point", "coordinates": [ 105.8119571, 21.2099085 ] } },
{ "type": "Feature", "properties": { "id": 11518979147, "name": "Cổng Cty CP giao nhận kho vận hàng không TBS - Nội Bài", "index_right": 72, "district": "Xã Nội Bài" }, "geometry": { "type": "Point", "coordinates": [ 105.8171871, 21.2060213 ] } },
{ "type": "Feature", "properties": { "id": 11528593147, "name": "72 Thạch Lỗi Thanh Xuân", "index_right": 72, "district": "Xã Nội Bài" }, "geometry": { "type": "Point", "coordinates": [ 105.7677165, 21.2231077 ] } },
{ "type": "Feature", "properties": { "id": 11528593148, "name": "Cột mốc Km 10+00 - Quốc lộ 2", "index_right": 72, "district": "Xã Nội Bài" }, "geometry": { "type": "Point", "coordinates": [ 105.7610843, 21.2278244 ] } },
{ "type": "Feature", "properties": { "id": 11528593149, "name": "AH14 Thanh Xuân ( Đối diện số nhà 68 Thanh Nhàn - Thanh Xuân)", "index_right": 72, "district": "Xã Nội Bài" }, "geometry": { "type": "Point", "coordinates": [ 105.7570627, 21.2306234 ] } },
{ "type": "Feature", "properties": { "id": 11528593150, "name": "Đối diện HTX Dịch vụ Trung Na", "index_right": 72, "district": "Xã Nội Bài" }, "geometry": { "type": "Point", "coordinates": [ 105.7464117, 21.2359469 ] } },
{ "type": "Feature", "properties": { "id": 11528593151, "name": "Trạm thu phí QL2 thôn Trung Na", "index_right": 72, "district": "Xã Nội Bài" }, "geometry": { "type": "Point", "coordinates": [ 105.7430272, 21.2380276 ] } },
{ "type": "Feature", "properties": { "id": 11531107941, "name": "Trạm thu phí QL2 thôn Trung Na", "index_right": 72, "district": "Xã Nội Bài" }, "geometry": { "type": "Point", "coordinates": [ 105.7417201, 21.2386747 ] } },
{ "type": "Feature", "properties": { "id": 11531107942, "name": "Hợp tác xã Dịch vụ Trung Na", "index_right": 72, "district": "Xã Nội Bài" }, "geometry": { "type": "Point", "coordinates": [ 105.7462621, 21.2357561 ] } },
{ "type": "Feature", "properties": { "id": 11531107943, "name": "68 Thanh Nhàn - Thanh Xuân", "index_right": 72, "district": "Xã Nội Bài" }, "geometry": { "type": "Point", "coordinates": [ 105.7560285, 21.2311009 ] } },
{ "type": "Feature", "properties": { "id": 11531107944, "name": "Cột mốc Km 10+00 - Quốc lộ 2", "index_right": 72, "district": "Xã Nội Bài" }, "geometry": { "type": "Point", "coordinates": [ 105.7615332, 21.2271705 ] } },
{ "type": "Feature", "properties": { "id": 11531107945, "name": "Đối diện 72 Thạch Lỗi Thanh Xuân", "index_right": 72, "district": "Xã Nội Bài" }, "geometry": { "type": "Point", "coordinates": [ 105.7672886, 21.2230734 ] } },
{ "type": "Feature", "properties": { "id": 11533397306, "name": "Đầu thôn Bái Thượng - Xã Thanh Xuân", "index_right": 72, "district": "Xã Nội Bài" }, "geometry": { "type": "Point", "coordinates": [ 105.7632779, 21.2346623 ] } },
{ "type": "Feature", "properties": { "id": 11533397308, "name": "Đối diện Đại lý bán lẻ xăng dầu số 55 - Nam Cương, Hiền Ninh", "index_right": 72, "district": "Xã Nội Bài" }, "geometry": { "type": "Point", "coordinates": [ 105.7728331, 21.2494077 ] } },
{ "type": "Feature", "properties": { "id": 11533397309, "name": "Trước Bốt Tép 100m - Xã Hiền Ninh", "index_right": 72, "district": "Xã Nội Bài" }, "geometry": { "type": "Point", "coordinates": [ 105.7817212, 21.2583821 ] } },
{ "type": "Feature", "properties": { "id": 11533516169, "name": "Đối diện trước Bốt Tép 100m - Xã Hiền Ninh", "index_right": 72, "district": "Xã Nội Bài" }, "geometry": { "type": "Point", "coordinates": [ 105.7810376, 21.2578494 ] } },
{ "type": "Feature", "properties": { "id": 11533516170, "name": "Đại lý bán lẻ xăng dầu số 55 - Nam Cương, Hiền Ninh", "index_right": 72, "district": "Xã Nội Bài" }, "geometry": { "type": "Point", "coordinates": [ 105.7725755, 21.2492777 ] } },
{ "type": "Feature", "properties": { "id": 11533516172, "name": "Đối diện đầu thôn Bái Thượng - Xã Thanh Xuân", "index_right": 72, "district": "Xã Nội Bài" }, "geometry": { "type": "Point", "coordinates": [ 105.7636621, 21.2352592 ] } },
{ "type": "Feature", "properties": { "id": 11536511332, "name": "Sân bay Nội Bài - Tuyến 86", "index_right": 72, "district": "Xã Nội Bài" }, "geometry": { "type": "Point", "coordinates": [ 105.7938427, 21.2165279 ] } },
{ "type": "Feature", "properties": { "id": 11537292315, "name": "Qua cổng làng văn hóa thôn Điền Xá 30m", "index_right": 72, "district": "Xã Nội Bài" }, "geometry": { "type": "Point", "coordinates": [ 105.7800348, 21.2155131 ] } },
{ "type": "Feature", "properties": { "id": 11537292316, "name": "Số 56 Khu B Chợ Phú Cường", "index_right": 72, "district": "Xã Nội Bài" }, "geometry": { "type": "Point", "coordinates": [ 105.785242, 21.2116398 ] } },
{ "type": "Feature", "properties": { "id": 11537292317, "name": "Đối diện số nhà A71 Phú Cường", "index_right": 72, "district": "Xã Nội Bài" }, "geometry": { "type": "Point", "coordinates": [ 105.7888698, 21.2093365 ] } },
{ "type": "Feature", "properties": { "id": 11537292318, "name": "Trước đối diện Công ty Hùng Ngân", "index_right": 72, "district": "Xã Nội Bài" }, "geometry": { "type": "Point", "coordinates": [ 105.7920791, 21.2073249 ] } },
{ "type": "Feature", "properties": { "id": 11537292319, "name": "Trước đối diện Cửa hàng bia hơi \"Nhuần Lộc Quán\"", "index_right": 72, "district": "Xã Nội Bài" }, "geometry": { "type": "Point", "coordinates": [ 105.7959253, 21.2049028 ] } },
{ "type": "Feature", "properties": { "id": 11537292320, "name": "Quán Đăng Thùy", "index_right": 72, "district": "Xã Nội Bài" }, "geometry": { "type": "Point", "coordinates": [ 105.7985415, 21.2036374 ] } },
{ "type": "Feature", "properties": { "id": 11537292321, "name": "Trước đối diện cửa hàng cơm Phương Thảo", "index_right": 72, "district": "Xã Nội Bài" }, "geometry": { "type": "Point", "coordinates": [ 105.8045162, 21.2019616 ] } },
{ "type": "Feature", "properties": { "id": 11537292322, "name": "Trước đối diện gara ô tô Hòa Chuyên 688", "index_right": 72, "district": "Xã Nội Bài" }, "geometry": { "type": "Point", "coordinates": [ 105.8093539, 21.2005672 ] } },
{ "type": "Feature", "properties": { "id": 11537292338, "name": "Trước gara ô tô Hòa Chuyên 688", "index_right": 72, "district": "Xã Nội Bài" }, "geometry": { "type": "Point", "coordinates": [ 105.8096506, 21.2006335 ] } },
{ "type": "Feature", "properties": { "id": 11537292339, "name": "Qua cửa hàng cơm Phương Thảo", "index_right": 72, "district": "Xã Nội Bài" }, "geometry": { "type": "Point", "coordinates": [ 105.8047266, 21.2020274 ] } },
{ "type": "Feature", "properties": { "id": 11537292340, "name": "Đối diện Quán Đăng Thùy", "index_right": 72, "district": "Xã Nội Bài" }, "geometry": { "type": "Point", "coordinates": [ 105.7988391, 21.2036582 ] } },
{ "type": "Feature", "properties": { "id": 11537292341, "name": "Cửa hàng bia hơi \"Nhuần Lộc Quán\"", "index_right": 72, "district": "Xã Nội Bài" }, "geometry": { "type": "Point", "coordinates": [ 105.7959122, 21.2050181 ] } },
{ "type": "Feature", "properties": { "id": 11537292342, "name": "Công ty Hùng Ngân", "index_right": 72, "district": "Xã Nội Bài" }, "geometry": { "type": "Point", "coordinates": [ 105.7924051, 21.2072416 ] } },
{ "type": "Feature", "properties": { "id": 11537292343, "name": "Cửa hàng văn phòng phẩm Vy Vy", "index_right": 72, "district": "Xã Nội Bài" }, "geometry": { "type": "Point", "coordinates": [ 105.7889721, 21.2093916 ] } },
{ "type": "Feature", "properties": { "id": 11537292344, "name": "Số nhà 81B, đường 2, Phú Cường", "index_right": 72, "district": "Xã Nội Bài" }, "geometry": { "type": "Point", "coordinates": [ 105.7853562, 21.2116886 ] } },
{ "type": "Feature", "properties": { "id": 11537292345, "name": "Trước cổng làng văn hóa thôn Điền Xá 10m", "index_right": 72, "district": "Xã Nội Bài" }, "geometry": { "type": "Point", "coordinates": [ 105.7802026, 21.2155507 ] } },
{ "type": "Feature", "properties": { "id": 11553653868, "name": "Sân bóng Phú Minh", "index_right": 72, "district": "Xã Nội Bài" }, "geometry": { "type": "Point", "coordinates": [ 105.8148984, 21.1971461 ] } },
{ "type": "Feature", "properties": { "id": 11553654369, "name": "Đối diện số 11 Chợ Nầm", "index_right": 72, "district": "Xã Nội Bài" }, "geometry": { "type": "Point", "coordinates": [ 105.8122324, 21.1923627 ] } },
{ "type": "Feature", "properties": { "id": 11553654398, "name": "11 Chợ Nầm", "index_right": 72, "district": "Xã Nội Bài" }, "geometry": { "type": "Point", "coordinates": [ 105.8123722, 21.1925721 ] } },
{ "type": "Feature", "properties": { "id": 11553654399, "name": "Đối diện sân bóng Phú Minh", "index_right": 72, "district": "Xã Nội Bài" }, "geometry": { "type": "Point", "coordinates": [ 105.8149652, 21.1968129 ] } },
{ "type": "Feature", "properties": { "id": 11579421945, "name": "Tầng 1 Ga hàng không quốc tế", "index_right": 72, "district": "Xã Nội Bài" }, "geometry": { "type": "Point", "coordinates": [ 105.7916469, 21.2172867 ] } },
{ "type": "Feature", "properties": { "id": 11579421946, "name": "Tầng 1 Ga hàng không quốc nội", "index_right": 72, "district": "Xã Nội Bài" }, "geometry": { "type": "Point", "coordinates": [ 105.8027049, 21.2143193 ] } },
{ "type": "Feature", "properties": { "id": 11579421947, "name": "Tầng 2 Ga hàng không quốc nội", "index_right": 72, "district": "Xã Nội Bài" }, "geometry": { "type": "Point", "coordinates": [ 105.8035056, 21.2137672 ] } },
{ "type": "Feature", "properties": { "id": 11579421952, "name": "Tầng 3 Ga hàng không quốc tế", "index_right": 72, "district": "Xã Nội Bài" }, "geometry": { "type": "Point", "coordinates": [ 105.7922087, 21.2171326 ] } },
{ "type": "Feature", "properties": { "id": 11983032537, "name": "Nội Bài", "index_right": 72, "district": "Xã Nội Bài" }, "geometry": { "type": "Point", "coordinates": [ 105.8013524, 21.2142901 ] } },
{ "type": "Feature", "properties": { "id": 13159384053, "name": "Cầu vượt đi bộ Ga hàng hóa ALS", "index_right": 72, "district": "Xã Nội Bài" }, "geometry": { "type": "Point", "coordinates": [ 105.8074984, 21.2112024 ] } }
]
}
