{
"type": "FeatureCollection",
"name": "Xã_Quảng_Bị",
"crs": { "type": "name", "properties": { "name": "urn:ogc:def:crs:OGC:1.3:CRS84" } },
"features": [
{ "type": "Feature", "properties": { "id": 9323130092, "name": "Đối diện Nhà văn hóa thôn Đồng Du", "index_right": 173, "district": "Xã Quảng Bị" }, "geometry": { "type": "Point", "coordinates": [ 105.7003097, 20.8802854 ] } },
{ "type": "Feature", "properties": { "id": 9323130092, "name": "Đối diện Nhà văn hóa thôn Đồng Du", "index_right": 174, "district": "Xã Quảng Bị" }, "geometry": { "type": "Point", "coordinates": [ 105.7003097, 20.8802854 ] } },
{ "type": "Feature", "properties": { "id": 9323130093, "name": "Đối diện cổng làng Ngõ Trên", "index_right": 173, "district": "Xã Quảng Bị" }, "geometry": { "type": "Point", "coordinates": [ 105.701596, 20.8737847 ] } },
{ "type": "Feature", "properties": { "id": 9323130093, "name": "Đối diện cổng làng Ngõ Trên", "index_right": 174, "district": "Xã Quảng Bị" }, "geometry": { "type": "Point", "coordinates": [ 105.701596, 20.8737847 ] } },
{ "type": "Feature", "properties": { "id": 9323130094, "name": "Cổng Làng Ngõ Trên", "index_right": 173, "district": "Xã Quảng Bị" }, "geometry": { "type": "Point", "coordinates": [ 105.701802, 20.8742218 ] } },
{ "type": "Feature", "properties": { "id": 9323130094, "name": "Cổng Làng Ngõ Trên", "index_right": 174, "district": "Xã Quảng Bị" }, "geometry": { "type": "Point", "coordinates": [ 105.701802, 20.8742218 ] } },
{ "type": "Feature", "properties": { "id": 9323130095, "name": "Đối diện Nhà văn hóa thôn Đạo Ngạn", "index_right": 173, "district": "Xã Quảng Bị" }, "geometry": { "type": "Point", "coordinates": [ 105.7012145, 20.8698765 ] } },
{ "type": "Feature", "properties": { "id": 9323130095, "name": "Đối diện Nhà văn hóa thôn Đạo Ngạn", "index_right": 174, "district": "Xã Quảng Bị" }, "geometry": { "type": "Point", "coordinates": [ 105.7012145, 20.8698765 ] } },
{ "type": "Feature", "properties": { "id": 9323130096, "name": "Nhà văn hóa, Đình xóm Đạo Ngạn", "index_right": 173, "district": "Xã Quảng Bị" }, "geometry": { "type": "Point", "coordinates": [ 105.7013083, 20.869691 ] } },
{ "type": "Feature", "properties": { "id": 9323130096, "name": "Nhà văn hóa, Đình xóm Đạo Ngạn", "index_right": 174, "district": "Xã Quảng Bị" }, "geometry": { "type": "Point", "coordinates": [ 105.7013083, 20.869691 ] } },
{ "type": "Feature", "properties": { "id": 9323130097, "name": "Đối diện Đình chùa Quảng Bị", "index_right": 173, "district": "Xã Quảng Bị" }, "geometry": { "type": "Point", "coordinates": [ 105.7001608, 20.8645318 ] } },
{ "type": "Feature", "properties": { "id": 9323130097, "name": "Đối diện Đình chùa Quảng Bị", "index_right": 174, "district": "Xã Quảng Bị" }, "geometry": { "type": "Point", "coordinates": [ 105.7001608, 20.8645318 ] } },
{ "type": "Feature", "properties": { "id": 9323130098, "name": "Đối diện Nghĩa trang liệt sỹ Quảng Bị", "index_right": 173, "district": "Xã Quảng Bị" }, "geometry": { "type": "Point", "coordinates": [ 105.7003592, 20.8647544 ] } },
{ "type": "Feature", "properties": { "id": 9323130098, "name": "Đối diện Nghĩa trang liệt sỹ Quảng Bị", "index_right": 174, "district": "Xã Quảng Bị" }, "geometry": { "type": "Point", "coordinates": [ 105.7003592, 20.8647544 ] } },
{ "type": "Feature", "properties": { "id": 9323130099, "name": "Đối diện Cổng làng xóm Dinh", "index_right": 173, "district": "Xã Quảng Bị" }, "geometry": { "type": "Point", "coordinates": [ 105.7009686, 20.8601543 ] } },
{ "type": "Feature", "properties": { "id": 9323130099, "name": "Đối diện Cổng làng xóm Dinh", "index_right": 174, "district": "Xã Quảng Bị" }, "geometry": { "type": "Point", "coordinates": [ 105.7009686, 20.8601543 ] } },
{ "type": "Feature", "properties": { "id": 9323130100, "name": "Cửa hàng Vàng bạc Nguyễn Phú", "index_right": 173, "district": "Xã Quảng Bị" }, "geometry": { "type": "Point", "coordinates": [ 105.7009386, 20.8607799 ] } },
{ "type": "Feature", "properties": { "id": 9323130100, "name": "Cửa hàng Vàng bạc Nguyễn Phú", "index_right": 174, "district": "Xã Quảng Bị" }, "geometry": { "type": "Point", "coordinates": [ 105.7009386, 20.8607799 ] } },
{ "type": "Feature", "properties": { "id": 9323130101, "name": "Đối diện ngã 3 đường vào thôn Đồng Luân", "index_right": 173, "district": "Xã Quảng Bị" }, "geometry": { "type": "Point", "coordinates": [ 105.7018175, 20.8570467 ] } },
{ "type": "Feature", "properties": { "id": 9323130101, "name": "Đối diện ngã 3 đường vào thôn Đồng Luân", "index_right": 174, "district": "Xã Quảng Bị" }, "geometry": { "type": "Point", "coordinates": [ 105.7018175, 20.8570467 ] } },
{ "type": "Feature", "properties": { "id": 9323130102, "name": "Ngã 3 đường vào thôn Đồng Luân", "index_right": 173, "district": "Xã Quảng Bị" }, "geometry": { "type": "Point", "coordinates": [ 105.7019977, 20.8569665 ] } },
{ "type": "Feature", "properties": { "id": 9323130102, "name": "Ngã 3 đường vào thôn Đồng Luân", "index_right": 174, "district": "Xã Quảng Bị" }, "geometry": { "type": "Point", "coordinates": [ 105.7019977, 20.8569665 ] } },
{ "type": "Feature", "properties": { "id": 9323130103, "name": "Số 452 cầu thôn 3 Quảng Bị", "index_right": 173, "district": "Xã Quảng Bị" }, "geometry": { "type": "Point", "coordinates": [ 105.7027615, 20.8527456 ] } },
{ "type": "Feature", "properties": { "id": 9323130103, "name": "Số 452 cầu thôn 3 Quảng Bị", "index_right": 174, "district": "Xã Quảng Bị" }, "geometry": { "type": "Point", "coordinates": [ 105.7027615, 20.8527456 ] } },
{ "type": "Feature", "properties": { "id": 9323130104, "name": "Đối diện số 444 cầu thôn 3 Quảng Bị", "index_right": 173, "district": "Xã Quảng Bị" }, "geometry": { "type": "Point", "coordinates": [ 105.7029347, 20.8530964 ] } },
{ "type": "Feature", "properties": { "id": 9323130104, "name": "Đối diện số 444 cầu thôn 3 Quảng Bị", "index_right": 174, "district": "Xã Quảng Bị" }, "geometry": { "type": "Point", "coordinates": [ 105.7029347, 20.8530964 ] } },
{ "type": "Feature", "properties": { "id": 11542407665, "name": "Ngõ giữa thôn Thái Hòa, xã Hợp Đồng, Chương Mỹ", "index_right": 173, "district": "Xã Quảng Bị" }, "geometry": { "type": "Point", "coordinates": [ 105.7018592, 20.8769029 ] } },
{ "type": "Feature", "properties": { "id": 11542407665, "name": "Ngõ giữa thôn Thái Hòa, xã Hợp Đồng, Chương Mỹ", "index_right": 174, "district": "Xã Quảng Bị" }, "geometry": { "type": "Point", "coordinates": [ 105.7018592, 20.8769029 ] } },
{ "type": "Feature", "properties": { "id": 11542407666, "name": "Nhà Văn Hóa Thôn Đồng Du", "index_right": 173, "district": "Xã Quảng Bị" }, "geometry": { "type": "Point", "coordinates": [ 105.7004186, 20.8804795 ] } },
{ "type": "Feature", "properties": { "id": 11542407666, "name": "Nhà Văn Hóa Thôn Đồng Du", "index_right": 174, "district": "Xã Quảng Bị" }, "geometry": { "type": "Point", "coordinates": [ 105.7004186, 20.8804795 ] } },
{ "type": "Feature", "properties": { "id": 11549233126, "name": "Cây Đa gần UBND Xã Lam Điền", "index_right": 173, "district": "Xã Quảng Bị" }, "geometry": { "type": "Point", "coordinates": [ 105.7188123, 20.8950021 ] } },
{ "type": "Feature", "properties": { "id": 11549233126, "name": "Cây Đa gần UBND Xã Lam Điền", "index_right": 174, "district": "Xã Quảng Bị" }, "geometry": { "type": "Point", "coordinates": [ 105.7188123, 20.8950021 ] } },
{ "type": "Feature", "properties": { "id": 11549233127, "name": "Chùa Lam Điền", "index_right": 173, "district": "Xã Quảng Bị" }, "geometry": { "type": "Point", "coordinates": [ 105.722462, 20.8933993 ] } },
{ "type": "Feature", "properties": { "id": 11549233127, "name": "Chùa Lam Điền", "index_right": 174, "district": "Xã Quảng Bị" }, "geometry": { "type": "Point", "coordinates": [ 105.722462, 20.8933993 ] } },
{ "type": "Feature", "properties": { "id": 11549233128, "name": "UBND Xã Lam Điền", "index_right": 173, "district": "Xã Quảng Bị" }, "geometry": { "type": "Point", "coordinates": [ 105.7242028, 20.8922976 ] } },
{ "type": "Feature", "properties": { "id": 11549233128, "name": "UBND Xã Lam Điền", "index_right": 174, "district": "Xã Quảng Bị" }, "geometry": { "type": "Point", "coordinates": [ 105.7242028, 20.8922976 ] } },
{ "type": "Feature", "properties": { "id": 11549233129, "name": "Chùa Lương Xá- Đình làng Nguyên Ứng", "index_right": 173, "district": "Xã Quảng Bị" }, "geometry": { "type": "Point", "coordinates": [ 105.7230734, 20.8874398 ] } },
{ "type": "Feature", "properties": { "id": 11549233129, "name": "Chùa Lương Xá- Đình làng Nguyên Ứng", "index_right": 174, "district": "Xã Quảng Bị" }, "geometry": { "type": "Point", "coordinates": [ 105.7230734, 20.8874398 ] } },
{ "type": "Feature", "properties": { "id": 11549233130, "name": "Xóm Trăm - Lương Xá - Lam Điền", "index_right": 173, "district": "Xã Quảng Bị" }, "geometry": { "type": "Point", "coordinates": [ 105.7227679, 20.8812639 ] } },
{ "type": "Feature", "properties": { "id": 11549233130, "name": "Xóm Trăm - Lương Xá - Lam Điền", "index_right": 174, "district": "Xã Quảng Bị" }, "geometry": { "type": "Point", "coordinates": [ 105.7227679, 20.8812639 ] } },
{ "type": "Feature", "properties": { "id": 11549233131, "name": "Đình Lương Xá", "index_right": 173, "district": "Xã Quảng Bị" }, "geometry": { "type": "Point", "coordinates": [ 105.7225494, 20.879947 ] } },
{ "type": "Feature", "properties": { "id": 11549233131, "name": "Đình Lương Xá", "index_right": 174, "district": "Xã Quảng Bị" }, "geometry": { "type": "Point", "coordinates": [ 105.7225494, 20.879947 ] } },
{ "type": "Feature", "properties": { "id": 11549233132, "name": "Cổng trào Thôn Bài Trượng", "index_right": 173, "district": "Xã Quảng Bị" }, "geometry": { "type": "Point", "coordinates": [ 105.7226727, 20.8754242 ] } },
{ "type": "Feature", "properties": { "id": 11549233132, "name": "Cổng trào Thôn Bài Trượng", "index_right": 174, "district": "Xã Quảng Bị" }, "geometry": { "type": "Point", "coordinates": [ 105.7226727, 20.8754242 ] } },
{ "type": "Feature", "properties": { "id": 11549233133, "name": "Chùa Bài Trượng", "index_right": 173, "district": "Xã Quảng Bị" }, "geometry": { "type": "Point", "coordinates": [ 105.7251991, 20.8727921 ] } },
{ "type": "Feature", "properties": { "id": 11549233133, "name": "Chùa Bài Trượng", "index_right": 174, "district": "Xã Quảng Bị" }, "geometry": { "type": "Point", "coordinates": [ 105.7251991, 20.8727921 ] } },
{ "type": "Feature", "properties": { "id": 11549233134, "name": "Cổng trào Làng An Vọng", "index_right": 173, "district": "Xã Quảng Bị" }, "geometry": { "type": "Point", "coordinates": [ 105.7284267, 20.871029 ] } },
{ "type": "Feature", "properties": { "id": 11549233134, "name": "Cổng trào Làng An Vọng", "index_right": 174, "district": "Xã Quảng Bị" }, "geometry": { "type": "Point", "coordinates": [ 105.7284267, 20.871029 ] } },
{ "type": "Feature", "properties": { "id": 11549233135, "name": "Xóm Trong - Thôn An Hiền", "index_right": 173, "district": "Xã Quảng Bị" }, "geometry": { "type": "Point", "coordinates": [ 105.7292536, 20.8671811 ] } },
{ "type": "Feature", "properties": { "id": 11549233135, "name": "Xóm Trong - Thôn An Hiền", "index_right": 174, "district": "Xã Quảng Bị" }, "geometry": { "type": "Point", "coordinates": [ 105.7292536, 20.8671811 ] } },
{ "type": "Feature", "properties": { "id": 11549233136, "name": "UBND xã Hoàng Diệu", "index_right": 173, "district": "Xã Quảng Bị" }, "geometry": { "type": "Point", "coordinates": [ 105.7313279, 20.8632703 ] } },
{ "type": "Feature", "properties": { "id": 11549233136, "name": "UBND xã Hoàng Diệu", "index_right": 174, "district": "Xã Quảng Bị" }, "geometry": { "type": "Point", "coordinates": [ 105.7313279, 20.8632703 ] } },
{ "type": "Feature", "properties": { "id": 11549233137, "name": "Trường Tiểu Học Hoàng Diệu", "index_right": 173, "district": "Xã Quảng Bị" }, "geometry": { "type": "Point", "coordinates": [ 105.7325771, 20.8609437 ] } },
{ "type": "Feature", "properties": { "id": 11549233137, "name": "Trường Tiểu Học Hoàng Diệu", "index_right": 174, "district": "Xã Quảng Bị" }, "geometry": { "type": "Point", "coordinates": [ 105.7325771, 20.8609437 ] } },
{ "type": "Feature", "properties": { "id": 11549233138, "name": "Đình Cốc Trung", "index_right": 173, "district": "Xã Quảng Bị" }, "geometry": { "type": "Point", "coordinates": [ 105.7355335, 20.85623 ] } },
{ "type": "Feature", "properties": { "id": 11549233138, "name": "Đình Cốc Trung", "index_right": 174, "district": "Xã Quảng Bị" }, "geometry": { "type": "Point", "coordinates": [ 105.7355335, 20.85623 ] } },
{ "type": "Feature", "properties": { "id": 11549233154, "name": "Gần Đình Cốc Trung", "index_right": 173, "district": "Xã Quảng Bị" }, "geometry": { "type": "Point", "coordinates": [ 105.735564, 20.8562595 ] } },
{ "type": "Feature", "properties": { "id": 11549233154, "name": "Gần Đình Cốc Trung", "index_right": 174, "district": "Xã Quảng Bị" }, "geometry": { "type": "Point", "coordinates": [ 105.735564, 20.8562595 ] } },
{ "type": "Feature", "properties": { "id": 11549233160, "name": "Đối diện Trường Tiểu Học Hoàng Diệu", "index_right": 173, "district": "Xã Quảng Bị" }, "geometry": { "type": "Point", "coordinates": [ 105.7326272, 20.8609656 ] } },
{ "type": "Feature", "properties": { "id": 11549233160, "name": "Đối diện Trường Tiểu Học Hoàng Diệu", "index_right": 174, "district": "Xã Quảng Bị" }, "geometry": { "type": "Point", "coordinates": [ 105.7326272, 20.8609656 ] } },
{ "type": "Feature", "properties": { "id": 11549233161, "name": "Gần UBND xã Hoàng Diệu", "index_right": 173, "district": "Xã Quảng Bị" }, "geometry": { "type": "Point", "coordinates": [ 105.7313923, 20.8632826 ] } },
{ "type": "Feature", "properties": { "id": 11549233161, "name": "Gần UBND xã Hoàng Diệu", "index_right": 174, "district": "Xã Quảng Bị" }, "geometry": { "type": "Point", "coordinates": [ 105.7313923, 20.8632826 ] } },
{ "type": "Feature", "properties": { "id": 11549233162, "name": "Qua Xóm Trong - Thôn An Hiền", "index_right": 173, "district": "Xã Quảng Bị" }, "geometry": { "type": "Point", "coordinates": [ 105.7293178, 20.8671841 ] } },
{ "type": "Feature", "properties": { "id": 11549233162, "name": "Qua Xóm Trong - Thôn An Hiền", "index_right": 174, "district": "Xã Quảng Bị" }, "geometry": { "type": "Point", "coordinates": [ 105.7293178, 20.8671841 ] } },
{ "type": "Feature", "properties": { "id": 11549233163, "name": "Gần Cổng trào Làng An Vọng", "index_right": 173, "district": "Xã Quảng Bị" }, "geometry": { "type": "Point", "coordinates": [ 105.7284641, 20.8710689 ] } },
{ "type": "Feature", "properties": { "id": 11549233163, "name": "Gần Cổng trào Làng An Vọng", "index_right": 174, "district": "Xã Quảng Bị" }, "geometry": { "type": "Point", "coordinates": [ 105.7284641, 20.8710689 ] } },
{ "type": "Feature", "properties": { "id": 11549233164, "name": "Qua Chùa Bài Trượng", "index_right": 173, "district": "Xã Quảng Bị" }, "geometry": { "type": "Point", "coordinates": [ 105.7252253, 20.8728271 ] } },
{ "type": "Feature", "properties": { "id": 11549233164, "name": "Qua Chùa Bài Trượng", "index_right": 174, "district": "Xã Quảng Bị" }, "geometry": { "type": "Point", "coordinates": [ 105.7252253, 20.8728271 ] } },
{ "type": "Feature", "properties": { "id": 11549233165, "name": "Đối diện Cổng trào Thôn Bài Trượng", "index_right": 173, "district": "Xã Quảng Bị" }, "geometry": { "type": "Point", "coordinates": [ 105.7227082, 20.8754679 ] } },
{ "type": "Feature", "properties": { "id": 11549233165, "name": "Đối diện Cổng trào Thôn Bài Trượng", "index_right": 174, "district": "Xã Quảng Bị" }, "geometry": { "type": "Point", "coordinates": [ 105.7227082, 20.8754679 ] } },
{ "type": "Feature", "properties": { "id": 11549233166, "name": "Gần Đình Lương Xá", "index_right": 173, "district": "Xã Quảng Bị" }, "geometry": { "type": "Point", "coordinates": [ 105.7226021, 20.879932 ] } },
{ "type": "Feature", "properties": { "id": 11549233166, "name": "Gần Đình Lương Xá", "index_right": 174, "district": "Xã Quảng Bị" }, "geometry": { "type": "Point", "coordinates": [ 105.7226021, 20.879932 ] } },
{ "type": "Feature", "properties": { "id": 11549233167, "name": "Gần Xóm Trăm - Lương Xá - Lam Điền", "index_right": 173, "district": "Xã Quảng Bị" }, "geometry": { "type": "Point", "coordinates": [ 105.7228045, 20.8812539 ] } },
{ "type": "Feature", "properties": { "id": 11549233167, "name": "Gần Xóm Trăm - Lương Xá - Lam Điền", "index_right": 174, "district": "Xã Quảng Bị" }, "geometry": { "type": "Point", "coordinates": [ 105.7228045, 20.8812539 ] } },
{ "type": "Feature", "properties": { "id": 11549233168, "name": "Qua Chùa Lương Xá - Đình làng Nguyên Ứng", "index_right": 173, "district": "Xã Quảng Bị" }, "geometry": { "type": "Point", "coordinates": [ 105.7231234, 20.8874337 ] } },
{ "type": "Feature", "properties": { "id": 11549233168, "name": "Qua Chùa Lương Xá - Đình làng Nguyên Ứng", "index_right": 174, "district": "Xã Quảng Bị" }, "geometry": { "type": "Point", "coordinates": [ 105.7231234, 20.8874337 ] } },
{ "type": "Feature", "properties": { "id": 11549233169, "name": "Gần UBND Xã Lam Điền", "index_right": 173, "district": "Xã Quảng Bị" }, "geometry": { "type": "Point", "coordinates": [ 105.724245, 20.8923112 ] } },
{ "type": "Feature", "properties": { "id": 11549233169, "name": "Gần UBND Xã Lam Điền", "index_right": 174, "district": "Xã Quảng Bị" }, "geometry": { "type": "Point", "coordinates": [ 105.724245, 20.8923112 ] } },
{ "type": "Feature", "properties": { "id": 11549233170, "name": "Đối diện Chùa Lam Điền", "index_right": 173, "district": "Xã Quảng Bị" }, "geometry": { "type": "Point", "coordinates": [ 105.7224899, 20.8934446 ] } },
{ "type": "Feature", "properties": { "id": 11549233170, "name": "Đối diện Chùa Lam Điền", "index_right": 174, "district": "Xã Quảng Bị" }, "geometry": { "type": "Point", "coordinates": [ 105.7224899, 20.8934446 ] } },
{ "type": "Feature", "properties": { "id": 11549233171, "name": "Qua Cây Đa gần UBND Xã Lam Điền", "index_right": 173, "district": "Xã Quảng Bị" }, "geometry": { "type": "Point", "coordinates": [ 105.7188696, 20.89506 ] } },
{ "type": "Feature", "properties": { "id": 11549233171, "name": "Qua Cây Đa gần UBND Xã Lam Điền", "index_right": 174, "district": "Xã Quảng Bị" }, "geometry": { "type": "Point", "coordinates": [ 105.7188696, 20.89506 ] } },
{ "type": "Feature", "properties": { "id": 11591700305, "name": "Đối diện Ngõ giữa thôn Thái Hòa", "index_right": 173, "district": "Xã Quảng Bị" }, "geometry": { "type": "Point", "coordinates": [ 105.7020257, 20.8775041 ] } },
{ "type": "Feature", "properties": { "id": 11591700305, "name": "Đối diện Ngõ giữa thôn Thái Hòa", "index_right": 174, "district": "Xã Quảng Bị" }, "geometry": { "type": "Point", "coordinates": [ 105.7020257, 20.8775041 ] } }
]
}
