{
"type": "FeatureCollection",
"name": "Xã_Đại_Thanh",
"crs": { "type": "name", "properties": { "name": "urn:ogc:def:crs:OGC:1.3:CRS84" } },
"features": [
{ "type": "Feature", "properties": { "id": 436176914, "name": "Đối diện Trụ sở HĐND huyện Thanh Trì - Ngọc Hồi", "index_right": 116, "district": "Xã Đại Thanh" }, "geometry": { "type": "Point", "coordinates": [ 105.8442159, 20.9466009 ] } },
{ "type": "Feature", "properties": { "id": 8846358756, "name": "CT8B chung cư Đại Thanh", "index_right": 116, "district": "Xã Đại Thanh" }, "geometry": { "type": "Point", "coordinates": [ 105.8071971, 20.957317 ] } },
{ "type": "Feature", "properties": { "id": 8897455252, "name": "Qua Cầu Tó 150m", "index_right": 116, "district": "Xã Đại Thanh" }, "geometry": { "type": "Point", "coordinates": [ 105.8121131, 20.9547716 ] } },
{ "type": "Feature", "properties": { "id": 8897455254, "name": "Đối diện XN KD Kim Khí và Dịch vụ số 3", "index_right": 116, "district": "Xã Đại Thanh" }, "geometry": { "type": "Point", "coordinates": [ 105.8258579, 20.9475437 ] } },
{ "type": "Feature", "properties": { "id": 8897455255, "name": "Cột Mốc Km2 - Phan Trọng Tuệ", "index_right": 116, "district": "Xã Đại Thanh" }, "geometry": { "type": "Point", "coordinates": [ 105.8288574, 20.9472294 ] } },
{ "type": "Feature", "properties": { "id": 8897455257, "name": "Điểm Đỗ Xe Bus Xã Tam Hiệp", "index_right": 116, "district": "Xã Đại Thanh" }, "geometry": { "type": "Point", "coordinates": [ 105.8326299, 20.9516303 ] } },
{ "type": "Feature", "properties": { "id": 8897455258, "name": "Cột Mốc Km2 - Phan Trọng Tuệ", "index_right": 116, "district": "Xã Đại Thanh" }, "geometry": { "type": "Point", "coordinates": [ 105.8289481, 20.9474415 ] } },
{ "type": "Feature", "properties": { "id": 8897455259, "name": "XN KD Kim Khí và Dịch vụ số 3", "index_right": 116, "district": "Xã Đại Thanh" }, "geometry": { "type": "Point", "coordinates": [ 105.8262838, 20.9474299 ] } },
{ "type": "Feature", "properties": { "id": 8897455260, "name": "XN KD Kim Khí và D.vụ số 1", "index_right": 116, "district": "Xã Đại Thanh" }, "geometry": { "type": "Point", "coordinates": [ 105.8186105, 20.951519 ] } },
{ "type": "Feature", "properties": { "id": 11524039236, "name": "Trước cổng trung cấp Y dược Hà Nội 50m", "index_right": 116, "district": "Xã Đại Thanh" }, "geometry": { "type": "Point", "coordinates": [ 105.8217403, 20.9497273 ] } },
{ "type": "Feature", "properties": { "id": 11524039237, "name": "Đối diện Công ty Phân Lân Văn Điển", "index_right": 116, "district": "Xã Đại Thanh" }, "geometry": { "type": "Point", "coordinates": [ 105.8327985, 20.9445605 ] } },
{ "type": "Feature", "properties": { "id": 11524039238, "name": "Trường CN cơ điện & PTNT", "index_right": 116, "district": "Xã Đại Thanh" }, "geometry": { "type": "Point", "coordinates": [ 105.8406633, 20.9434832 ] } },
{ "type": "Feature", "properties": { "id": 11524139302, "name": "Nhà máy Pin Văn Điển", "index_right": 116, "district": "Xã Đại Thanh" }, "geometry": { "type": "Point", "coordinates": [ 105.8410993, 20.9435578 ] } },
{ "type": "Feature", "properties": { "id": 11524139303, "name": "Công ty Phân Lân Văn Điển", "index_right": 116, "district": "Xã Đại Thanh" }, "geometry": { "type": "Point", "coordinates": [ 105.8320044, 20.944823 ] } },
{ "type": "Feature", "properties": { "id": 11524139304, "name": "Đối diện cổng trung cấp Y dược Hà Nội 50m", "index_right": 116, "district": "Xã Đại Thanh" }, "geometry": { "type": "Point", "coordinates": [ 105.8228011, 20.9493016 ] } }
]
}
