{
"type": "FeatureCollection",
"name": "Xã_Ứng_Thiên",
"crs": { "type": "name", "properties": { "name": "urn:ogc:def:crs:OGC:1.3:CRS84" } },
"features": [
{ "type": "Feature", "properties": { "id": 7138497036, "name": "Quán café Linh, Ba Thá (Qua cây xăng Sơn Hải 150m)", "index_right": 167, "district": "Xã Ứng Thiên" }, "geometry": { "type": "Point", "coordinates": [ 105.7091472, 20.8069361 ] } },
{ "type": "Feature", "properties": { "id": 9006046643, "name": "Công Ty TNHH Tiến Mạnh", "index_right": 167, "district": "Xã Ứng Thiên" }, "geometry": { "type": "Point", "coordinates": [ 105.733503, 20.806198 ] } },
{ "type": "Feature", "properties": { "id": 9006046644, "name": "Đối diện cửa hàng tạp hóa trước cổng làng Viên Ngoại 150m", "index_right": 167, "district": "Xã Ứng Thiên" }, "geometry": { "type": "Point", "coordinates": [ 105.733272, 20.8061053 ] } },
{ "type": "Feature", "properties": { "id": 9006046645, "name": "Cửa Hàng Máy Khâu Minh Trí", "index_right": 167, "district": "Xã Ứng Thiên" }, "geometry": { "type": "Point", "coordinates": [ 105.727329, 20.8068534 ] } },
{ "type": "Feature", "properties": { "id": 9006046646, "name": "Cửa hàng Spa Lan An", "index_right": 167, "district": "Xã Ứng Thiên" }, "geometry": { "type": "Point", "coordinates": [ 105.7266177, 20.8066282 ] } },
{ "type": "Feature", "properties": { "id": 9006046647, "name": "Qua cửa hàng Long Nga 100m", "index_right": 167, "district": "Xã Ứng Thiên" }, "geometry": { "type": "Point", "coordinates": [ 105.7223592, 20.8058746 ] } },
{ "type": "Feature", "properties": { "id": 9006046648, "name": "Cửa Hàng Bia Hơi Tuấn Thụ", "index_right": 167, "district": "Xã Ứng Thiên" }, "geometry": { "type": "Point", "coordinates": [ 105.7217706, 20.8056296 ] } },
{ "type": "Feature", "properties": { "id": 9006046649, "name": "Qua lối vào trung tâm Bảo trợ Xã hội 50m", "index_right": 167, "district": "Xã Ứng Thiên" }, "geometry": { "type": "Point", "coordinates": [ 105.7143096, 20.8052669 ] } },
{ "type": "Feature", "properties": { "id": 9006046650, "name": "Trước lối vào ngõ Lẻ thôn Phù Yên", "index_right": 167, "district": "Xã Ứng Thiên" }, "geometry": { "type": "Point", "coordinates": [ 105.713743, 20.8051118 ] } },
{ "type": "Feature", "properties": { "id": 9006046651, "name": "Chợ Ba Thá", "index_right": 167, "district": "Xã Ứng Thiên" }, "geometry": { "type": "Point", "coordinates": [ 105.7093225, 20.8067397 ] } },
{ "type": "Feature", "properties": { "id": 9323131719, "name": "Đối diện cổng làng thôn Phù Yên", "index_right": 167, "district": "Xã Ứng Thiên" }, "geometry": { "type": "Point", "coordinates": [ 105.7099707, 20.8026306 ] } },
{ "type": "Feature", "properties": { "id": 9323131720, "name": "Cổng Làng Thôn Phù Yên", "index_right": 167, "district": "Xã Ứng Thiên" }, "geometry": { "type": "Point", "coordinates": [ 105.7100473, 20.8028977 ] } }
]
}
