{
"type": "FeatureCollection",
"name": "Xã_Đa_Phúc",
"crs": { "type": "name", "properties": { "name": "urn:ogc:def:crs:OGC:1.3:CRS84" } },
"features": [
{ "type": "Feature", "properties": { "id": 9025879848, "name": "Cửa Hàng Điện Lạnh Đức Nguyên", "index_right": 74, "district": "Xã Đa Phúc" }, "geometry": { "type": "Point", "coordinates": [ 105.885087, 21.2434289 ] } },
{ "type": "Feature", "properties": { "id": 9025879849, "name": "Đối diện trường THPT Xuân Giang", "index_right": 74, "district": "Xã Đa Phúc" }, "geometry": { "type": "Point", "coordinates": [ 105.8915268, 21.2426465 ] } },
{ "type": "Feature", "properties": { "id": 9025879850, "name": "Gần đối diện UBND xã Xuân Giang", "index_right": 74, "district": "Xã Đa Phúc" }, "geometry": { "type": "Point", "coordinates": [ 105.8970535, 21.2430418 ] } },
{ "type": "Feature", "properties": { "id": 9025879851, "name": "Xóm Đồng May - Thôn Xuân Tảo (chiều đi)", "index_right": 74, "district": "Xã Đa Phúc" }, "geometry": { "type": "Point", "coordinates": [ 105.9024846, 21.2425539 ] } },
{ "type": "Feature", "properties": { "id": 9025879852, "name": "Đối diện Đình làng Tiên Tảo", "index_right": 74, "district": "Xã Đa Phúc" }, "geometry": { "type": "Point", "coordinates": [ 105.9082624, 21.2441104 ] } },
{ "type": "Feature", "properties": { "id": 9025879853, "name": "Gần Câu lạc bộ người cao tuổi thôn Tiên Tảo", "index_right": 74, "district": "Xã Đa Phúc" }, "geometry": { "type": "Point", "coordinates": [ 105.912393, 21.2451824 ] } },
{ "type": "Feature", "properties": { "id": 9025879854, "name": "Đối diện UBND xã Việt Long", "index_right": 74, "district": "Xã Đa Phúc" }, "geometry": { "type": "Point", "coordinates": [ 105.9158648, 21.2465644 ] } },
{ "type": "Feature", "properties": { "id": 9025879855, "name": "Gần dốc Đa thôn Lương Phúc", "index_right": 74, "district": "Xã Đa Phúc" }, "geometry": { "type": "Point", "coordinates": [ 105.9335022, 21.2470463 ] } },
{ "type": "Feature", "properties": { "id": 9025879856, "name": "Đối diện trạm bơm Tăng Long", "index_right": 74, "district": "Xã Đa Phúc" }, "geometry": { "type": "Point", "coordinates": [ 105.9315185, 21.2550116 ] } },
{ "type": "Feature", "properties": { "id": 9025879857, "name": "Đối diện đình làng Tăng Long", "index_right": 74, "district": "Xã Đa Phúc" }, "geometry": { "type": "Point", "coordinates": [ 105.9271448, 21.260719 ] } },
{ "type": "Feature", "properties": { "id": 9025879858, "name": "Qua bến đò Đông Bắc", "index_right": 74, "district": "Xã Đa Phúc" }, "geometry": { "type": "Point", "coordinates": [ 105.9209412, 21.2757387 ] } },
{ "type": "Feature", "properties": { "id": 9025879859, "name": "Đối diện thôn Cẩm Hà", "index_right": 74, "district": "Xã Đa Phúc" }, "geometry": { "type": "Point", "coordinates": [ 105.9218779, 21.2839182 ] } },
{ "type": "Feature", "properties": { "id": 9025879860, "name": "Đối diện trường Mầm non thôn Hiệu Chân", "index_right": 74, "district": "Xã Đa Phúc" }, "geometry": { "type": "Point", "coordinates": [ 105.9205785, 21.2925798 ] } },
{ "type": "Feature", "properties": { "id": 9025879861, "name": "Xóm 10 thôn Ngô Đạo", "index_right": 74, "district": "Xã Đa Phúc" }, "geometry": { "type": "Point", "coordinates": [ 105.9153488, 21.2948794 ] } },
{ "type": "Feature", "properties": { "id": 9025879862, "name": "Nhà văn hoá thôn Ngô Đạo (chiều Xuân Giang)", "index_right": 74, "district": "Xã Đa Phúc" }, "geometry": { "type": "Point", "coordinates": [ 105.9097944, 21.2980387 ] } },
{ "type": "Feature", "properties": { "id": 9025879865, "name": "Đối diện làng Đồng Bông", "index_right": 74, "district": "Xã Đa Phúc" }, "geometry": { "type": "Point", "coordinates": [ 105.8955285, 21.2952865 ] } },
{ "type": "Feature", "properties": { "id": 9025879866, "name": "Nhà Văn Hoá Thôn Xuân Tàng", "index_right": 74, "district": "Xã Đa Phúc" }, "geometry": { "type": "Point", "coordinates": [ 105.8916144, 21.2858885 ] } },
{ "type": "Feature", "properties": { "id": 9025879867, "name": "UBND xã Bắc Phú", "index_right": 74, "district": "Xã Đa Phúc" }, "geometry": { "type": "Point", "coordinates": [ 105.8910747, 21.2760718 ] } },
{ "type": "Feature", "properties": { "id": 9025879868, "name": "Đối diện Km 2+250 -Tỉnh lộ 296", "index_right": 74, "district": "Xã Đa Phúc" }, "geometry": { "type": "Point", "coordinates": [ 105.8831673, 21.270084 ] } },
{ "type": "Feature", "properties": { "id": 9025879872, "name": "Đối diện cửa hàng điện lạnh Đức Nguyên", "index_right": 74, "district": "Xã Đa Phúc" }, "geometry": { "type": "Point", "coordinates": [ 105.885443, 21.2433991 ] } },
{ "type": "Feature", "properties": { "id": 9025879873, "name": "Trường THPT Xuân Giang", "index_right": 74, "district": "Xã Đa Phúc" }, "geometry": { "type": "Point", "coordinates": [ 105.8916935, 21.2427943 ] } },
{ "type": "Feature", "properties": { "id": 9025879874, "name": "Gần UBND Xã Xuân Giang", "index_right": 74, "district": "Xã Đa Phúc" }, "geometry": { "type": "Point", "coordinates": [ 105.8974599, 21.2431238 ] } },
{ "type": "Feature", "properties": { "id": 9025879875, "name": "Xóm Đồng May - Thôn Xuân Tảo (chiều về)", "index_right": 74, "district": "Xã Đa Phúc" }, "geometry": { "type": "Point", "coordinates": [ 105.9027671, 21.2426935 ] } },
{ "type": "Feature", "properties": { "id": 9025879876, "name": "Đình Làng Tiên Tảo", "index_right": 74, "district": "Xã Đa Phúc" }, "geometry": { "type": "Point", "coordinates": [ 105.9082014, 21.2442034 ] } },
{ "type": "Feature", "properties": { "id": 9025879877, "name": "Đối diện câu lạc bộ người cao tuổi thôn Tiên Tảo", "index_right": 74, "district": "Xã Đa Phúc" }, "geometry": { "type": "Point", "coordinates": [ 105.9124273, 21.2452821 ] } },
{ "type": "Feature", "properties": { "id": 9025879878, "name": "UBND Xã Việt Long", "index_right": 74, "district": "Xã Đa Phúc" }, "geometry": { "type": "Point", "coordinates": [ 105.9155905, 21.2466179 ] } },
{ "type": "Feature", "properties": { "id": 9025879879, "name": "Dốc Đa Thôn Lương Phúc", "index_right": 74, "district": "Xã Đa Phúc" }, "geometry": { "type": "Point", "coordinates": [ 105.9335076, 21.2474927 ] } },
{ "type": "Feature", "properties": { "id": 9025879880, "name": "Trạm Bơm Tăng Long", "index_right": 74, "district": "Xã Đa Phúc" }, "geometry": { "type": "Point", "coordinates": [ 105.9313679, 21.2550184 ] } },
{ "type": "Feature", "properties": { "id": 9025879881, "name": "Đình Làng Tăng Long", "index_right": 74, "district": "Xã Đa Phúc" }, "geometry": { "type": "Point", "coordinates": [ 105.9268115, 21.2610299 ] } },
{ "type": "Feature", "properties": { "id": 9025879882, "name": "Đối diện gần bến đò Đông Bắc", "index_right": 74, "district": "Xã Đa Phúc" }, "geometry": { "type": "Point", "coordinates": [ 105.920778, 21.2763606 ] } },
{ "type": "Feature", "properties": { "id": 9025879883, "name": "Thôn Cẩm Hà", "index_right": 74, "district": "Xã Đa Phúc" }, "geometry": { "type": "Point", "coordinates": [ 105.9218596, 21.2844649 ] } },
{ "type": "Feature", "properties": { "id": 9025879884, "name": "Trường Mầm Non Thôn Hiệu Chân", "index_right": 74, "district": "Xã Đa Phúc" }, "geometry": { "type": "Point", "coordinates": [ 105.920666, 21.2921553 ] } },
{ "type": "Feature", "properties": { "id": 9025879885, "name": "Xóm 10 thôn Ngô Đạo", "index_right": 74, "district": "Xã Đa Phúc" }, "geometry": { "type": "Point", "coordinates": [ 105.9149566, 21.2949282 ] } },
{ "type": "Feature", "properties": { "id": 9025879886, "name": "Nhà văn hoá thôn Ngô Đạo (chiều Bắc Phú)", "index_right": 74, "district": "Xã Đa Phúc" }, "geometry": { "type": "Point", "coordinates": [ 105.9095749, 21.298038 ] } },
{ "type": "Feature", "properties": { "id": 9025879889, "name": "Làng Đồng Bông", "index_right": 74, "district": "Xã Đa Phúc" }, "geometry": { "type": "Point", "coordinates": [ 105.8956208, 21.2952682 ] } },
{ "type": "Feature", "properties": { "id": 9025879890, "name": "Đối diện Nhà văn hoá thôn Xuân Tàng", "index_right": 74, "district": "Xã Đa Phúc" }, "geometry": { "type": "Point", "coordinates": [ 105.8917139, 21.2861332 ] } },
{ "type": "Feature", "properties": { "id": 9025879891, "name": "Đối diện UBND xã Bắc Phú", "index_right": 74, "district": "Xã Đa Phúc" }, "geometry": { "type": "Point", "coordinates": [ 105.8917395, 21.2764779 ] } },
{ "type": "Feature", "properties": { "id": 11129082332, "name": "Kim Lũ - Tuyến 160", "index_right": 74, "district": "Xã Đa Phúc" }, "geometry": { "type": "Point", "coordinates": [ 105.9145721, 21.2113301 ] } },
{ "type": "Feature", "properties": { "id": 11129082336, "name": "Đối diện Đền Thánh Tam Giang", "index_right": 74, "district": "Xã Đa Phúc" }, "geometry": { "type": "Point", "coordinates": [ 105.9108737, 21.2085755 ] } },
{ "type": "Feature", "properties": { "id": 11129082337, "name": "Đền Thánh Tam Giang", "index_right": 74, "district": "Xã Đa Phúc" }, "geometry": { "type": "Point", "coordinates": [ 105.9106297, 21.208558 ] } },
{ "type": "Feature", "properties": { "id": 11129082347, "name": "Kim Lũ Thượng 1", "index_right": 74, "district": "Xã Đa Phúc" }, "geometry": { "type": "Point", "coordinates": [ 105.9112867, 21.2039454 ] } },
{ "type": "Feature", "properties": { "id": 11129082348, "name": "Kim Lũ Thượng 2", "index_right": 74, "district": "Xã Đa Phúc" }, "geometry": { "type": "Point", "coordinates": [ 105.9116944, 21.2034002 ] } },
{ "type": "Feature", "properties": { "id": 11129082349, "name": "UBND xã Kim Lũ", "index_right": 74, "district": "Xã Đa Phúc" }, "geometry": { "type": "Point", "coordinates": [ 105.9063568, 21.2019449 ] } },
{ "type": "Feature", "properties": { "id": 11129082350, "name": "Gần UBND xã Kim Lũ", "index_right": 74, "district": "Xã Đa Phúc" }, "geometry": { "type": "Point", "coordinates": [ 105.9066599, 21.2018036 ] } },
{ "type": "Feature", "properties": { "id": 11129082352, "name": "Đối diện cây xăng đường 16 Thu Thủy", "index_right": 74, "district": "Xã Đa Phúc" }, "geometry": { "type": "Point", "coordinates": [ 105.9009751, 21.2037087 ] } },
{ "type": "Feature", "properties": { "id": 11129082353, "name": "Cây xăng đường 16 Thu Thuỷ", "index_right": 74, "district": "Xã Đa Phúc" }, "geometry": { "type": "Point", "coordinates": [ 105.9014284, 21.2035562 ] } },
{ "type": "Feature", "properties": { "id": 11129082355, "name": "Trường PTCS Kim Lũ", "index_right": 74, "district": "Xã Đa Phúc" }, "geometry": { "type": "Point", "coordinates": [ 105.8920272, 21.204989 ] } },
{ "type": "Feature", "properties": { "id": 11129082356, "name": "Đối diện trường THCS Kim Lũ", "index_right": 74, "district": "Xã Đa Phúc" }, "geometry": { "type": "Point", "coordinates": [ 105.8920782, 21.2048915 ] } },
{ "type": "Feature", "properties": { "id": 11129082357, "name": "Gần đối diện nhà văn hoá thôn Xuân Dương", "index_right": 74, "district": "Xã Đa Phúc" }, "geometry": { "type": "Point", "coordinates": [ 105.8870144, 21.2093734 ] } },
{ "type": "Feature", "properties": { "id": 11129082358, "name": "Nhà văn hoá thôn Xuân Dương", "index_right": 74, "district": "Xã Đa Phúc" }, "geometry": { "type": "Point", "coordinates": [ 105.8868248, 21.2093507 ] } }
]
}
