{
"type": "FeatureCollection",
"name": "Xã_Bát_Tràng",
"crs": { "type": "name", "properties": { "name": "urn:ogc:def:crs:OGC:1.3:CRS84" } },
"features": [
{ "type": "Feature", "properties": { "id": 738815686, "name": "Đối diện đường vào đồn cảnh sát Đa Tốn", "index_right": 29, "district": "Xã Bát Tràng" }, "geometry": { "type": "Point", "coordinates": [ 105.9194679, 20.9835896 ] } },
{ "type": "Feature", "properties": { "id": 738815686, "name": "Đối diện đường vào đồn cảnh sát Đa Tốn", "index_right": 30, "district": "Xã Bát Tràng" }, "geometry": { "type": "Point", "coordinates": [ 105.9194679, 20.9835896 ] } },
{ "type": "Feature", "properties": { "id": 8900275017, "name": "Đối diện điếm thôn Đông Dư Thượng - Cầu Thanh Trì", "index_right": 29, "district": "Xã Bát Tràng" }, "geometry": { "type": "Point", "coordinates": [ 105.9107365, 20.9998249 ] } },
{ "type": "Feature", "properties": { "id": 8900275017, "name": "Đối diện điếm thôn Đông Dư Thượng - Cầu Thanh Trì", "index_right": 30, "district": "Xã Bát Tràng" }, "geometry": { "type": "Point", "coordinates": [ 105.9107365, 20.9998249 ] } },
{ "type": "Feature", "properties": { "id": 8900275018, "name": "Đối diện điếm thôn Đông Dư Hạ", "index_right": 29, "district": "Xã Bát Tràng" }, "geometry": { "type": "Point", "coordinates": [ 105.9154534, 20.9927744 ] } },
{ "type": "Feature", "properties": { "id": 8900275018, "name": "Đối diện điếm thôn Đông Dư Hạ", "index_right": 30, "district": "Xã Bát Tràng" }, "geometry": { "type": "Point", "coordinates": [ 105.9154534, 20.9927744 ] } },
{ "type": "Feature", "properties": { "id": 8900275020, "name": "Điểm Đỗ Xe Bus Bát Tràng", "index_right": 29, "district": "Xã Bát Tràng" }, "geometry": { "type": "Point", "coordinates": [ 105.9127169, 20.9746657 ] } },
{ "type": "Feature", "properties": { "id": 8900275020, "name": "Điểm Đỗ Xe Bus Bát Tràng", "index_right": 30, "district": "Xã Bát Tràng" }, "geometry": { "type": "Point", "coordinates": [ 105.9127169, 20.9746657 ] } },
{ "type": "Feature", "properties": { "id": 8900275023, "name": "Đồn cảnh sát Đa Tốn", "index_right": 29, "district": "Xã Bát Tràng" }, "geometry": { "type": "Point", "coordinates": [ 105.9196042, 20.983739 ] } },
{ "type": "Feature", "properties": { "id": 8900275023, "name": "Đồn cảnh sát Đa Tốn", "index_right": 30, "district": "Xã Bát Tràng" }, "geometry": { "type": "Point", "coordinates": [ 105.9196042, 20.983739 ] } },
{ "type": "Feature", "properties": { "id": 8900275024, "name": "Điếm thôn Đông Dư Hạ", "index_right": 29, "district": "Xã Bát Tràng" }, "geometry": { "type": "Point", "coordinates": [ 105.9160653, 20.9927856 ] } },
{ "type": "Feature", "properties": { "id": 8900275024, "name": "Điếm thôn Đông Dư Hạ", "index_right": 30, "district": "Xã Bát Tràng" }, "geometry": { "type": "Point", "coordinates": [ 105.9160653, 20.9927856 ] } },
{ "type": "Feature", "properties": { "id": 8900275025, "name": "Điếm thôn Đông Dư Thượng - Cầu Thanh Trì", "index_right": 29, "district": "Xã Bát Tràng" }, "geometry": { "type": "Point", "coordinates": [ 105.9109916, 20.9995383 ] } },
{ "type": "Feature", "properties": { "id": 8900275025, "name": "Điếm thôn Đông Dư Thượng - Cầu Thanh Trì", "index_right": 30, "district": "Xã Bát Tràng" }, "geometry": { "type": "Point", "coordinates": [ 105.9109916, 20.9995383 ] } },
{ "type": "Feature", "properties": { "id": 8919736472, "name": "Trước cột điện KL29", "index_right": 29, "district": "Xã Bát Tràng" }, "geometry": { "type": "Point", "coordinates": [ 105.908896, 20.971857 ] } },
{ "type": "Feature", "properties": { "id": 8919736472, "name": "Trước cột điện KL29", "index_right": 30, "district": "Xã Bát Tràng" }, "geometry": { "type": "Point", "coordinates": [ 105.908896, 20.971857 ] } },
{ "type": "Feature", "properties": { "id": 8919736473, "name": "Trước đối diện cột điện KL29", "index_right": 29, "district": "Xã Bát Tràng" }, "geometry": { "type": "Point", "coordinates": [ 105.90925, 20.9716967 ] } },
{ "type": "Feature", "properties": { "id": 8919736473, "name": "Trước đối diện cột điện KL29", "index_right": 30, "district": "Xã Bát Tràng" }, "geometry": { "type": "Point", "coordinates": [ 105.90925, 20.9716967 ] } },
{ "type": "Feature", "properties": { "id": 8919736475, "name": "Trước đối diện Trạm bơm KL 10m", "index_right": 29, "district": "Xã Bát Tràng" }, "geometry": { "type": "Point", "coordinates": [ 105.9059737, 20.9661963 ] } },
{ "type": "Feature", "properties": { "id": 8919736475, "name": "Trước đối diện Trạm bơm KL 10m", "index_right": 30, "district": "Xã Bát Tràng" }, "geometry": { "type": "Point", "coordinates": [ 105.9059737, 20.9661963 ] } },
{ "type": "Feature", "properties": { "id": 8919736476, "name": "Qua trạm bơm Kim Lan 20m", "index_right": 29, "district": "Xã Bát Tràng" }, "geometry": { "type": "Point", "coordinates": [ 105.9063287, 20.9664538 ] } },
{ "type": "Feature", "properties": { "id": 8919736476, "name": "Qua trạm bơm Kim Lan 20m", "index_right": 30, "district": "Xã Bát Tràng" }, "geometry": { "type": "Point", "coordinates": [ 105.9063287, 20.9664538 ] } },
{ "type": "Feature", "properties": { "id": 8919736477, "name": "UBND xã Kim Lan", "index_right": 29, "district": "Xã Bát Tràng" }, "geometry": { "type": "Point", "coordinates": [ 105.904625, 20.9634022 ] } },
{ "type": "Feature", "properties": { "id": 8919736477, "name": "UBND xã Kim Lan", "index_right": 30, "district": "Xã Bát Tràng" }, "geometry": { "type": "Point", "coordinates": [ 105.904625, 20.9634022 ] } },
{ "type": "Feature", "properties": { "id": 8919736478, "name": "Đối diện UBND xã Kim Lan", "index_right": 29, "district": "Xã Bát Tràng" }, "geometry": { "type": "Point", "coordinates": [ 105.9048768, 20.963252 ] } },
{ "type": "Feature", "properties": { "id": 8919736478, "name": "Đối diện UBND xã Kim Lan", "index_right": 30, "district": "Xã Bát Tràng" }, "geometry": { "type": "Point", "coordinates": [ 105.9048768, 20.963252 ] } },
{ "type": "Feature", "properties": { "id": 8919736479, "name": "Trường THCS Kim Lan", "index_right": 29, "district": "Xã Bát Tràng" }, "geometry": { "type": "Point", "coordinates": [ 105.9042739, 20.959334 ] } },
{ "type": "Feature", "properties": { "id": 8919736479, "name": "Trường THCS Kim Lan", "index_right": 30, "district": "Xã Bát Tràng" }, "geometry": { "type": "Point", "coordinates": [ 105.9042739, 20.959334 ] } },
{ "type": "Feature", "properties": { "id": 8919736480, "name": "Trạm Y tế xã Kim Lan", "index_right": 29, "district": "Xã Bát Tràng" }, "geometry": { "type": "Point", "coordinates": [ 105.9045091, 20.9591007 ] } },
{ "type": "Feature", "properties": { "id": 8919736480, "name": "Trạm Y tế xã Kim Lan", "index_right": 30, "district": "Xã Bát Tràng" }, "geometry": { "type": "Point", "coordinates": [ 105.9045091, 20.9591007 ] } },
{ "type": "Feature", "properties": { "id": 8995345611, "name": "Qua vòng xuyến ngã tư Tỉnh lộ 379-QL1A khoảng 50m", "index_right": 29, "district": "Xã Bát Tràng" }, "geometry": { "type": "Point", "coordinates": [ 105.912267, 21.0034198 ] } },
{ "type": "Feature", "properties": { "id": 8995345611, "name": "Qua vòng xuyến ngã tư Tỉnh lộ 379-QL1A khoảng 50m", "index_right": 30, "district": "Xã Bát Tràng" }, "geometry": { "type": "Point", "coordinates": [ 105.912267, 21.0034198 ] } },
{ "type": "Feature", "properties": { "id": 8995345612, "name": "Qua ngã tư ĐT 379-Đường vào Khu đô thị Vinhomes khoảng 50m", "index_right": 29, "district": "Xã Bát Tràng" }, "geometry": { "type": "Point", "coordinates": [ 105.9215413, 20.9924066 ] } },
{ "type": "Feature", "properties": { "id": 8995345612, "name": "Qua ngã tư ĐT 379-Đường vào Khu đô thị Vinhomes khoảng 50m", "index_right": 30, "district": "Xã Bát Tràng" }, "geometry": { "type": "Point", "coordinates": [ 105.9215413, 20.9924066 ] } },
{ "type": "Feature", "properties": { "id": 8995345613, "name": "Trước Ngã tư Tỉnh lộ 379-Đường vào Khu đô thị Vinhomes khoảng 50m", "index_right": 29, "district": "Xã Bát Tràng" }, "geometry": { "type": "Point", "coordinates": [ 105.92124, 20.9922213 ] } },
{ "type": "Feature", "properties": { "id": 8995345613, "name": "Trước Ngã tư Tỉnh lộ 379-Đường vào Khu đô thị Vinhomes khoảng 50m", "index_right": 30, "district": "Xã Bát Tràng" }, "geometry": { "type": "Point", "coordinates": [ 105.92124, 20.9922213 ] } },
{ "type": "Feature", "properties": { "id": 8995345614, "name": "Sau Ngã tư Đa Tốn - Tỉnh lộ 379", "index_right": 29, "district": "Xã Bát Tràng" }, "geometry": { "type": "Point", "coordinates": [ 105.9250245, 20.9837216 ] } },
{ "type": "Feature", "properties": { "id": 8995345614, "name": "Sau Ngã tư Đa Tốn - Tỉnh lộ 379", "index_right": 30, "district": "Xã Bát Tràng" }, "geometry": { "type": "Point", "coordinates": [ 105.9250245, 20.9837216 ] } },
{ "type": "Feature", "properties": { "id": 8995358244, "name": "Trước Ngã tư Đa Tốn - Tỉnh lộ 379", "index_right": 29, "district": "Xã Bát Tràng" }, "geometry": { "type": "Point", "coordinates": [ 105.9254001, 20.9836192 ] } },
{ "type": "Feature", "properties": { "id": 8995358244, "name": "Trước Ngã tư Đa Tốn - Tỉnh lộ 379", "index_right": 30, "district": "Xã Bát Tràng" }, "geometry": { "type": "Point", "coordinates": [ 105.9254001, 20.9836192 ] } },
{ "type": "Feature", "properties": { "id": 8995358245, "name": "Trước Vòng xuyến ngã tư ĐT 379-QL1A khoảng 50m", "index_right": 29, "district": "Xã Bát Tràng" }, "geometry": { "type": "Point", "coordinates": [ 105.9132979, 21.0032046 ] } },
{ "type": "Feature", "properties": { "id": 8995358245, "name": "Trước Vòng xuyến ngã tư ĐT 379-QL1A khoảng 50m", "index_right": 30, "district": "Xã Bát Tràng" }, "geometry": { "type": "Point", "coordinates": [ 105.9132979, 21.0032046 ] } },
{ "type": "Feature", "properties": { "id": 12214161258, "name": "Gần ngã tư DT379 - Rừng Cọ", "index_right": 29, "district": "Xã Bát Tràng" }, "geometry": { "type": "Point", "coordinates": [ 105.9296329, 20.9729374 ] } },
{ "type": "Feature", "properties": { "id": 12214161258, "name": "Gần ngã tư DT379 - Rừng Cọ", "index_right": 30, "district": "Xã Bát Tràng" }, "geometry": { "type": "Point", "coordinates": [ 105.9296329, 20.9729374 ] } },
{ "type": "Feature", "properties": { "id": 12214161271, "name": "Gần ngã tư DT379 - Rừng Cọ", "index_right": 29, "district": "Xã Bát Tràng" }, "geometry": { "type": "Point", "coordinates": [ 105.9299248, 20.9730674 ] } },
{ "type": "Feature", "properties": { "id": 12214161271, "name": "Gần ngã tư DT379 - Rừng Cọ", "index_right": 30, "district": "Xã Bát Tràng" }, "geometry": { "type": "Point", "coordinates": [ 105.9299248, 20.9730674 ] } }
]
}
