{
"type": "FeatureCollection",
"name": "Xã_Đông_Anh",
"crs": { "type": "name", "properties": { "name": "urn:ogc:def:crs:OGC:1.3:CRS84" } },
"features": [
{ "type": "Feature", "properties": { "id": 6565959885, "name": "Qua đường vào Thành Cổ Loa 70m", "index_right": 32, "district": "Xã Đông Anh" }, "geometry": { "type": "Point", "coordinates": [ 105.8766209, 21.113635 ] } },
{ "type": "Feature", "properties": { "id": 7178750115, "name": "Đối diện Trung tâm lưu trú Lộc Hà - Quốc lộ 3", "index_right": 32, "district": "Xã Đông Anh" }, "geometry": { "type": "Point", "coordinates": [ 105.884299, 21.100669 ] } },
{ "type": "Feature", "properties": { "id": 7178803504, "name": "Đường vào khu di tích Cổ Loa - Km 5 Quốc lộ 3", "index_right": 32, "district": "Xã Đông Anh" }, "geometry": { "type": "Point", "coordinates": [ 105.8725093, 21.1027403 ] } },
{ "type": "Feature", "properties": { "id": 7178805765, "name": "Gần đường vào Khu di tích Cổ Loa 150m - Km 5+50 Quốc lộ 3", "index_right": 32, "district": "Xã Đông Anh" }, "geometry": { "type": "Point", "coordinates": [ 105.8719903, 21.1026389 ] } },
{ "type": "Feature", "properties": { "id": 7178812747, "name": "Cạnh ngõ vào Cty CP vật tư Mỏ Địa chất - Quốc lộ 3", "index_right": 32, "district": "Xã Đông Anh" }, "geometry": { "type": "Point", "coordinates": [ 105.9030638, 21.0878852 ] } },
{ "type": "Feature", "properties": { "id": 7178812821, "name": "Đối diện ngõ vào Cty CP vật tư Mỏ địa chất - Quốc lộ 3", "index_right": 32, "district": "Xã Đông Anh" }, "geometry": { "type": "Point", "coordinates": [ 105.9032295, 21.0874501 ] } },
{ "type": "Feature", "properties": { "id": 8933203623, "name": "Đối diện thôn Du Nội", "index_right": 32, "district": "Xã Đông Anh" }, "geometry": { "type": "Point", "coordinates": [ 105.8953094, 21.0874723 ] } },
{ "type": "Feature", "properties": { "id": 8933203624, "name": "Thôn Du Nội", "index_right": 32, "district": "Xã Đông Anh" }, "geometry": { "type": "Point", "coordinates": [ 105.8953783, 21.0876389 ] } },
{ "type": "Feature", "properties": { "id": 8933203625, "name": "Điếm canh đê số 18", "index_right": 32, "district": "Xã Đông Anh" }, "geometry": { "type": "Point", "coordinates": [ 105.8897026, 21.083739 ] } },
{ "type": "Feature", "properties": { "id": 8933203626, "name": "Đối diện điếm canh đê số 18", "index_right": 32, "district": "Xã Đông Anh" }, "geometry": { "type": "Point", "coordinates": [ 105.8898206, 21.0835379 ] } },
{ "type": "Feature", "properties": { "id": 8933203627, "name": "Điếm canh đê số 17", "index_right": 32, "district": "Xã Đông Anh" }, "geometry": { "type": "Point", "coordinates": [ 105.8844995, 21.0804634 ] } },
{ "type": "Feature", "properties": { "id": 8933203628, "name": "Đối diện điếm canh đê số 17", "index_right": 32, "district": "Xã Đông Anh" }, "geometry": { "type": "Point", "coordinates": [ 105.8839075, 21.0799541 ] } },
{ "type": "Feature", "properties": { "id": 8933203629, "name": "Điếm canh đê số 16", "index_right": 32, "district": "Xã Đông Anh" }, "geometry": { "type": "Point", "coordinates": [ 105.875902, 21.0739867 ] } },
{ "type": "Feature", "properties": { "id": 8933203630, "name": "Đối diện điếm canh đê số 16", "index_right": 32, "district": "Xã Đông Anh" }, "geometry": { "type": "Point", "coordinates": [ 105.8787697, 21.075216 ] } },
{ "type": "Feature", "properties": { "id": 8933203631, "name": "Điếm canh đê số 15", "index_right": 32, "district": "Xã Đông Anh" }, "geometry": { "type": "Point", "coordinates": [ 105.8704966, 21.0721301 ] } },
{ "type": "Feature", "properties": { "id": 8933203632, "name": "Đối diện điếm canh đê số 15", "index_right": 32, "district": "Xã Đông Anh" }, "geometry": { "type": "Point", "coordinates": [ 105.8701803, 21.0718604 ] } },
{ "type": "Feature", "properties": { "id": 8933203633, "name": "Điếm canh đê số 14", "index_right": 32, "district": "Xã Đông Anh" }, "geometry": { "type": "Point", "coordinates": [ 105.8616041, 21.0701017 ] } },
{ "type": "Feature", "properties": { "id": 8933203634, "name": "Đối diện điếm canh đê số 14", "index_right": 32, "district": "Xã Đông Anh" }, "geometry": { "type": "Point", "coordinates": [ 105.8613466, 21.0700167 ] } },
{ "type": "Feature", "properties": { "id": 8933203635, "name": "Điếm canh đê số 13", "index_right": 32, "district": "Xã Đông Anh" }, "geometry": { "type": "Point", "coordinates": [ 105.8490201, 21.0790434 ] } },
{ "type": "Feature", "properties": { "id": 8933203636, "name": "Đối diện điếm canh đê số 13", "index_right": 32, "district": "Xã Đông Anh" }, "geometry": { "type": "Point", "coordinates": [ 105.8490587, 21.0787459 ] } },
{ "type": "Feature", "properties": { "id": 8933203637, "name": "Điếm canh đê số 12", "index_right": 32, "district": "Xã Đông Anh" }, "geometry": { "type": "Point", "coordinates": [ 105.8452598, 21.0828413 ] } },
{ "type": "Feature", "properties": { "id": 8933203638, "name": "Đối diện điếm canh đê số 12", "index_right": 32, "district": "Xã Đông Anh" }, "geometry": { "type": "Point", "coordinates": [ 105.8453968, 21.0837202 ] } },
{ "type": "Feature", "properties": { "id": 8933203639, "name": "Đình Văn Tinh", "index_right": 32, "district": "Xã Đông Anh" }, "geometry": { "type": "Point", "coordinates": [ 105.8496718, 21.0895244 ] } },
{ "type": "Feature", "properties": { "id": 8933203640, "name": "Đối diện đình Văn Tinh", "index_right": 32, "district": "Xã Đông Anh" }, "geometry": { "type": "Point", "coordinates": [ 105.8494504, 21.0899817 ] } },
{ "type": "Feature", "properties": { "id": 8933203641, "name": "Điếm canh đê số 11", "index_right": 32, "district": "Xã Đông Anh" }, "geometry": { "type": "Point", "coordinates": [ 105.8492826, 21.097899 ] } },
{ "type": "Feature", "properties": { "id": 8933203642, "name": "Đối diện điếm canh đê số 11", "index_right": 32, "district": "Xã Đông Anh" }, "geometry": { "type": "Point", "coordinates": [ 105.8496211, 21.0974475 ] } },
{ "type": "Feature", "properties": { "id": 8997860535, "name": "Đối diện Công ty Đúc Mai Lâm - Quốc lộ 3", "index_right": 32, "district": "Xã Đông Anh" }, "geometry": { "type": "Point", "coordinates": [ 105.894457, 21.0928433 ] } },
{ "type": "Feature", "properties": { "id": 8997860536, "name": "Công ty đúc Mai Lâm - Quốc lộ 3", "index_right": 32, "district": "Xã Đông Anh" }, "geometry": { "type": "Point", "coordinates": [ 105.8939968, 21.0928642 ] } },
{ "type": "Feature", "properties": { "id": 8997860537, "name": "Đối diện ngã 3 Dục Tú, thôn Lộc Hà - Quốc lộ 3", "index_right": 32, "district": "Xã Đông Anh" }, "geometry": { "type": "Point", "coordinates": [ 105.8849858, 21.1003135 ] } },
{ "type": "Feature", "properties": { "id": 8997860538, "name": "Cây đa Bác Hồ - Km 5+800 Quốc lộ 3", "index_right": 32, "district": "Xã Đông Anh" }, "geometry": { "type": "Point", "coordinates": [ 105.8650642, 21.1029572 ] } },
{ "type": "Feature", "properties": { "id": 8997860539, "name": "Gần Cổng Làng Tiên Hội, cây đa Bác Hồ - Km 5 +700 Quốc lộ 3", "index_right": 32, "district": "Xã Đông Anh" }, "geometry": { "type": "Point", "coordinates": [ 105.8670873, 21.1027622 ] } },
{ "type": "Feature", "properties": { "id": 8997860540, "name": "Cạnh Công Ty Bê Tông Appha, Đông Hội - Km 6+600 Quốc lộ 3", "index_right": 32, "district": "Xã Đông Anh" }, "geometry": { "type": "Point", "coordinates": [ 105.8571764, 21.1042016 ] } },
{ "type": "Feature", "properties": { "id": 8997860541, "name": "Đối diện Công Ty Bê tông Appha - Đông Hội - Km 6+650 Quốc lộ 3", "index_right": 32, "district": "Xã Đông Anh" }, "geometry": { "type": "Point", "coordinates": [ 105.8574557, 21.1039702 ] } },
{ "type": "Feature", "properties": { "id": 8997860542, "name": "Cách cổng làng Văn Thượng 70m - QL3", "index_right": 32, "district": "Xã Đông Anh" }, "geometry": { "type": "Point", "coordinates": [ 105.8522574, 21.1061539 ] } },
{ "type": "Feature", "properties": { "id": 8997860543, "name": "Qua cổng làng Văn Thượng 50m - QL3", "index_right": 32, "district": "Xã Đông Anh" }, "geometry": { "type": "Point", "coordinates": [ 105.8526007, 21.1061135 ] } },
{ "type": "Feature", "properties": { "id": 8997860544, "name": "Thôn Vạn Lộc (Qua đối diện ngã 3 đường tránh QL5 200m)", "index_right": 32, "district": "Xã Đông Anh" }, "geometry": { "type": "Point", "coordinates": [ 105.8495118, 21.1097754 ] } },
{ "type": "Feature", "properties": { "id": 8997860545, "name": "Đối diện thôn Vạn Lộc (trước ngã 3 đường tránh QL5)", "index_right": 32, "district": "Xã Đông Anh" }, "geometry": { "type": "Point", "coordinates": [ 105.850103, 21.1087979 ] } },
{ "type": "Feature", "properties": { "id": 8997860546, "name": "Ngã 3 Vĩnh Ngọc - Km 9+230 Quốc lộ 3", "index_right": 32, "district": "Xã Đông Anh" }, "geometry": { "type": "Point", "coordinates": [ 105.8452543, 21.1205189 ] } },
{ "type": "Feature", "properties": { "id": 8997860547, "name": "Qua ngã 3 Vĩnh Ngọc - Km 9+335 Quốc lộ 3", "index_right": 32, "district": "Xã Đông Anh" }, "geometry": { "type": "Point", "coordinates": [ 105.8449269, 21.1210297 ] } },
{ "type": "Feature", "properties": { "id": 8997860548, "name": "Trước cổng công ty Minh Cường 50m - Km 10+900 Quốc lộ 3", "index_right": 32, "district": "Xã Đông Anh" }, "geometry": { "type": "Point", "coordinates": [ 105.8439497, 21.1272734 ] } },
{ "type": "Feature", "properties": { "id": 8997860549, "name": "Đối diện công ty Minh Cường - Km 10+960 Quốc lộ 3", "index_right": 32, "district": "Xã Đông Anh" }, "geometry": { "type": "Point", "coordinates": [ 105.8436528, 21.1277928 ] } },
{ "type": "Feature", "properties": { "id": 8997860550, "name": "Ngã 3 công viên Cầu Đôi 70m - Km11 Quốc lộ 3 (chiều Hà Nội - Đông Anh)", "index_right": 32, "district": "Xã Đông Anh" }, "geometry": { "type": "Point", "coordinates": [ 105.8437911, 21.1338187 ] } },
{ "type": "Feature", "properties": { "id": 8997860552, "name": "Đối diện Cty xây lắp Điện 4, Thị trấn Đông Anh - Km 11+100 Quốc lộ 3", "index_right": 32, "district": "Xã Đông Anh" }, "geometry": { "type": "Point", "coordinates": [ 105.8447013, 21.1396369 ] } },
{ "type": "Feature", "properties": { "id": 8997860554, "name": "Đối diện Bưu điện huyện Đông Anh", "index_right": 32, "district": "Xã Đông Anh" }, "geometry": { "type": "Point", "coordinates": [ 105.8468425, 21.1408712 ] } },
{ "type": "Feature", "properties": { "id": 8997860555, "name": "Bưu điện huyện Đông Anh", "index_right": 32, "district": "Xã Đông Anh" }, "geometry": { "type": "Point", "coordinates": [ 105.846772, 21.1410971 ] } },
{ "type": "Feature", "properties": { "id": 8997860556, "name": "Hè cạnh tường rào Bệnh viện Đa khoa Đông Anh", "index_right": 32, "district": "Xã Đông Anh" }, "geometry": { "type": "Point", "coordinates": [ 105.8528597, 21.1400334 ] } },
{ "type": "Feature", "properties": { "id": 8997860557, "name": "223 Cao Lỗ", "index_right": 32, "district": "Xã Đông Anh" }, "geometry": { "type": "Point", "coordinates": [ 105.8543995, 21.1394503 ] } },
{ "type": "Feature", "properties": { "id": 8997860558, "name": "184 Cao Lỗ", "index_right": 32, "district": "Xã Đông Anh" }, "geometry": { "type": "Point", "coordinates": [ 105.8590455, 21.1378897 ] } },
{ "type": "Feature", "properties": { "id": 8997860559, "name": "Số 361 Cao Lỗ", "index_right": 32, "district": "Xã Đông Anh" }, "geometry": { "type": "Point", "coordinates": [ 105.8590561, 21.1379874 ] } },
{ "type": "Feature", "properties": { "id": 8997860560, "name": "480 Cổ Loa", "index_right": 32, "district": "Xã Đông Anh" }, "geometry": { "type": "Point", "coordinates": [ 105.8609779, 21.137339 ] } },
{ "type": "Feature", "properties": { "id": 11246285575, "name": "37 Đản Dị - Trường Tiểu học Uy Nỗ", "index_right": 32, "district": "Xã Đông Anh" }, "geometry": { "type": "Point", "coordinates": [ 105.8561646, 21.1442084 ] } },
{ "type": "Feature", "properties": { "id": 11246285576, "name": "Đối diện 57 Đản Dị - Bệnh viện Đa khoa Đông Anh", "index_right": 32, "district": "Xã Đông Anh" }, "geometry": { "type": "Point", "coordinates": [ 105.853638, 21.1407602 ] } },
{ "type": "Feature", "properties": { "id": 11516291187, "name": "Nhà máy tấm lợp Đông Anh - Km 12+650 Quốc lộ 3", "index_right": 32, "district": "Xã Đông Anh" }, "geometry": { "type": "Point", "coordinates": [ 105.8459322, 21.1481056 ] } },
{ "type": "Feature", "properties": { "id": 11516291188, "name": "Nhà máy kết cấu thép kim khí Đông Anh - Km 13+300 Quốc lộ 3", "index_right": 32, "district": "Xã Đông Anh" }, "geometry": { "type": "Point", "coordinates": [ 105.846441, 21.154074 ] } },
{ "type": "Feature", "properties": { "id": 11524859517, "name": "Đầu làng Cổ Loa", "index_right": 32, "district": "Xã Đông Anh" }, "geometry": { "type": "Point", "coordinates": [ 105.8771423, 21.1086954 ] } },
{ "type": "Feature", "properties": { "id": 11524859518, "name": "Trước trường Tiểu học Cổ Loa 80m", "index_right": 32, "district": "Xã Đông Anh" }, "geometry": { "type": "Point", "coordinates": [ 105.8735096, 21.1195912 ] } },
{ "type": "Feature", "properties": { "id": 11524859519, "name": "Qua cổng vào Xóm Bãi 50m, đường Cổ Loa", "index_right": 32, "district": "Xã Đông Anh" }, "geometry": { "type": "Point", "coordinates": [ 105.8683525, 21.1264465 ] } },
{ "type": "Feature", "properties": { "id": 11524859520, "name": "Trước đối diện trụ sở Hội người mù Đông Anh 30m", "index_right": 32, "district": "Xã Đông Anh" }, "geometry": { "type": "Point", "coordinates": [ 105.8656237, 21.1300042 ] } },
{ "type": "Feature", "properties": { "id": 11524859521, "name": "Trước trụ sở Hội người mù Đông Anh 30m", "index_right": 32, "district": "Xã Đông Anh" }, "geometry": { "type": "Point", "coordinates": [ 105.865184, 21.1301361 ] } },
{ "type": "Feature", "properties": { "id": 11524859522, "name": "Qua cổng vào Xóm Bãi 50m, đường Cổ Loa", "index_right": 32, "district": "Xã Đông Anh" }, "geometry": { "type": "Point", "coordinates": [ 105.8684928, 21.1260768 ] } },
{ "type": "Feature", "properties": { "id": 11524859523, "name": "UBND xã Cổ Loa", "index_right": 32, "district": "Xã Đông Anh" }, "geometry": { "type": "Point", "coordinates": [ 105.8733527, 21.1199756 ] } },
{ "type": "Feature", "properties": { "id": 11524859524, "name": "Trước đường vào Thành Cổ Loa 120m", "index_right": 32, "district": "Xã Đông Anh" }, "geometry": { "type": "Point", "coordinates": [ 105.8765744, 21.1128609 ] } },
{ "type": "Feature", "properties": { "id": 11524859525, "name": "Đầu làng Cổ Loa", "index_right": 32, "district": "Xã Đông Anh" }, "geometry": { "type": "Point", "coordinates": [ 105.8770939, 21.1087717 ] } },
{ "type": "Feature", "properties": { "id": 11524859526, "name": "Qua ngã 3 Cổ Loa - QL3 60m", "index_right": 32, "district": "Xã Đông Anh" }, "geometry": { "type": "Point", "coordinates": [ 105.8745599, 21.103449 ] } },
{ "type": "Feature", "properties": { "id": 11524859527, "name": "Trước ngã 3 Cổ Loa - QL3 70m", "index_right": 32, "district": "Xã Đông Anh" }, "geometry": { "type": "Point", "coordinates": [ 105.8742407, 21.1033114 ] } },
{ "type": "Feature", "properties": { "id": 11524859528, "name": "Tiệm cơm Thu Giang - Đường 23A", "index_right": 32, "district": "Xã Đông Anh" }, "geometry": { "type": "Point", "coordinates": [ 105.8318916, 21.1248383 ] } },
{ "type": "Feature", "properties": { "id": 11531107951, "name": "Qua trường cấp 1, 2 Uy Nỗ 100m", "index_right": 32, "district": "Xã Đông Anh" }, "geometry": { "type": "Point", "coordinates": [ 105.8569935, 21.1451174 ] } },
{ "type": "Feature", "properties": { "id": 11531495086, "name": "Cách 100m ngã 3 Cao Lỗ - Việt Hùng", "index_right": 32, "district": "Xã Đông Anh" }, "geometry": { "type": "Point", "coordinates": [ 105.8669761, 21.1375538 ] } },
{ "type": "Feature", "properties": { "id": 11531495087, "name": "Số 54 Dục Nội - Việt Hùng", "index_right": 32, "district": "Xã Đông Anh" }, "geometry": { "type": "Point", "coordinates": [ 105.8685697, 21.1396001 ] } },
{ "type": "Feature", "properties": { "id": 11531495088, "name": "Số 328 Đường Việt Hùng - Trung Tâm Văn hóa thể thao Việt Hùng", "index_right": 32, "district": "Xã Đông Anh" }, "geometry": { "type": "Point", "coordinates": [ 105.8761911, 21.1401427 ] } },
{ "type": "Feature", "properties": { "id": 11533262484, "name": "Nghĩa trang liệt sĩ xã Việt Hùng", "index_right": 32, "district": "Xã Đông Anh" }, "geometry": { "type": "Point", "coordinates": [ 105.875509, 21.1404443 ] } },
{ "type": "Feature", "properties": { "id": 11533262485, "name": "99 Dục Nội - Việt Hùng", "index_right": 32, "district": "Xã Đông Anh" }, "geometry": { "type": "Point", "coordinates": [ 105.868739, 21.1405078 ] } },
{ "type": "Feature", "properties": { "id": 11533262486, "name": "Qua ngã 3 Việt Hùng - Cao Lỗ 100m", "index_right": 32, "district": "Xã Đông Anh" }, "geometry": { "type": "Point", "coordinates": [ 105.8677189, 21.1376415 ] } },
{ "type": "Feature", "properties": { "id": 11533516178, "name": "82 thôn Lý Nhân - Dục Tú", "index_right": 32, "district": "Xã Đông Anh" }, "geometry": { "type": "Point", "coordinates": [ 105.8856031, 21.1026999 ] } },
{ "type": "Feature", "properties": { "id": 11533516179, "name": "Qua cổng thôn Lý Nhân 100m", "index_right": 32, "district": "Xã Đông Anh" }, "geometry": { "type": "Point", "coordinates": [ 105.8864867, 21.107044 ] } },
{ "type": "Feature", "properties": { "id": 11533516180, "name": "278 khu H7 Dục Tú", "index_right": 32, "district": "Xã Đông Anh" }, "geometry": { "type": "Point", "coordinates": [ 105.8919797, 21.1119163 ] } },
{ "type": "Feature", "properties": { "id": 11533516181, "name": "Trước ngã 3 cổng vào thôn Phúc Hậu 200m", "index_right": 32, "district": "Xã Đông Anh" }, "geometry": { "type": "Point", "coordinates": [ 105.8906538, 21.1164417 ] } },
{ "type": "Feature", "properties": { "id": 11533516182, "name": "19 Lương Quán", "index_right": 32, "district": "Xã Đông Anh" }, "geometry": { "type": "Point", "coordinates": [ 105.8855518, 21.1223194 ] } },
{ "type": "Feature", "properties": { "id": 11533516183, "name": "Qua ngã 3 vào thôn Gia Lương 70m", "index_right": 32, "district": "Xã Đông Anh" }, "geometry": { "type": "Point", "coordinates": [ 105.8826547, 21.1257179 ] } },
{ "type": "Feature", "properties": { "id": 11533516184, "name": "Qua ngã 3 Dục Nội 70m", "index_right": 32, "district": "Xã Đông Anh" }, "geometry": { "type": "Point", "coordinates": [ 105.8732827, 21.1337883 ] } },
{ "type": "Feature", "properties": { "id": 11533625764, "name": "Bệnh Viện đa khoa Đông Anh", "index_right": 32, "district": "Xã Đông Anh" }, "geometry": { "type": "Point", "coordinates": [ 105.8539459, 21.1396087 ] } },
{ "type": "Feature", "properties": { "id": 11533625765, "name": "Đối diện số 91 Dục Nội", "index_right": 32, "district": "Xã Đông Anh" }, "geometry": { "type": "Point", "coordinates": [ 105.873355, 21.133622 ] } },
{ "type": "Feature", "properties": { "id": 11533625766, "name": "Qua 70m đối diện ngã 3 vào thôn Gia Lương", "index_right": 32, "district": "Xã Đông Anh" }, "geometry": { "type": "Point", "coordinates": [ 105.881697, 21.1261289 ] } },
{ "type": "Feature", "properties": { "id": 11533625767, "name": "Trước đường vào Đình Chùa làng Lương Quán", "index_right": 32, "district": "Xã Đông Anh" }, "geometry": { "type": "Point", "coordinates": [ 105.8851907, 21.1231325 ] } },
{ "type": "Feature", "properties": { "id": 11533625768, "name": "Đường vào trường Trung học cơ sở Dục Tú", "index_right": 32, "district": "Xã Đông Anh" }, "geometry": { "type": "Point", "coordinates": [ 105.8915575, 21.1154205 ] } },
{ "type": "Feature", "properties": { "id": 11533641669, "name": "Đối diện số 284 khu H7 - Dục Tú", "index_right": 32, "district": "Xã Đông Anh" }, "geometry": { "type": "Point", "coordinates": [ 105.8920699, 21.1121785 ] } },
{ "type": "Feature", "properties": { "id": 11533641670, "name": "Đối diện 186 thôn Lý Nhân - Dục Tú", "index_right": 32, "district": "Xã Đông Anh" }, "geometry": { "type": "Point", "coordinates": [ 105.8868466, 21.1075348 ] } },
{ "type": "Feature", "properties": { "id": 11533641671, "name": "39 thôn Lý Nhân - Dục Tú", "index_right": 32, "district": "Xã Đông Anh" }, "geometry": { "type": "Point", "coordinates": [ 105.8854875, 21.1023607 ] } },
{ "type": "Feature", "properties": { "id": 11554362834, "name": "Chung cư Eurowindow River Park", "index_right": 32, "district": "Xã Đông Anh" }, "geometry": { "type": "Point", "coordinates": [ 105.8734715, 21.0789882 ] } },
{ "type": "Feature", "properties": { "id": 11554362835, "name": "Đối diện chung cư Eurowindow River Park", "index_right": 32, "district": "Xã Đông Anh" }, "geometry": { "type": "Point", "coordinates": [ 105.8724053, 21.0800293 ] } },
{ "type": "Feature", "properties": { "id": 12206582484, "name": "Hồ sen Vĩnh Ngọc", "index_right": 32, "district": "Xã Đông Anh" }, "geometry": { "type": "Point", "coordinates": [ 105.8430634, 21.1220311 ] } },
{ "type": "Feature", "properties": { "id": 12206582485, "name": "Thị trấn Đông Anh", "index_right": 32, "district": "Xã Đông Anh" }, "geometry": { "type": "Point", "coordinates": [ 105.8618583, 21.1352589 ] } },
{ "type": "Feature", "properties": { "id": 12887824217, "name": "Vịnh xe buýt cạnh hầm chui HS10 (đi Đông Anh) - Trường Sa", "index_right": 32, "district": "Xã Đông Anh" }, "geometry": { "type": "Point", "coordinates": [ 105.8631744, 21.0921635 ] } },
{ "type": "Feature", "properties": { "id": 12887824218, "name": "Vịnh xe buýt cạnh hầm chui HS8 (đi Đông Anh) - Trường Sa", "index_right": 32, "district": "Xã Đông Anh" }, "geometry": { "type": "Point", "coordinates": [ 105.857735, 21.0980205 ] } },
{ "type": "Feature", "properties": { "id": 12887824221, "name": "Vịnh xe buýt cạnh hầm chui HS8 (đi Gia Lâm) - Trường Sa", "index_right": 32, "district": "Xã Đông Anh" }, "geometry": { "type": "Point", "coordinates": [ 105.857218, 21.0978072 ] } },
{ "type": "Feature", "properties": { "id": 12887824222, "name": "Vịnh xe buýt cạnh hầm chui HS10 (đi Gia Lâm) - Trường Sa", "index_right": 32, "district": "Xã Đông Anh" }, "geometry": { "type": "Point", "coordinates": [ 105.862402, 21.0921978 ] } }
]
}
