{
"type": "FeatureCollection",
"name": "Xã_An_Khánh",
"crs": { "type": "name", "properties": { "name": "urn:ogc:def:crs:OGC:1.3:CRS84" } },
"features": [
{ "type": "Feature", "properties": { "id": 8808913244, "name": "Khu đô thị Nam An Khánh", "index_right": 117, "district": "Xã An Khánh" }, "geometry": { "type": "Point", "coordinates": [ 105.7114697, 21.009561 ] } },
{ "type": "Feature", "properties": { "id": 8808913244, "name": "Khu đô thị Nam An Khánh", "index_right": 118, "district": "Xã An Khánh" }, "geometry": { "type": "Point", "coordinates": [ 105.7114697, 21.009561 ] } },
{ "type": "Feature", "properties": { "id": 8808913245, "name": "Cầu vượt An Khánh", "index_right": 117, "district": "Xã An Khánh" }, "geometry": { "type": "Point", "coordinates": [ 105.7187909, 21.0105745 ] } },
{ "type": "Feature", "properties": { "id": 8808913245, "name": "Cầu vượt An Khánh", "index_right": 118, "district": "Xã An Khánh" }, "geometry": { "type": "Point", "coordinates": [ 105.7187909, 21.0105745 ] } },
{ "type": "Feature", "properties": { "id": 8946656581, "name": "Trước 50m hầm chui dân sinh số 3", "index_right": 117, "district": "Xã An Khánh" }, "geometry": { "type": "Point", "coordinates": [ 105.7290774, 21.0100537 ] } },
{ "type": "Feature", "properties": { "id": 8946656581, "name": "Trước 50m hầm chui dân sinh số 3", "index_right": 118, "district": "Xã An Khánh" }, "geometry": { "type": "Point", "coordinates": [ 105.7290774, 21.0100537 ] } },
{ "type": "Feature", "properties": { "id": 9004787838, "name": "Qua đối diện Quỹ tín dụng nhân dân Dương Nội 80m", "index_right": 117, "district": "Xã An Khánh" }, "geometry": { "type": "Point", "coordinates": [ 105.7344838, 20.9930532 ] } },
{ "type": "Feature", "properties": { "id": 9004787838, "name": "Qua đối diện Quỹ tín dụng nhân dân Dương Nội 80m", "index_right": 118, "district": "Xã An Khánh" }, "geometry": { "type": "Point", "coordinates": [ 105.7344838, 20.9930532 ] } },
{ "type": "Feature", "properties": { "id": 9004787840, "name": "Số 484 Ngãi Cầu", "index_right": 117, "district": "Xã An Khánh" }, "geometry": { "type": "Point", "coordinates": [ 105.7264788, 20.9906068 ] } },
{ "type": "Feature", "properties": { "id": 9004787840, "name": "Số 484 Ngãi Cầu", "index_right": 118, "district": "Xã An Khánh" }, "geometry": { "type": "Point", "coordinates": [ 105.7264788, 20.9906068 ] } },
{ "type": "Feature", "properties": { "id": 9004787841, "name": "Đối diện 472 Ngãi Cầu", "index_right": 117, "district": "Xã An Khánh" }, "geometry": { "type": "Point", "coordinates": [ 105.7267683, 20.9905858 ] } },
{ "type": "Feature", "properties": { "id": 9004787841, "name": "Đối diện 472 Ngãi Cầu", "index_right": 118, "district": "Xã An Khánh" }, "geometry": { "type": "Point", "coordinates": [ 105.7267683, 20.9905858 ] } },
{ "type": "Feature", "properties": { "id": 9004787842, "name": "Qua đối diện Trung tâm Giáo dục nghề nghiệp - GDTX Hoài Đức 70m", "index_right": 117, "district": "Xã An Khánh" }, "geometry": { "type": "Point", "coordinates": [ 105.7231641, 20.989682 ] } },
{ "type": "Feature", "properties": { "id": 9004787842, "name": "Qua đối diện Trung tâm Giáo dục nghề nghiệp - GDTX Hoài Đức 70m", "index_right": 118, "district": "Xã An Khánh" }, "geometry": { "type": "Point", "coordinates": [ 105.7231641, 20.989682 ] } },
{ "type": "Feature", "properties": { "id": 9004787843, "name": "Trung tâm Giáo dục nghề nghiệp - GDTX Hoài Đức", "index_right": 117, "district": "Xã An Khánh" }, "geometry": { "type": "Point", "coordinates": [ 105.7226452, 20.9894015 ] } },
{ "type": "Feature", "properties": { "id": 9004787843, "name": "Trung tâm Giáo dục nghề nghiệp - GDTX Hoài Đức", "index_right": 118, "district": "Xã An Khánh" }, "geometry": { "type": "Point", "coordinates": [ 105.7226452, 20.9894015 ] } },
{ "type": "Feature", "properties": { "id": 9004787844, "name": "Trước Vàng bạc Thế Anh", "index_right": 117, "district": "Xã An Khánh" }, "geometry": { "type": "Point", "coordinates": [ 105.7105677, 20.9878038 ] } },
{ "type": "Feature", "properties": { "id": 9004787844, "name": "Trước Vàng bạc Thế Anh", "index_right": 118, "district": "Xã An Khánh" }, "geometry": { "type": "Point", "coordinates": [ 105.7105677, 20.9878038 ] } },
{ "type": "Feature", "properties": { "id": 9004787845, "name": "Trước Agribank Ngãi Cầu", "index_right": 117, "district": "Xã An Khánh" }, "geometry": { "type": "Point", "coordinates": [ 105.7102612, 20.9876447 ] } },
{ "type": "Feature", "properties": { "id": 9004787845, "name": "Trước Agribank Ngãi Cầu", "index_right": 118, "district": "Xã An Khánh" }, "geometry": { "type": "Point", "coordinates": [ 105.7102612, 20.9876447 ] } },
{ "type": "Feature", "properties": { "id": 9013469853, "name": "Phố Chợ - An Khánh", "index_right": 117, "district": "Xã An Khánh" }, "geometry": { "type": "Point", "coordinates": [ 105.7201829, 21.0089996 ] } },
{ "type": "Feature", "properties": { "id": 9013469853, "name": "Phố Chợ - An Khánh", "index_right": 118, "district": "Xã An Khánh" }, "geometry": { "type": "Point", "coordinates": [ 105.7201829, 21.0089996 ] } },
{ "type": "Feature", "properties": { "id": 9013469854, "name": "Xóm chùa Đình Vân Lũng", "index_right": 117, "district": "Xã An Khánh" }, "geometry": { "type": "Point", "coordinates": [ 105.7214023, 21.0041638 ] } },
{ "type": "Feature", "properties": { "id": 9013469854, "name": "Xóm chùa Đình Vân Lũng", "index_right": 118, "district": "Xã An Khánh" }, "geometry": { "type": "Point", "coordinates": [ 105.7214023, 21.0041638 ] } },
{ "type": "Feature", "properties": { "id": 9013469855, "name": "Trạm Xe Bus Cửa Hàng Điện Lạnh Thái Tuấn", "index_right": 117, "district": "Xã An Khánh" }, "geometry": { "type": "Point", "coordinates": [ 105.7210118, 21.0045925 ] } },
{ "type": "Feature", "properties": { "id": 9013469855, "name": "Trạm Xe Bus Cửa Hàng Điện Lạnh Thái Tuấn", "index_right": 118, "district": "Xã An Khánh" }, "geometry": { "type": "Point", "coordinates": [ 105.7210118, 21.0045925 ] } },
{ "type": "Feature", "properties": { "id": 9013469856, "name": "Đối diện tòa nhà 18T1 - Khu đô thị Sudico", "index_right": 117, "district": "Xã An Khánh" }, "geometry": { "type": "Point", "coordinates": [ 105.7279325, 21.0043516 ] } },
{ "type": "Feature", "properties": { "id": 9013469856, "name": "Đối diện tòa nhà 18T1 - Khu đô thị Sudico", "index_right": 118, "district": "Xã An Khánh" }, "geometry": { "type": "Point", "coordinates": [ 105.7279325, 21.0043516 ] } },
{ "type": "Feature", "properties": { "id": 9013469857, "name": "Tòa Nhà 18T1 - Khu Đô Thị Sudico", "index_right": 117, "district": "Xã An Khánh" }, "geometry": { "type": "Point", "coordinates": [ 105.7277148, 21.0045282 ] } },
{ "type": "Feature", "properties": { "id": 9013469857, "name": "Tòa Nhà 18T1 - Khu Đô Thị Sudico", "index_right": 118, "district": "Xã An Khánh" }, "geometry": { "type": "Point", "coordinates": [ 105.7277148, 21.0045282 ] } },
{ "type": "Feature", "properties": { "id": 9014725467, "name": "Gần ngã tư đường 72 cũ - Lê Trọng Tấn - Hà Đông", "index_right": 117, "district": "Xã An Khánh" }, "geometry": { "type": "Point", "coordinates": [ 105.7352049, 20.9947639 ] } },
{ "type": "Feature", "properties": { "id": 9014725467, "name": "Gần ngã tư đường 72 cũ - Lê Trọng Tấn - Hà Đông", "index_right": 118, "district": "Xã An Khánh" }, "geometry": { "type": "Point", "coordinates": [ 105.7352049, 20.9947639 ] } },
{ "type": "Feature", "properties": { "id": 9014725469, "name": "CV Thiên đường Bảo Sơn", "index_right": 117, "district": "Xã An Khánh" }, "geometry": { "type": "Point", "coordinates": [ 105.7335795, 20.9999804 ] } },
{ "type": "Feature", "properties": { "id": 9014725469, "name": "CV Thiên đường Bảo Sơn", "index_right": 118, "district": "Xã An Khánh" }, "geometry": { "type": "Point", "coordinates": [ 105.7335795, 20.9999804 ] } },
{ "type": "Feature", "properties": { "id": 9014725470, "name": "Chợ Phú An - Chân cầu vượt An Khánh", "index_right": 117, "district": "Xã An Khánh" }, "geometry": { "type": "Point", "coordinates": [ 105.7203114, 21.0076231 ] } },
{ "type": "Feature", "properties": { "id": 9014725470, "name": "Chợ Phú An - Chân cầu vượt An Khánh", "index_right": 118, "district": "Xã An Khánh" }, "geometry": { "type": "Point", "coordinates": [ 105.7203114, 21.0076231 ] } },
{ "type": "Feature", "properties": { "id": 10118163088, "name": "Doanh trại Quân đội nhân dân Việt Nam (Cổng số 3 KĐT Vinhomes Thăng Long)", "index_right": 117, "district": "Xã An Khánh" }, "geometry": { "type": "Point", "coordinates": [ 105.7245348, 20.99846 ] } },
{ "type": "Feature", "properties": { "id": 10118163088, "name": "Doanh trại Quân đội nhân dân Việt Nam (Cổng số 3 KĐT Vinhomes Thăng Long)", "index_right": 118, "district": "Xã An Khánh" }, "geometry": { "type": "Point", "coordinates": [ 105.7245348, 20.99846 ] } },
{ "type": "Feature", "properties": { "id": 10118163089, "name": "Cổng số 2 Vinhomes Thăng Long", "index_right": 117, "district": "Xã An Khánh" }, "geometry": { "type": "Point", "coordinates": [ 105.7213941, 20.9972766 ] } },
{ "type": "Feature", "properties": { "id": 10118163089, "name": "Cổng số 2 Vinhomes Thăng Long", "index_right": 118, "district": "Xã An Khánh" }, "geometry": { "type": "Point", "coordinates": [ 105.7213941, 20.9972766 ] } },
{ "type": "Feature", "properties": { "id": 10118163092, "name": "Đối diện Học viện Chính sách và Phát triển", "index_right": 117, "district": "Xã An Khánh" }, "geometry": { "type": "Point", "coordinates": [ 105.71064, 20.9938748 ] } },
{ "type": "Feature", "properties": { "id": 10118163092, "name": "Đối diện Học viện Chính sách và Phát triển", "index_right": 118, "district": "Xã An Khánh" }, "geometry": { "type": "Point", "coordinates": [ 105.71064, 20.9938748 ] } },
{ "type": "Feature", "properties": { "id": 10118163113, "name": "Học viện Chính sách và Phát triển", "index_right": 117, "district": "Xã An Khánh" }, "geometry": { "type": "Point", "coordinates": [ 105.7111735, 20.9933375 ] } },
{ "type": "Feature", "properties": { "id": 10118163113, "name": "Học viện Chính sách và Phát triển", "index_right": 118, "district": "Xã An Khánh" }, "geometry": { "type": "Point", "coordinates": [ 105.7111735, 20.9933375 ] } },
{ "type": "Feature", "properties": { "id": 10118488772, "name": "Học viện Chính sách và Phát triển", "index_right": 117, "district": "Xã An Khánh" }, "geometry": { "type": "Point", "coordinates": [ 105.7108091, 20.9936727 ] } },
{ "type": "Feature", "properties": { "id": 10118488772, "name": "Học viện Chính sách và Phát triển", "index_right": 118, "district": "Xã An Khánh" }, "geometry": { "type": "Point", "coordinates": [ 105.7108091, 20.9936727 ] } },
{ "type": "Feature", "properties": { "id": 10118488773, "name": "Đối diện cổng số 2 Vinhomes Thăng Long", "index_right": 117, "district": "Xã An Khánh" }, "geometry": { "type": "Point", "coordinates": [ 105.7216398, 20.997015 ] } },
{ "type": "Feature", "properties": { "id": 10118488773, "name": "Đối diện cổng số 2 Vinhomes Thăng Long", "index_right": 118, "district": "Xã An Khánh" }, "geometry": { "type": "Point", "coordinates": [ 105.7216398, 20.997015 ] } },
{ "type": "Feature", "properties": { "id": 10118488774, "name": "Doanh trại Quân đội nhân dân Việt Nam (đối diện cổng số 3 KĐT Vinhomes Thăng Long).", "index_right": 117, "district": "Xã An Khánh" }, "geometry": { "type": "Point", "coordinates": [ 105.7247323, 20.9980591 ] } },
{ "type": "Feature", "properties": { "id": 10118488774, "name": "Doanh trại Quân đội nhân dân Việt Nam (đối diện cổng số 3 KĐT Vinhomes Thăng Long).", "index_right": 118, "district": "Xã An Khánh" }, "geometry": { "type": "Point", "coordinates": [ 105.7247323, 20.9980591 ] } },
{ "type": "Feature", "properties": { "id": 11536515069, "name": "Thôn Yên Lũng", "index_right": 117, "district": "Xã An Khánh" }, "geometry": { "type": "Point", "coordinates": [ 105.7099095, 21.0087021 ] } },
{ "type": "Feature", "properties": { "id": 11536515069, "name": "Thôn Yên Lũng", "index_right": 118, "district": "Xã An Khánh" }, "geometry": { "type": "Point", "coordinates": [ 105.7099095, 21.0087021 ] } },
{ "type": "Feature", "properties": { "id": 11536515070, "name": "Sân Bóng Yên Lũng", "index_right": 117, "district": "Xã An Khánh" }, "geometry": { "type": "Point", "coordinates": [ 105.713572, 21.0057995 ] } },
{ "type": "Feature", "properties": { "id": 11536515070, "name": "Sân Bóng Yên Lũng", "index_right": 118, "district": "Xã An Khánh" }, "geometry": { "type": "Point", "coordinates": [ 105.713572, 21.0057995 ] } },
{ "type": "Feature", "properties": { "id": 11536515071, "name": "Gần cổng số 1-Vista Lago", "index_right": 117, "district": "Xã An Khánh" }, "geometry": { "type": "Point", "coordinates": [ 105.7146552, 21.0012599 ] } },
{ "type": "Feature", "properties": { "id": 11536515071, "name": "Gần cổng số 1-Vista Lago", "index_right": 118, "district": "Xã An Khánh" }, "geometry": { "type": "Point", "coordinates": [ 105.7146552, 21.0012599 ] } },
{ "type": "Feature", "properties": { "id": 12579123791, "name": "Đối diện Khu đô thị Geleximco A - Lê Trọng Tấn", "index_right": 117, "district": "Xã An Khánh" }, "geometry": { "type": "Point", "coordinates": [ 105.7322205, 21.0044936 ] } },
{ "type": "Feature", "properties": { "id": 12579123791, "name": "Đối diện Khu đô thị Geleximco A - Lê Trọng Tấn", "index_right": 118, "district": "Xã An Khánh" }, "geometry": { "type": "Point", "coordinates": [ 105.7322205, 21.0044936 ] } }
]
}
