{
"type": "FeatureCollection",
"name": "Xã_Phụng_Công",
"crs": { "type": "name", "properties": { "name": "urn:ogc:def:crs:OGC:1.3:CRS84" } },
"features": [
{ "type": "Feature", "properties": { "id": 8900275019, "name": "Trước ngã 3 Xuân Quan - Bát Tràng 30m (chiều đi Bát Tràng)", "index_right": 187, "district": "Xã Phụng Công" }, "geometry": { "type": "Point", "coordinates": [ 105.9196073, 20.9729539 ] } },
{ "type": "Feature", "properties": { "id": 8900275019, "name": "Trước ngã 3 Xuân Quan - Bát Tràng 30m (chiều đi Bát Tràng)", "index_right": 188, "district": "Xã Phụng Công" }, "geometry": { "type": "Point", "coordinates": [ 105.9196073, 20.9729539 ] } },
{ "type": "Feature", "properties": { "id": 8900275022, "name": "Qua ngã 3 Bát Tràng - Xuân Quan 30m (chiều đi Hà Nội)", "index_right": 187, "district": "Xã Phụng Công" }, "geometry": { "type": "Point", "coordinates": [ 105.9198429, 20.973179 ] } },
{ "type": "Feature", "properties": { "id": 8900275022, "name": "Qua ngã 3 Bát Tràng - Xuân Quan 30m (chiều đi Hà Nội)", "index_right": 188, "district": "Xã Phụng Công" }, "geometry": { "type": "Point", "coordinates": [ 105.9198429, 20.973179 ] } },
{ "type": "Feature", "properties": { "id": 8919736469, "name": "Trước đối diện cột điện BKD12", "index_right": 187, "district": "Xã Phụng Công" }, "geometry": { "type": "Point", "coordinates": [ 105.9176996, 20.9713601 ] } },
{ "type": "Feature", "properties": { "id": 8919736469, "name": "Trước đối diện cột điện BKD12", "index_right": 188, "district": "Xã Phụng Công" }, "geometry": { "type": "Point", "coordinates": [ 105.9176996, 20.9713601 ] } },
{ "type": "Feature", "properties": { "id": 8919736471, "name": "Trước cột điện BKD12", "index_right": 187, "district": "Xã Phụng Công" }, "geometry": { "type": "Point", "coordinates": [ 105.9165268, 20.9715218 ] } },
{ "type": "Feature", "properties": { "id": 8919736471, "name": "Trước cột điện BKD12", "index_right": 188, "district": "Xã Phụng Công" }, "geometry": { "type": "Point", "coordinates": [ 105.9165268, 20.9715218 ] } },
{ "type": "Feature", "properties": { "id": 8919736481, "name": "Điện lạnh Quý Thơm", "index_right": 187, "district": "Xã Phụng Công" }, "geometry": { "type": "Point", "coordinates": [ 105.9096683, 20.9553819 ] } },
{ "type": "Feature", "properties": { "id": 8919736481, "name": "Điện lạnh Quý Thơm", "index_right": 188, "district": "Xã Phụng Công" }, "geometry": { "type": "Point", "coordinates": [ 105.9096683, 20.9553819 ] } },
{ "type": "Feature", "properties": { "id": 8919736482, "name": "Đối diện nhà vườn Kiên Huế", "index_right": 187, "district": "Xã Phụng Công" }, "geometry": { "type": "Point", "coordinates": [ 105.9098145, 20.9555353 ] } },
{ "type": "Feature", "properties": { "id": 8919736482, "name": "Đối diện nhà vườn Kiên Huế", "index_right": 188, "district": "Xã Phụng Công" }, "geometry": { "type": "Point", "coordinates": [ 105.9098145, 20.9555353 ] } },
{ "type": "Feature", "properties": { "id": 8919736483, "name": "Đối diện Điếm canh đê Phụng Công", "index_right": 187, "district": "Xã Phụng Công" }, "geometry": { "type": "Point", "coordinates": [ 105.9193127, 20.9542337 ] } },
{ "type": "Feature", "properties": { "id": 8919736483, "name": "Đối diện Điếm canh đê Phụng Công", "index_right": 188, "district": "Xã Phụng Công" }, "geometry": { "type": "Point", "coordinates": [ 105.9193127, 20.9542337 ] } },
{ "type": "Feature", "properties": { "id": 8919736484, "name": "Qua điếm canh đê Phụng Công 50m", "index_right": 187, "district": "Xã Phụng Công" }, "geometry": { "type": "Point", "coordinates": [ 105.9197354, 20.9538834 ] } },
{ "type": "Feature", "properties": { "id": 8919736484, "name": "Qua điếm canh đê Phụng Công 50m", "index_right": 188, "district": "Xã Phụng Công" }, "geometry": { "type": "Point", "coordinates": [ 105.9197354, 20.9538834 ] } },
{ "type": "Feature", "properties": { "id": 8919736485, "name": "Đối diện nhà vườn Tuấn Tú thông đến xã Phụng Công", "index_right": 187, "district": "Xã Phụng Công" }, "geometry": { "type": "Point", "coordinates": [ 105.9237285, 20.9478817 ] } },
{ "type": "Feature", "properties": { "id": 8919736485, "name": "Đối diện nhà vườn Tuấn Tú thông đến xã Phụng Công", "index_right": 188, "district": "Xã Phụng Công" }, "geometry": { "type": "Point", "coordinates": [ 105.9237285, 20.9478817 ] } },
{ "type": "Feature", "properties": { "id": 8919736486, "name": "Trước Y học cổ truyền Đại hữu xã Phụng Công", "index_right": 187, "district": "Xã Phụng Công" }, "geometry": { "type": "Point", "coordinates": [ 105.9237779, 20.9481923 ] } },
{ "type": "Feature", "properties": { "id": 8919736486, "name": "Trước Y học cổ truyền Đại hữu xã Phụng Công", "index_right": 188, "district": "Xã Phụng Công" }, "geometry": { "type": "Point", "coordinates": [ 105.9237779, 20.9481923 ] } },
{ "type": "Feature", "properties": { "id": 8919736488, "name": "Phòng Giáo dục đào tạo huyện Văn Giang", "index_right": 187, "district": "Xã Phụng Công" }, "geometry": { "type": "Point", "coordinates": [ 105.9276232, 20.9467984 ] } },
{ "type": "Feature", "properties": { "id": 8919736488, "name": "Phòng Giáo dục đào tạo huyện Văn Giang", "index_right": 188, "district": "Xã Phụng Công" }, "geometry": { "type": "Point", "coordinates": [ 105.9276232, 20.9467984 ] } },
{ "type": "Feature", "properties": { "id": 8919736490, "name": "Đối diện Trường trung cấp Cảnh sát Nhân dân", "index_right": 187, "district": "Xã Phụng Công" }, "geometry": { "type": "Point", "coordinates": [ 105.9321325, 20.9459179 ] } },
{ "type": "Feature", "properties": { "id": 8919736490, "name": "Đối diện Trường trung cấp Cảnh sát Nhân dân", "index_right": 188, "district": "Xã Phụng Công" }, "geometry": { "type": "Point", "coordinates": [ 105.9321325, 20.9459179 ] } },
{ "type": "Feature", "properties": { "id": 8919736493, "name": "Đối diện Trạm y tế huyện Văn Giang", "index_right": 187, "district": "Xã Phụng Công" }, "geometry": { "type": "Point", "coordinates": [ 105.9449177, 20.9509887 ] } },
{ "type": "Feature", "properties": { "id": 8919736493, "name": "Đối diện Trạm y tế huyện Văn Giang", "index_right": 188, "district": "Xã Phụng Công" }, "geometry": { "type": "Point", "coordinates": [ 105.9449177, 20.9509887 ] } },
{ "type": "Feature", "properties": { "id": 8919736494, "name": "HĐND, UBND huyện Văn Giang", "index_right": 187, "district": "Xã Phụng Công" }, "geometry": { "type": "Point", "coordinates": [ 105.9442615, 20.9498024 ] } },
{ "type": "Feature", "properties": { "id": 8919736494, "name": "HĐND, UBND huyện Văn Giang", "index_right": 188, "district": "Xã Phụng Công" }, "geometry": { "type": "Point", "coordinates": [ 105.9442615, 20.9498024 ] } },
{ "type": "Feature", "properties": { "id": 8919736496, "name": "Trước đối diện đường vào Miếu Nghè 100m", "index_right": 187, "district": "Xã Phụng Công" }, "geometry": { "type": "Point", "coordinates": [ 105.9468039, 20.9542842 ] } },
{ "type": "Feature", "properties": { "id": 8919736496, "name": "Trước đối diện đường vào Miếu Nghè 100m", "index_right": 188, "district": "Xã Phụng Công" }, "geometry": { "type": "Point", "coordinates": [ 105.9468039, 20.9542842 ] } },
{ "type": "Feature", "properties": { "id": 8919736497, "name": "Đối diện qua trạm xăng dầu Cửu Cao", "index_right": 187, "district": "Xã Phụng Công" }, "geometry": { "type": "Point", "coordinates": [ 105.9511571, 20.9567125 ] } },
{ "type": "Feature", "properties": { "id": 8919736497, "name": "Đối diện qua trạm xăng dầu Cửu Cao", "index_right": 188, "district": "Xã Phụng Công" }, "geometry": { "type": "Point", "coordinates": [ 105.9511571, 20.9567125 ] } },
{ "type": "Feature", "properties": { "id": 8919736498, "name": "Gần trạm xăng dầu xã Cửu Cao", "index_right": 187, "district": "Xã Phụng Công" }, "geometry": { "type": "Point", "coordinates": [ 105.9513785, 20.9573166 ] } },
{ "type": "Feature", "properties": { "id": 8919736498, "name": "Gần trạm xăng dầu xã Cửu Cao", "index_right": 188, "district": "Xã Phụng Công" }, "geometry": { "type": "Point", "coordinates": [ 105.9513785, 20.9573166 ] } },
{ "type": "Feature", "properties": { "id": 8919736499, "name": "Đối diện cửa hàng thép Bách Việt", "index_right": 187, "district": "Xã Phụng Công" }, "geometry": { "type": "Point", "coordinates": [ 105.9548602, 20.9648832 ] } },
{ "type": "Feature", "properties": { "id": 8919736499, "name": "Đối diện cửa hàng thép Bách Việt", "index_right": 188, "district": "Xã Phụng Công" }, "geometry": { "type": "Point", "coordinates": [ 105.9548602, 20.9648832 ] } },
{ "type": "Feature", "properties": { "id": 8919736500, "name": "Trước Salon Đức Trung", "index_right": 187, "district": "Xã Phụng Công" }, "geometry": { "type": "Point", "coordinates": [ 105.9553666, 20.9666425 ] } },
{ "type": "Feature", "properties": { "id": 8919736500, "name": "Trước Salon Đức Trung", "index_right": 188, "district": "Xã Phụng Công" }, "geometry": { "type": "Point", "coordinates": [ 105.9553666, 20.9666425 ] } },
{ "type": "Feature", "properties": { "id": 11525014911, "name": "Đối diện nhà trẻ Vinakids", "index_right": 187, "district": "Xã Phụng Công" }, "geometry": { "type": "Point", "coordinates": [ 105.9216889, 20.9735865 ] } },
{ "type": "Feature", "properties": { "id": 11525014911, "name": "Đối diện nhà trẻ Vinakids", "index_right": 188, "district": "Xã Phụng Công" }, "geometry": { "type": "Point", "coordinates": [ 105.9216889, 20.9735865 ] } },
{ "type": "Feature", "properties": { "id": 11525014912, "name": "Đối diện A2 Rừng Cọ", "index_right": 187, "district": "Xã Phụng Công" }, "geometry": { "type": "Point", "coordinates": [ 105.9251185, 20.9733875 ] } },
{ "type": "Feature", "properties": { "id": 11525014912, "name": "Đối diện A2 Rừng Cọ", "index_right": 188, "district": "Xã Phụng Công" }, "geometry": { "type": "Point", "coordinates": [ 105.9251185, 20.9733875 ] } },
{ "type": "Feature", "properties": { "id": 11525014913, "name": "Vườn Tùng - Rừng Cọ", "index_right": 187, "district": "Xã Phụng Công" }, "geometry": { "type": "Point", "coordinates": [ 105.9273144, 20.9725246 ] } },
{ "type": "Feature", "properties": { "id": 11525014913, "name": "Vườn Tùng - Rừng Cọ", "index_right": 188, "district": "Xã Phụng Công" }, "geometry": { "type": "Point", "coordinates": [ 105.9273144, 20.9725246 ] } },
{ "type": "Feature", "properties": { "id": 11525014914, "name": "Vườn Mai - Rừng Thông", "index_right": 187, "district": "Xã Phụng Công" }, "geometry": { "type": "Point", "coordinates": [ 105.9322074, 20.9719782 ] } },
{ "type": "Feature", "properties": { "id": 11525014914, "name": "Vườn Mai - Rừng Thông", "index_right": 188, "district": "Xã Phụng Công" }, "geometry": { "type": "Point", "coordinates": [ 105.9322074, 20.9719782 ] } },
{ "type": "Feature", "properties": { "id": 11525014915, "name": "Siêu thị Citimart - Rừng Cọ", "index_right": 187, "district": "Xã Phụng Công" }, "geometry": { "type": "Point", "coordinates": [ 105.9279731, 20.9724668 ] } },
{ "type": "Feature", "properties": { "id": 11525014915, "name": "Siêu thị Citimart - Rừng Cọ", "index_right": 188, "district": "Xã Phụng Công" }, "geometry": { "type": "Point", "coordinates": [ 105.9279731, 20.9724668 ] } },
{ "type": "Feature", "properties": { "id": 11525014916, "name": "A2 Rừng Sọ", "index_right": 187, "district": "Xã Phụng Công" }, "geometry": { "type": "Point", "coordinates": [ 105.9254708, 20.9734962 ] } },
{ "type": "Feature", "properties": { "id": 11525014916, "name": "A2 Rừng Sọ", "index_right": 188, "district": "Xã Phụng Công" }, "geometry": { "type": "Point", "coordinates": [ 105.9254708, 20.9734962 ] } },
{ "type": "Feature", "properties": { "id": 12214161259, "name": "Đối diện bệnh viện KUSUMI - ĐH y khoa Tokyo", "index_right": 187, "district": "Xã Phụng Công" }, "geometry": { "type": "Point", "coordinates": [ 105.931387, 20.9626805 ] } },
{ "type": "Feature", "properties": { "id": 12214161259, "name": "Đối diện bệnh viện KUSUMI - ĐH y khoa Tokyo", "index_right": 188, "district": "Xã Phụng Công" }, "geometry": { "type": "Point", "coordinates": [ 105.931387, 20.9626805 ] } },
{ "type": "Feature", "properties": { "id": 12214161260, "name": "Sân golf đối diện nhà chờ bus Eco - Tòa Sky 2", "index_right": 187, "district": "Xã Phụng Công" }, "geometry": { "type": "Point", "coordinates": [ 105.9384213, 20.9537613 ] } },
{ "type": "Feature", "properties": { "id": 12214161260, "name": "Sân golf đối diện nhà chờ bus Eco - Tòa Sky 2", "index_right": 188, "district": "Xã Phụng Công" }, "geometry": { "type": "Point", "coordinates": [ 105.9384213, 20.9537613 ] } },
{ "type": "Feature", "properties": { "id": 12214161261, "name": "Nhà chờ bus Eco (Westbay A&B)", "index_right": 187, "district": "Xã Phụng Công" }, "geometry": { "type": "Point", "coordinates": [ 105.934042, 20.9501416 ] } },
{ "type": "Feature", "properties": { "id": 12214161261, "name": "Nhà chờ bus Eco (Westbay A&B)", "index_right": 188, "district": "Xã Phụng Công" }, "geometry": { "type": "Point", "coordinates": [ 105.934042, 20.9501416 ] } },
{ "type": "Feature", "properties": { "id": 12214161262, "name": "Nhà chờ bus Eco (Westbay C&D)", "index_right": 187, "district": "Xã Phụng Công" }, "geometry": { "type": "Point", "coordinates": [ 105.9342532, 20.9482228 ] } },
{ "type": "Feature", "properties": { "id": 12214161262, "name": "Nhà chờ bus Eco (Westbay C&D)", "index_right": 188, "district": "Xã Phụng Công" }, "geometry": { "type": "Point", "coordinates": [ 105.9342532, 20.9482228 ] } },
{ "type": "Feature", "properties": { "id": 12214161263, "name": "Nhà chờ bus Eco (cổng trường Edison)", "index_right": 187, "district": "Xã Phụng Công" }, "geometry": { "type": "Point", "coordinates": [ 105.9394101, 20.9482358 ] } },
{ "type": "Feature", "properties": { "id": 12214161263, "name": "Nhà chờ bus Eco (cổng trường Edison)", "index_right": 188, "district": "Xã Phụng Công" }, "geometry": { "type": "Point", "coordinates": [ 105.9394101, 20.9482358 ] } },
{ "type": "Feature", "properties": { "id": 12214161264, "name": "Nhà chờ bus Eco (sân bóng Edison)", "index_right": 187, "district": "Xã Phụng Công" }, "geometry": { "type": "Point", "coordinates": [ 105.9397683, 20.9507347 ] } },
{ "type": "Feature", "properties": { "id": 12214161264, "name": "Nhà chờ bus Eco (sân bóng Edison)", "index_right": 188, "district": "Xã Phụng Công" }, "geometry": { "type": "Point", "coordinates": [ 105.9397683, 20.9507347 ] } },
{ "type": "Feature", "properties": { "id": 12214161265, "name": "Đối diện sân bóng Edison", "index_right": 187, "district": "Xã Phụng Công" }, "geometry": { "type": "Point", "coordinates": [ 105.939606, 20.9508041 ] } },
{ "type": "Feature", "properties": { "id": 12214161265, "name": "Đối diện sân bóng Edison", "index_right": 188, "district": "Xã Phụng Công" }, "geometry": { "type": "Point", "coordinates": [ 105.939606, 20.9508041 ] } },
{ "type": "Feature", "properties": { "id": 12214161266, "name": "Nhà chờ bus Eco (cổng trường Edison)", "index_right": 187, "district": "Xã Phụng Công" }, "geometry": { "type": "Point", "coordinates": [ 105.9391864, 20.9481838 ] } },
{ "type": "Feature", "properties": { "id": 12214161266, "name": "Nhà chờ bus Eco (cổng trường Edison)", "index_right": 188, "district": "Xã Phụng Công" }, "geometry": { "type": "Point", "coordinates": [ 105.9391864, 20.9481838 ] } },
{ "type": "Feature", "properties": { "id": 12214161267, "name": "Đối diện nhà chờ bus Eco (Westbay C&D)", "index_right": 187, "district": "Xã Phụng Công" }, "geometry": { "type": "Point", "coordinates": [ 105.934478, 20.9482107 ] } },
{ "type": "Feature", "properties": { "id": 12214161267, "name": "Đối diện nhà chờ bus Eco (Westbay C&D)", "index_right": 188, "district": "Xã Phụng Công" }, "geometry": { "type": "Point", "coordinates": [ 105.934478, 20.9482107 ] } },
{ "type": "Feature", "properties": { "id": 12214161268, "name": "Đối diện nhà chờ bus Eco (Westbay A&B)", "index_right": 187, "district": "Xã Phụng Công" }, "geometry": { "type": "Point", "coordinates": [ 105.9342762, 20.9502328 ] } },
{ "type": "Feature", "properties": { "id": 12214161268, "name": "Đối diện nhà chờ bus Eco (Westbay A&B)", "index_right": 188, "district": "Xã Phụng Công" }, "geometry": { "type": "Point", "coordinates": [ 105.9342762, 20.9502328 ] } },
{ "type": "Feature", "properties": { "id": 12214161269, "name": "Đối diện sân golf nhà chờ bus Eco - Tòa Sky 2", "index_right": 187, "district": "Xã Phụng Công" }, "geometry": { "type": "Point", "coordinates": [ 105.9384782, 20.9533855 ] } },
{ "type": "Feature", "properties": { "id": 12214161269, "name": "Đối diện sân golf nhà chờ bus Eco - Tòa Sky 2", "index_right": 188, "district": "Xã Phụng Công" }, "geometry": { "type": "Point", "coordinates": [ 105.9384782, 20.9533855 ] } },
{ "type": "Feature", "properties": { "id": 12214161270, "name": "Cạnh bệnh viện KUSUMI - ĐH y khoa Tokyo", "index_right": 187, "district": "Xã Phụng Công" }, "geometry": { "type": "Point", "coordinates": [ 105.9317743, 20.9629388 ] } },
{ "type": "Feature", "properties": { "id": 12214161270, "name": "Cạnh bệnh viện KUSUMI - ĐH y khoa Tokyo", "index_right": 188, "district": "Xã Phụng Công" }, "geometry": { "type": "Point", "coordinates": [ 105.9317743, 20.9629388 ] } }
]
}
