{
"type": "FeatureCollection",
"name": "Xã_Phúc_Thịnh",
"crs": { "type": "name", "properties": { "name": "urn:ogc:def:crs:OGC:1.3:CRS84" } },
"features": [
{ "type": "Feature", "properties": { "id": 963363560, "name": "Đầm Vân Trì- Km 4+400 Cao tốc BTL-NB", "index_right": 36, "district": "Xã Phúc Thịnh" }, "geometry": { "type": "Point", "coordinates": [ 105.7788972, 21.151816 ] } },
{ "type": "Feature", "properties": { "id": 7294698185, "name": "Qua cầu vượt ngã 4 Nam Hồng 70m Cao tốc BTL-NB", "index_right": 36, "district": "Xã Phúc Thịnh" }, "geometry": { "type": "Point", "coordinates": [ 105.7791783, 21.1582192 ] } },
{ "type": "Feature", "properties": { "id": 8807115921, "name": "Vịnh xe buýt đường Hoàng Sa - Gần điểm mở đi đường 6 cây", "index_right": 36, "district": "Xã Phúc Thịnh" }, "geometry": { "type": "Point", "coordinates": [ 105.8201662, 21.1248547 ] } },
{ "type": "Feature", "properties": { "id": 8807115922, "name": "Vịnh xén hè cho xe buýt (số 3 chiều đi Bắc Thăng Long)", "index_right": 36, "district": "Xã Phúc Thịnh" }, "geometry": { "type": "Point", "coordinates": [ 105.8098437, 21.1249272 ] } },
{ "type": "Feature", "properties": { "id": 8831420046, "name": "Cầu Vân Trì- Km 4+560 Cao tốc BTL-NB", "index_right": 36, "district": "Xã Phúc Thịnh" }, "geometry": { "type": "Point", "coordinates": [ 105.7792893, 21.1530538 ] } },
{ "type": "Feature", "properties": { "id": 8831420047, "name": "Trước 70m cầu vượt Ngã tư Nam Hồng Cao tốc BTL-NB", "index_right": 36, "district": "Xã Phúc Thịnh" }, "geometry": { "type": "Point", "coordinates": [ 105.7794896, 21.1583269 ] } },
{ "type": "Feature", "properties": { "id": 8831420048, "name": "Công ty cơ khí Nam Hồng- Km 6+120 Cao tốc BTL-NB", "index_right": 36, "district": "Xã Phúc Thịnh" }, "geometry": { "type": "Point", "coordinates": [ 105.779782, 21.1652412 ] } },
{ "type": "Feature", "properties": { "id": 8831420064, "name": "Đối diện Công ty cơ khí Nam Hồng- Km 5+950 Cao tốc BTL-NB", "index_right": 36, "district": "Xã Phúc Thịnh" }, "geometry": { "type": "Point", "coordinates": [ 105.7795223, 21.166345 ] } },
{ "type": "Feature", "properties": { "id": 8997860551, "name": "Trước ngã 3 công viên Cầu Đôi 70m - Km11 Quốc lộ 3", "index_right": 36, "district": "Xã Phúc Thịnh" }, "geometry": { "type": "Point", "coordinates": [ 105.8436151, 21.1338839 ] } },
{ "type": "Feature", "properties": { "id": 8997860553, "name": "Đối diện Kho bạc nhà nước huyện Đông Anh, thị trấn Đông Anh - Km 11+840 Quốc lộ 3", "index_right": 36, "district": "Xã Phúc Thịnh" }, "geometry": { "type": "Point", "coordinates": [ 105.8445373, 21.1399548 ] } },
{ "type": "Feature", "properties": { "id": 9006708301, "name": "Chân cầu vượt Nam Hồng", "index_right": 36, "district": "Xã Phúc Thịnh" }, "geometry": { "type": "Point", "coordinates": [ 105.7837463, 21.1600227 ] } },
{ "type": "Feature", "properties": { "id": 9006708302, "name": "Trước cầu vượt ngã 4 Nam Hồng 200m", "index_right": 36, "district": "Xã Phúc Thịnh" }, "geometry": { "type": "Point", "coordinates": [ 105.7755698, 21.1579551 ] } },
{ "type": "Feature", "properties": { "id": 9006708303, "name": "Qua cầu vượt ngã 4 Nam Hồng 200m", "index_right": 36, "district": "Xã Phúc Thịnh" }, "geometry": { "type": "Point", "coordinates": [ 105.7755373, 21.1582142 ] } },
{ "type": "Feature", "properties": { "id": 11129082404, "name": "UBND xã Bắc Hồng", "index_right": 36, "district": "Xã Phúc Thịnh" }, "geometry": { "type": "Point", "coordinates": [ 105.8062692, 21.1789161 ] } },
{ "type": "Feature", "properties": { "id": 11129082505, "name": "UBND xã Bắc Hồng (trước số nhà 17)", "index_right": 36, "district": "Xã Phúc Thịnh" }, "geometry": { "type": "Point", "coordinates": [ 105.8061432, 21.1794163 ] } },
{ "type": "Feature", "properties": { "id": 11129082506, "name": "Giữa số nhà 15-17 đường Bắc Hồng", "index_right": 36, "district": "Xã Phúc Thịnh" }, "geometry": { "type": "Point", "coordinates": [ 105.8064114, 21.1732551 ] } },
{ "type": "Feature", "properties": { "id": 11129082507, "name": "Cạnh số nhà 38 đường Bắc Hồng", "index_right": 36, "district": "Xã Phúc Thịnh" }, "geometry": { "type": "Point", "coordinates": [ 105.8065348, 21.1727624 ] } },
{ "type": "Feature", "properties": { "id": 11129082508, "name": "UBND xã Vân Nội", "index_right": 36, "district": "Xã Phúc Thịnh" }, "geometry": { "type": "Point", "coordinates": [ 105.8160714, 21.1525976 ] } },
{ "type": "Feature", "properties": { "id": 11129082509, "name": "Trạm Y tế xã Vân Nội", "index_right": 36, "district": "Xã Phúc Thịnh" }, "geometry": { "type": "Point", "coordinates": [ 105.8158703, 21.1521723 ] } },
{ "type": "Feature", "properties": { "id": 11129082510, "name": "Doanh trại QĐND - thôn Viên Nội", "index_right": 36, "district": "Xã Phúc Thịnh" }, "geometry": { "type": "Point", "coordinates": [ 105.8147223, 21.1441278 ] } },
{ "type": "Feature", "properties": { "id": 11129082511, "name": "Đối diện doanh trại QĐND - thôn Viên Nội", "index_right": 36, "district": "Xã Phúc Thịnh" }, "geometry": { "type": "Point", "coordinates": [ 105.8146821, 21.1444505 ] } },
{ "type": "Feature", "properties": { "id": 11516291189, "name": "Qua đường vào Cty CP chế tạo thiết bị điện Đông Anh 50m - Quốc lộ 3", "index_right": 36, "district": "Xã Phúc Thịnh" }, "geometry": { "type": "Point", "coordinates": [ 105.8466573, 21.1641365 ] } },
{ "type": "Feature", "properties": { "id": 11516291190, "name": "Công ty Chế tạo máy điện Việt Hung - Km 15+240 Quốc lộ 3", "index_right": 36, "district": "Xã Phúc Thịnh" }, "geometry": { "type": "Point", "coordinates": [ 105.8468758, 21.171026 ] } },
{ "type": "Feature", "properties": { "id": 11516291191, "name": "Đường vào Trại gà Nguyên Khê - Km 16+000 Quốc lộ 3", "index_right": 36, "district": "Xã Phúc Thịnh" }, "geometry": { "type": "Point", "coordinates": [ 105.8470195, 21.1767956 ] } },
{ "type": "Feature", "properties": { "id": 11516291192, "name": "Gần cầu Phù Lỗ – Km 16+900 Quốc lộ 3", "index_right": 36, "district": "Xã Phúc Thịnh" }, "geometry": { "type": "Point", "coordinates": [ 105.8483766, 21.1877843 ] } },
{ "type": "Feature", "properties": { "id": 11518476660, "name": "Qua cầu Phủ Lỗ - Km 16+890 Quốc lộ 3", "index_right": 36, "district": "Xã Phúc Thịnh" }, "geometry": { "type": "Point", "coordinates": [ 105.8476837, 21.1864278 ] } },
{ "type": "Feature", "properties": { "id": 11518476661, "name": "Đối diện Đường vào Trại gà Nguyên Khê - Km 15+750 Quốc lộ 3", "index_right": 36, "district": "Xã Phúc Thịnh" }, "geometry": { "type": "Point", "coordinates": [ 105.8468508, 21.1769568 ] } },
{ "type": "Feature", "properties": { "id": 11518476662, "name": "Trước số nhà 25 Phố Nguyên Khê - Xã Nguyên Khê", "index_right": 36, "district": "Xã Phúc Thịnh" }, "geometry": { "type": "Point", "coordinates": [ 105.8467063, 21.1707428 ] } },
{ "type": "Feature", "properties": { "id": 11518476663, "name": "Đối diện qua đường vào Công ty CP chế tạo thiết bị điện 45m - Km 14+300 Quốc lộ 3", "index_right": 36, "district": "Xã Phúc Thịnh" }, "geometry": { "type": "Point", "coordinates": [ 105.8464582, 21.1630003 ] } },
{ "type": "Feature", "properties": { "id": 11518476664, "name": "Đối diện Nhà máy kết cấu Thép kim khí Đông Anh - Km 13+400 Quốc lộ 3", "index_right": 36, "district": "Xã Phúc Thịnh" }, "geometry": { "type": "Point", "coordinates": [ 105.8463222, 21.1545742 ] } },
{ "type": "Feature", "properties": { "id": 11518476665, "name": "Đối diện Nhà máy tấm lợp Đông Anh- Km 12+700 Quốc lộ 3", "index_right": 36, "district": "Xã Phúc Thịnh" }, "geometry": { "type": "Point", "coordinates": [ 105.8458047, 21.1485654 ] } },
{ "type": "Feature", "properties": { "id": 11527469413, "name": "Công ty TNHH Bảo Yến", "index_right": 36, "district": "Xã Phúc Thịnh" }, "geometry": { "type": "Point", "coordinates": [ 105.7866384, 21.1614778 ] } },
{ "type": "Feature", "properties": { "id": 11527469414, "name": "Số nhà 40 - 42 (Đường 23B)", "index_right": 36, "district": "Xã Phúc Thịnh" }, "geometry": { "type": "Point", "coordinates": [ 105.7932353, 21.1608127 ] } },
{ "type": "Feature", "properties": { "id": 11527469415, "name": "Đối diện bãi xe Bắc Hà", "index_right": 36, "district": "Xã Phúc Thịnh" }, "geometry": { "type": "Point", "coordinates": [ 105.8033746, 21.157229 ] } },
{ "type": "Feature", "properties": { "id": 11527469416, "name": "Đối diện lối vào Làng văn hóa Thôn Nhì", "index_right": 36, "district": "Xã Phúc Thịnh" }, "geometry": { "type": "Point", "coordinates": [ 105.8086959, 21.1549767 ] } },
{ "type": "Feature", "properties": { "id": 11527469417, "name": "Đối diện Bưu điện Vân Trì", "index_right": 36, "district": "Xã Phúc Thịnh" }, "geometry": { "type": "Point", "coordinates": [ 105.8138067, 21.1542142 ] } },
{ "type": "Feature", "properties": { "id": 11527469418, "name": "Đối diện trường phổ thông liên cấp Archimedes", "index_right": 36, "district": "Xã Phúc Thịnh" }, "geometry": { "type": "Point", "coordinates": [ 105.8263286, 21.1525063 ] } },
{ "type": "Feature", "properties": { "id": 11527469419, "name": "Qua đối diện ngã 3 Thôn Cổ Dương", "index_right": 36, "district": "Xã Phúc Thịnh" }, "geometry": { "type": "Point", "coordinates": [ 105.8287871, 21.1522338 ] } },
{ "type": "Feature", "properties": { "id": 11527469420, "name": "Trụ sở công ty TNHH MTV Xổ số kiến thiết Thủ đô", "index_right": 36, "district": "Xã Phúc Thịnh" }, "geometry": { "type": "Point", "coordinates": [ 105.8320801, 21.1517287 ] } },
{ "type": "Feature", "properties": { "id": 11527469421, "name": "Gần đường vào UBND xã Tiên Dương", "index_right": 36, "district": "Xã Phúc Thịnh" }, "geometry": { "type": "Point", "coordinates": [ 105.8355655, 21.1502279 ] } },
{ "type": "Feature", "properties": { "id": 11527469422, "name": "Đối diện Tòa án Nhân dân Huyện Đông Anh", "index_right": 36, "district": "Xã Phúc Thịnh" }, "geometry": { "type": "Point", "coordinates": [ 105.839048, 21.1466091 ] } },
{ "type": "Feature", "properties": { "id": 11527469423, "name": "Ngã tư Quốc lộ 23B", "index_right": 36, "district": "Xã Phúc Thịnh" }, "geometry": { "type": "Point", "coordinates": [ 105.8428571, 21.1426618 ] } },
{ "type": "Feature", "properties": { "id": 11527469424, "name": "Qua ngã tư Quốc lộ 23B", "index_right": 36, "district": "Xã Phúc Thịnh" }, "geometry": { "type": "Point", "coordinates": [ 105.8428286, 21.1428571 ] } },
{ "type": "Feature", "properties": { "id": 11527469425, "name": "Tòa án nhân dân huyện Đông Anh", "index_right": 36, "district": "Xã Phúc Thịnh" }, "geometry": { "type": "Point", "coordinates": [ 105.8387287, 21.1471366 ] } },
{ "type": "Feature", "properties": { "id": 11527469426, "name": "Đối diện đường vào xã Tiên Dương", "index_right": 36, "district": "Xã Phúc Thịnh" }, "geometry": { "type": "Point", "coordinates": [ 105.835815, 21.1501186 ] } },
{ "type": "Feature", "properties": { "id": 11527469427, "name": "Đối diện trụ sở Công ty TNHH MTV Xổ số kiến thiết Thủ đô", "index_right": 36, "district": "Xã Phúc Thịnh" }, "geometry": { "type": "Point", "coordinates": [ 105.8318827, 21.1518739 ] } },
{ "type": "Feature", "properties": { "id": 11527469428, "name": "Trước ngã ba thôn Cổ Dương", "index_right": 36, "district": "Xã Phúc Thịnh" }, "geometry": { "type": "Point", "coordinates": [ 105.8288413, 21.1523735 ] } },
{ "type": "Feature", "properties": { "id": 11527469429, "name": "Trường phổ thông liên cấp Archimedes", "index_right": 36, "district": "Xã Phúc Thịnh" }, "geometry": { "type": "Point", "coordinates": [ 105.827165, 21.1526268 ] } },
{ "type": "Feature", "properties": { "id": 11527469430, "name": "Bưu điện Vân Trì", "index_right": 36, "district": "Xã Phúc Thịnh" }, "geometry": { "type": "Point", "coordinates": [ 105.8145981, 21.1542558 ] } },
{ "type": "Feature", "properties": { "id": 11527469431, "name": "Lối vào làng văn hóa Thôn Nhì", "index_right": 36, "district": "Xã Phúc Thịnh" }, "geometry": { "type": "Point", "coordinates": [ 105.8091372, 21.1550879 ] } },
{ "type": "Feature", "properties": { "id": 11527469432, "name": "Bãi xe Bắc Hà", "index_right": 36, "district": "Xã Phúc Thịnh" }, "geometry": { "type": "Point", "coordinates": [ 105.8035919, 21.1573446 ] } },
{ "type": "Feature", "properties": { "id": 11527469433, "name": "Số nhà 45 - 47 (Đường 23B)", "index_right": 36, "district": "Xã Phúc Thịnh" }, "geometry": { "type": "Point", "coordinates": [ 105.7933152, 21.1608871 ] } },
{ "type": "Feature", "properties": { "id": 11527469434, "name": "Đối diện Công ty TNHH Bảo Yến", "index_right": 36, "district": "Xã Phúc Thịnh" }, "geometry": { "type": "Point", "coordinates": [ 105.7869023, 21.1616908 ] } },
{ "type": "Feature", "properties": { "id": 11531495085, "name": "Đối diện nhà hàng Thành Vĩnh", "index_right": 36, "district": "Xã Phúc Thịnh" }, "geometry": { "type": "Point", "coordinates": [ 105.8003427, 21.1584867 ] } },
{ "type": "Feature", "properties": { "id": 11533262487, "name": "Nhà hàng Thành Vĩnh", "index_right": 36, "district": "Xã Phúc Thịnh" }, "geometry": { "type": "Point", "coordinates": [ 105.8004653, 21.1585554 ] } },
{ "type": "Feature", "properties": { "id": 11539698714, "name": "Xóm trại Thôn Viên Nội", "index_right": 36, "district": "Xã Phúc Thịnh" }, "geometry": { "type": "Point", "coordinates": [ 105.8151315, 21.1353746 ] } },
{ "type": "Feature", "properties": { "id": 11539698715, "name": "Đình Viên Nội", "index_right": 36, "district": "Xã Phúc Thịnh" }, "geometry": { "type": "Point", "coordinates": [ 105.8139297, 21.138674 ] } },
{ "type": "Feature", "properties": { "id": 11539698716, "name": "Trường THCS Nam Hồng", "index_right": 36, "district": "Xã Phúc Thịnh" }, "geometry": { "type": "Point", "coordinates": [ 105.7847544, 21.1652222 ] } },
{ "type": "Feature", "properties": { "id": 11539698717, "name": "Đối diện số 57 thôn Vệ xã Nam Hồng", "index_right": 36, "district": "Xã Phúc Thịnh" }, "geometry": { "type": "Point", "coordinates": [ 105.7876304, 21.1682916 ] } },
{ "type": "Feature", "properties": { "id": 11539698718, "name": "Đối diện số 89 thôn Tằng My xã Nam Hồng", "index_right": 36, "district": "Xã Phúc Thịnh" }, "geometry": { "type": "Point", "coordinates": [ 105.7941088, 21.1672924 ] } },
{ "type": "Feature", "properties": { "id": 11539698719, "name": "Số 12 Thôn Thượng Phúc xã Bắc Hồng", "index_right": 36, "district": "Xã Phúc Thịnh" }, "geometry": { "type": "Point", "coordinates": [ 105.8034708, 21.168757 ] } },
{ "type": "Feature", "properties": { "id": 11539698720, "name": "Trường THCS Bắc Hồng", "index_right": 36, "district": "Xã Phúc Thịnh" }, "geometry": { "type": "Point", "coordinates": [ 105.8089872, 21.1797754 ] } },
{ "type": "Feature", "properties": { "id": 11539698721, "name": "Đối diện số nhà 97 Thôn Bến Trung xã Bắc Hồng", "index_right": 36, "district": "Xã Phúc Thịnh" }, "geometry": { "type": "Point", "coordinates": [ 105.8126707, 21.179015 ] } },
{ "type": "Feature", "properties": { "id": 11539698722, "name": "Đối diện số nhà 110 - Thôn Sơn Du xã Nguyên Khê", "index_right": 36, "district": "Xã Phúc Thịnh" }, "geometry": { "type": "Point", "coordinates": [ 105.8203605, 21.177858 ] } },
{ "type": "Feature", "properties": { "id": 11539698723, "name": "Thôn Khê Nữ xã Nguyên Khê", "index_right": 36, "district": "Xã Phúc Thịnh" }, "geometry": { "type": "Point", "coordinates": [ 105.829755, 21.1772154 ] } },
{ "type": "Feature", "properties": { "id": 11539698724, "name": "Trường THCS Nguyên Khê", "index_right": 36, "district": "Xã Phúc Thịnh" }, "geometry": { "type": "Point", "coordinates": [ 105.8406612, 21.1772646 ] } },
{ "type": "Feature", "properties": { "id": 11539698728, "name": "Đối diện trường THCS Nguyên Khê", "index_right": 36, "district": "Xã Phúc Thịnh" }, "geometry": { "type": "Point", "coordinates": [ 105.8405276, 21.177513 ] } },
{ "type": "Feature", "properties": { "id": 11539698729, "name": "Thôn Khê Nữ xã Nguyên Khê", "index_right": 36, "district": "Xã Phúc Thịnh" }, "geometry": { "type": "Point", "coordinates": [ 105.829657, 21.1772938 ] } },
{ "type": "Feature", "properties": { "id": 11539698730, "name": "Số nhà 112 - Thôn Sơn Du xã Nguyên Khê", "index_right": 36, "district": "Xã Phúc Thịnh" }, "geometry": { "type": "Point", "coordinates": [ 105.8204312, 21.1781004 ] } },
{ "type": "Feature", "properties": { "id": 11539698731, "name": "Số nhà 97 Thôn Bến Trung xã Bắc Hồng", "index_right": 36, "district": "Xã Phúc Thịnh" }, "geometry": { "type": "Point", "coordinates": [ 105.8126737, 21.1791194 ] } },
{ "type": "Feature", "properties": { "id": 11539698732, "name": "Qua trường THCS Bắc Hồng 20m", "index_right": 36, "district": "Xã Phúc Thịnh" }, "geometry": { "type": "Point", "coordinates": [ 105.8091434, 21.1798649 ] } },
{ "type": "Feature", "properties": { "id": 11539698733, "name": "Thôn Thượng Phúc xã Bắc Hồng", "index_right": 36, "district": "Xã Phúc Thịnh" }, "geometry": { "type": "Point", "coordinates": [ 105.8025234, 21.1680532 ] } },
{ "type": "Feature", "properties": { "id": 11539698734, "name": "Số 97 thôn Tằng My", "index_right": 36, "district": "Xã Phúc Thịnh" }, "geometry": { "type": "Point", "coordinates": [ 105.7944206, 21.1673212 ] } },
{ "type": "Feature", "properties": { "id": 11539698735, "name": "Số 69 Thôn Vệ xã Nam Hồng", "index_right": 36, "district": "Xã Phúc Thịnh" }, "geometry": { "type": "Point", "coordinates": [ 105.788111, 21.1684244 ] } },
{ "type": "Feature", "properties": { "id": 11539698736, "name": "Nghĩa trang Liệt Sỹ Nam Hồng", "index_right": 36, "district": "Xã Phúc Thịnh" }, "geometry": { "type": "Point", "coordinates": [ 105.7845814, 21.1664951 ] } },
{ "type": "Feature", "properties": { "id": 11539698737, "name": "Đình Viên Nội", "index_right": 36, "district": "Xã Phúc Thịnh" }, "geometry": { "type": "Point", "coordinates": [ 105.8137077, 21.1392675 ] } },
{ "type": "Feature", "properties": { "id": 11539698738, "name": "Xóm Trại - Thôn Viên Nội", "index_right": 36, "district": "Xã Phúc Thịnh" }, "geometry": { "type": "Point", "coordinates": [ 105.8147473, 21.1360338 ] } },
{ "type": "Feature", "properties": { "id": 11553654370, "name": "Cách 50m ngõ 207 đường Bắc Hồng", "index_right": 36, "district": "Xã Phúc Thịnh" }, "geometry": { "type": "Point", "coordinates": [ 105.8069744, 21.1852972 ] } },
{ "type": "Feature", "properties": { "id": 11553654371, "name": "Cách 50m đường tàu ngã 3 Bắc Hồng - Thượng Phúc", "index_right": 36, "district": "Xã Phúc Thịnh" }, "geometry": { "type": "Point", "coordinates": [ 105.8065373, 21.1707744 ] } },
{ "type": "Feature", "properties": { "id": 11553654372, "name": "Đối diện số 9 Mỹ Nội", "index_right": 36, "district": "Xã Phúc Thịnh" }, "geometry": { "type": "Point", "coordinates": [ 105.8121308, 21.1665769 ] } },
{ "type": "Feature", "properties": { "id": 11553654373, "name": "Ngõ 87 đường Vân Nội", "index_right": 36, "district": "Xã Phúc Thịnh" }, "geometry": { "type": "Point", "coordinates": [ 105.8163794, 21.1630782 ] } },
{ "type": "Feature", "properties": { "id": 11553654374, "name": "224 Xóm Bảo", "index_right": 36, "district": "Xã Phúc Thịnh" }, "geometry": { "type": "Point", "coordinates": [ 105.8160006, 21.1594464 ] } },
{ "type": "Feature", "properties": { "id": 11553654375, "name": "134 Vân Trì", "index_right": 36, "district": "Xã Phúc Thịnh" }, "geometry": { "type": "Point", "coordinates": [ 105.8150953, 21.1547647 ] } },
{ "type": "Feature", "properties": { "id": 11553654376, "name": "Ngõ 82 đường Vân Trì", "index_right": 36, "district": "Xã Phúc Thịnh" }, "geometry": { "type": "Point", "coordinates": [ 105.8153431, 21.14943 ] } },
{ "type": "Feature", "properties": { "id": 11553654391, "name": "109 đường Vân Trì", "index_right": 36, "district": "Xã Phúc Thịnh" }, "geometry": { "type": "Point", "coordinates": [ 105.8153668, 21.149261 ] } },
{ "type": "Feature", "properties": { "id": 11553654392, "name": "174 Vân Trì", "index_right": 36, "district": "Xã Phúc Thịnh" }, "geometry": { "type": "Point", "coordinates": [ 105.8151442, 21.1544004 ] } },
{ "type": "Feature", "properties": { "id": 11553654393, "name": "87 Xóm Bảo", "index_right": 36, "district": "Xã Phúc Thịnh" }, "geometry": { "type": "Point", "coordinates": [ 105.8159611, 21.1589407 ] } },
{ "type": "Feature", "properties": { "id": 11553654394, "name": "Ngõ 87 đường Vân Nội", "index_right": 36, "district": "Xã Phúc Thịnh" }, "geometry": { "type": "Point", "coordinates": [ 105.8165038, 21.1631915 ] } },
{ "type": "Feature", "properties": { "id": 11553654395, "name": "9 Mỹ Nội", "index_right": 36, "district": "Xã Phúc Thịnh" }, "geometry": { "type": "Point", "coordinates": [ 105.8122839, 21.1666366 ] } },
{ "type": "Feature", "properties": { "id": 11553654396, "name": "Cách 50m đường tàu ngã 3 Bắc Hồng - Thượng Phúc", "index_right": 36, "district": "Xã Phúc Thịnh" }, "geometry": { "type": "Point", "coordinates": [ 105.8066193, 21.1707734 ] } },
{ "type": "Feature", "properties": { "id": 11553654397, "name": "Cách 50m ngõ 207 đường Bắc Hồng", "index_right": 36, "district": "Xã Phúc Thịnh" }, "geometry": { "type": "Point", "coordinates": [ 105.807046, 21.1852112 ] } }
]
}
