{
"type": "FeatureCollection",
"name": "Xã_Bình_Minh",
"crs": { "type": "name", "properties": { "name": "urn:ogc:def:crs:OGC:1.3:CRS84" } },
"features": [
{ "type": "Feature", "properties": { "id": 9007633053, "name": "Cụm Công Nghiệp Thanh Oai", "index_right": 176, "district": "Xã Bình Minh" }, "geometry": { "type": "Point", "coordinates": [ 105.7578667, 20.928686 ] } },
{ "type": "Feature", "properties": { "id": 9007633054, "name": "Đối diện Cụm Công Nghiệp Thanh Oai", "index_right": 176, "district": "Xã Bình Minh" }, "geometry": { "type": "Point", "coordinates": [ 105.7579911, 20.9294797 ] } },
{ "type": "Feature", "properties": { "id": 9007633055, "name": "Cụm Công Nghiệp Thanh Oai - Cổng Phụ", "index_right": 176, "district": "Xã Bình Minh" }, "geometry": { "type": "Point", "coordinates": [ 105.7583399, 20.9241757 ] } },
{ "type": "Feature", "properties": { "id": 9007633056, "name": "19 Thạch Bích", "index_right": 176, "district": "Xã Bình Minh" }, "geometry": { "type": "Point", "coordinates": [ 105.7585523, 20.9237023 ] } },
{ "type": "Feature", "properties": { "id": 9007633057, "name": "306-308 Thạch Bích", "index_right": 176, "district": "Xã Bình Minh" }, "geometry": { "type": "Point", "coordinates": [ 105.7594103, 20.9162281 ] } },
{ "type": "Feature", "properties": { "id": 9007633058, "name": "311 Thạch Bích", "index_right": 176, "district": "Xã Bình Minh" }, "geometry": { "type": "Point", "coordinates": [ 105.7597423, 20.9153499 ] } },
{ "type": "Feature", "properties": { "id": 9007633059, "name": "570-572 Thạch Bích", "index_right": 176, "district": "Xã Bình Minh" }, "geometry": { "type": "Point", "coordinates": [ 105.760599, 20.9100475 ] } },
{ "type": "Feature", "properties": { "id": 9007633060, "name": "525 Thanh Lương", "index_right": 176, "district": "Xã Bình Minh" }, "geometry": { "type": "Point", "coordinates": [ 105.7606838, 20.910211 ] } },
{ "type": "Feature", "properties": { "id": 9007633061, "name": "Trường Cao đẳng nghề Simco Sông Đà", "index_right": 176, "district": "Xã Bình Minh" }, "geometry": { "type": "Point", "coordinates": [ 105.7623322, 20.9018646 ] } },
{ "type": "Feature", "properties": { "id": 9007633062, "name": "Đối diện CĐ nghề Simco", "index_right": 176, "district": "Xã Bình Minh" }, "geometry": { "type": "Point", "coordinates": [ 105.7622775, 20.9031459 ] } },
{ "type": "Feature", "properties": { "id": 9007633063, "name": "Xóm Chợ, Bình Đà", "index_right": 176, "district": "Xã Bình Minh" }, "geometry": { "type": "Point", "coordinates": [ 105.7640191, 20.8944164 ] } },
{ "type": "Feature", "properties": { "id": 9007633064, "name": "Đền Nội Bình Đà", "index_right": 176, "district": "Xã Bình Minh" }, "geometry": { "type": "Point", "coordinates": [ 105.7640737, 20.8949693 ] } },
{ "type": "Feature", "properties": { "id": 9007633065, "name": "Qua ngã 3 tỉnh lộ 427", "index_right": 176, "district": "Xã Bình Minh" }, "geometry": { "type": "Point", "coordinates": [ 105.7621981, 20.88714 ] } },
{ "type": "Feature", "properties": { "id": 9007633066, "name": "Nhà văn hóa thôn Chợ, ngã 3 Bình Đà", "index_right": 176, "district": "Xã Bình Minh" }, "geometry": { "type": "Point", "coordinates": [ 105.7632325, 20.8892936 ] } },
{ "type": "Feature", "properties": { "id": 9007633067, "name": "Đối diện Viglacega Từ Liêm", "index_right": 176, "district": "Xã Bình Minh" }, "geometry": { "type": "Point", "coordinates": [ 105.7594443, 20.8783121 ] } },
{ "type": "Feature", "properties": { "id": 9007633068, "name": "Viglacera Từ Liêm", "index_right": 176, "district": "Xã Bình Minh" }, "geometry": { "type": "Point", "coordinates": [ 105.7597862, 20.8788557 ] } },
{ "type": "Feature", "properties": { "id": 9019312618, "name": "Đường vào sân Golf Thanh Hà", "index_right": 176, "district": "Xã Bình Minh" }, "geometry": { "type": "Point", "coordinates": [ 105.7839037, 20.9293507 ] } },
{ "type": "Feature", "properties": { "id": 9019312620, "name": "Trường mầm non Newton", "index_right": 176, "district": "Xã Bình Minh" }, "geometry": { "type": "Point", "coordinates": [ 105.7840715, 20.9253284 ] } },
{ "type": "Feature", "properties": { "id": 9019312621, "name": "Qua 50m cầu Khê Tang", "index_right": 176, "district": "Xã Bình Minh" }, "geometry": { "type": "Point", "coordinates": [ 105.7839171, 20.9190605 ] } },
{ "type": "Feature", "properties": { "id": 9019312622, "name": "Trước 100m cầu Khê Tang", "index_right": 176, "district": "Xã Bình Minh" }, "geometry": { "type": "Point", "coordinates": [ 105.7842906, 20.9190504 ] } },
{ "type": "Feature", "properties": { "id": 9019312623, "name": "Lối vào làng văn hoá Thôn Hạ", "index_right": 176, "district": "Xã Bình Minh" }, "geometry": { "type": "Point", "coordinates": [ 105.7857625, 20.9099842 ] } },
{ "type": "Feature", "properties": { "id": 9019312624, "name": "Đối diện làng văn hóa Thôn Hạ", "index_right": 176, "district": "Xã Bình Minh" }, "geometry": { "type": "Point", "coordinates": [ 105.786072, 20.9102733 ] } },
{ "type": "Feature", "properties": { "id": 9019312639, "name": "Đối diện Trường Trung học phổ thông Thanh Oai B", "index_right": 176, "district": "Xã Bình Minh" }, "geometry": { "type": "Point", "coordinates": [ 105.7728025, 20.8875368 ] } },
{ "type": "Feature", "properties": { "id": 9019312640, "name": "Đối diện Bưu điện Bình Đà", "index_right": 176, "district": "Xã Bình Minh" }, "geometry": { "type": "Point", "coordinates": [ 105.7652688, 20.8882448 ] } },
{ "type": "Feature", "properties": { "id": 9019312641, "name": "Bưu điện Bình Đà", "index_right": 176, "district": "Xã Bình Minh" }, "geometry": { "type": "Point", "coordinates": [ 105.7648075, 20.8880663 ] } },
{ "type": "Feature", "properties": { "id": 11522308671, "name": "Cụm Công nghiệp Thanh Oai - Tuyến 33", "index_right": 176, "district": "Xã Bình Minh" }, "geometry": { "type": "Point", "coordinates": [ 105.7524595, 20.9268361 ] } },
{ "type": "Feature", "properties": { "id": 11522308673, "name": "Công ty CP Coma - đường nội bộ cụm công nghiệp Thanh Oai", "index_right": 176, "district": "Xã Bình Minh" }, "geometry": { "type": "Point", "coordinates": [ 105.7566358, 20.9283306 ] } },
{ "type": "Feature", "properties": { "id": 11523863234, "name": "Đối diện Công ty CP Coma - đường nội bộ cụm công nghiệp Thanh Oai", "index_right": 176, "district": "Xã Bình Minh" }, "geometry": { "type": "Point", "coordinates": [ 105.7554808, 20.9283537 ] } },
{ "type": "Feature", "properties": { "id": 11536511321, "name": "Qua sàn bất động sản Thanh Hà Mường Thanh", "index_right": 176, "district": "Xã Bình Minh" }, "geometry": { "type": "Point", "coordinates": [ 105.7879719, 20.9285354 ] } },
{ "type": "Feature", "properties": { "id": 11536511322, "name": "Khu đô thị Thanh Hà - Tuyến 85", "index_right": 176, "district": "Xã Bình Minh" }, "geometry": { "type": "Point", "coordinates": [ 105.7894839, 20.9285994 ] } },
{ "type": "Feature", "properties": { "id": 11536511323, "name": "Đối diện sàn bất động sản Thanh Hà Mường Thanh", "index_right": 176, "district": "Xã Bình Minh" }, "geometry": { "type": "Point", "coordinates": [ 105.7878023, 20.9287138 ] } },
{ "type": "Feature", "properties": { "id": 11542412973, "name": "Trước ngã 3 Bình Đà", "index_right": 176, "district": "Xã Bình Minh" }, "geometry": { "type": "Point", "coordinates": [ 105.7626208, 20.8877383 ] } },
{ "type": "Feature", "properties": { "id": 11549233075, "name": "Qua lối vào tổ dân phố số 17 khoảng 30m", "index_right": 176, "district": "Xã Bình Minh" }, "geometry": { "type": "Point", "coordinates": [ 105.7390347, 20.9131781 ] } },
{ "type": "Feature", "properties": { "id": 11549233076, "name": "Trường tiểu học Cao Viên II", "index_right": 176, "district": "Xã Bình Minh" }, "geometry": { "type": "Point", "coordinates": [ 105.7330617, 20.9038379 ] } },
{ "type": "Feature", "properties": { "id": 11549233078, "name": "Trước lối vão xóm Trung Việt, thôn Bãi 30m", "index_right": 176, "district": "Xã Bình Minh" }, "geometry": { "type": "Point", "coordinates": [ 105.7333304, 20.8978451 ] } },
{ "type": "Feature", "properties": { "id": 11549233079, "name": "Qua nhà thờ giáo xứ Cao Mật Bến 100m", "index_right": 176, "district": "Xã Bình Minh" }, "geometry": { "type": "Point", "coordinates": [ 105.7407976, 20.8881614 ] } },
{ "type": "Feature", "properties": { "id": 11549233106, "name": "Nhà văn hóa thôn Thanh Giang", "index_right": 176, "district": "Xã Bình Minh" }, "geometry": { "type": "Point", "coordinates": [ 105.7409528, 20.8878753 ] } },
{ "type": "Feature", "properties": { "id": 11549233114, "name": "Đối diện lối vào xóm Trung Việt, thôn Bãi 30m", "index_right": 176, "district": "Xã Bình Minh" }, "geometry": { "type": "Point", "coordinates": [ 105.7334567, 20.8974695 ] } },
{ "type": "Feature", "properties": { "id": 11549233115, "name": "Đối diện Trường tiểu học Cao Viên II, xóm Thượng Phúc", "index_right": 176, "district": "Xã Bình Minh" }, "geometry": { "type": "Point", "coordinates": [ 105.7330665, 20.9035054 ] } },
{ "type": "Feature", "properties": { "id": 11549233116, "name": "Trước lối vào tổ dân phố số 17 khoảng 50m", "index_right": 176, "district": "Xã Bình Minh" }, "geometry": { "type": "Point", "coordinates": [ 105.7389959, 20.9129937 ] } },
{ "type": "Feature", "properties": { "id": 12083496439, "name": "Trường Trung học cơ sở Newton", "index_right": 176, "district": "Xã Bình Minh" }, "geometry": { "type": "Point", "coordinates": [ 105.7836591, 20.9251424 ] } },
{ "type": "Feature", "properties": { "id": 12083496440, "name": "Tòa HH02E - KĐT Thanh Hà", "index_right": 176, "district": "Xã Bình Minh" }, "geometry": { "type": "Point", "coordinates": [ 105.7837524, 20.935094 ] } },
{ "type": "Feature", "properties": { "id": 12579155904, "name": "Trường Trung học cơ sở Bình Minh", "index_right": 176, "district": "Xã Bình Minh" }, "geometry": { "type": "Point", "coordinates": [ 105.7704551, 20.8879772 ] } },
{ "type": "Feature", "properties": { "id": 12579155905, "name": "Đối diện Trường Trung học cơ sở Bình Minh", "index_right": 176, "district": "Xã Bình Minh" }, "geometry": { "type": "Point", "coordinates": [ 105.7697708, 20.8879418 ] } }
]
}
