{
"type": "FeatureCollection",
"name": "Xã_Hòa_Phú",
"crs": { "type": "name", "properties": { "name": "urn:ogc:def:crs:OGC:1.3:CRS84" } },
"features": [
{ "type": "Feature", "properties": { "id": 9323130105, "name": "Qua 30m cổng làng xóm Trung Thượng", "index_right": 170, "district": "Xã Hòa Phú" }, "geometry": { "type": "Point", "coordinates": [ 105.7037145, 20.8445702 ] } },
{ "type": "Feature", "properties": { "id": 9323130106, "name": "Qua 30m đối diện cổng làng xóm Trung Thượng", "index_right": 170, "district": "Xã Hòa Phú" }, "geometry": { "type": "Point", "coordinates": [ 105.7036459, 20.8451276 ] } },
{ "type": "Feature", "properties": { "id": 9323130107, "name": "Phố Cầu, làng Hạ Dục", "index_right": 170, "district": "Xã Hòa Phú" }, "geometry": { "type": "Point", "coordinates": [ 105.7052939, 20.8423398 ] } },
{ "type": "Feature", "properties": { "id": 9323130108, "name": "Phố Cầu, làng Hạ Dục", "index_right": 170, "district": "Xã Hòa Phú" }, "geometry": { "type": "Point", "coordinates": [ 105.7056664, 20.8418103 ] } },
{ "type": "Feature", "properties": { "id": 9323130109, "name": "Qua 15m Cổng làng Ngõ Giữa", "index_right": 170, "district": "Xã Hòa Phú" }, "geometry": { "type": "Point", "coordinates": [ 105.7078748, 20.8378767 ] } },
{ "type": "Feature", "properties": { "id": 9323130110, "name": "Qua 20m đối diện Cổng làng Ngõ Giữa", "index_right": 170, "district": "Xã Hòa Phú" }, "geometry": { "type": "Point", "coordinates": [ 105.7075686, 20.8386207 ] } },
{ "type": "Feature", "properties": { "id": 9323130111, "name": "Trước UBND xã Đồng Phú", "index_right": 170, "district": "Xã Hòa Phú" }, "geometry": { "type": "Point", "coordinates": [ 105.7100094, 20.8326853 ] } },
{ "type": "Feature", "properties": { "id": 9323130112, "name": "Nghĩa trang liệt sỹ xã Đồng Phú", "index_right": 170, "district": "Xã Hòa Phú" }, "geometry": { "type": "Point", "coordinates": [ 105.7103053, 20.833198 ] } },
{ "type": "Feature", "properties": { "id": 9323130113, "name": "Qua đối diện đình Hòa Xá 100m", "index_right": 170, "district": "Xã Hòa Phú" }, "geometry": { "type": "Point", "coordinates": [ 105.7075702, 20.8212209 ] } },
{ "type": "Feature", "properties": { "id": 9323130114, "name": "Trước 30m đình Hòa Xá", "index_right": 170, "district": "Xã Hòa Phú" }, "geometry": { "type": "Point", "coordinates": [ 105.7077333, 20.8215779 ] } },
{ "type": "Feature", "properties": { "id": 9323130115, "name": "Đối diện Ngõ 3, xóm Đoàn Kết", "index_right": 170, "district": "Xã Hòa Phú" }, "geometry": { "type": "Point", "coordinates": [ 105.7105189, 20.8133573 ] } },
{ "type": "Feature", "properties": { "id": 9323130116, "name": "Ngõ 4, xóm Đoàn Kết", "index_right": 170, "district": "Xã Hòa Phú" }, "geometry": { "type": "Point", "coordinates": [ 105.7104734, 20.8141969 ] } },
{ "type": "Feature", "properties": { "id": 9323131717, "name": "Qua đối diện Nhà văn hóa Lưu Xá 100m", "index_right": 170, "district": "Xã Hòa Phú" }, "geometry": { "type": "Point", "coordinates": [ 105.7103286, 20.8112745 ] } },
{ "type": "Feature", "properties": { "id": 9323131718, "name": "Nhà văn hóa Lưu Xá", "index_right": 170, "district": "Xã Hòa Phú" }, "geometry": { "type": "Point", "coordinates": [ 105.7103832, 20.8117482 ] } },
{ "type": "Feature", "properties": { "id": 11549233139, "name": "Chùa Bảo Lâm", "index_right": 170, "district": "Xã Hòa Phú" }, "geometry": { "type": "Point", "coordinates": [ 105.7320848, 20.845086 ] } },
{ "type": "Feature", "properties": { "id": 11549233140, "name": "Ngõ Tân Lập", "index_right": 170, "district": "Xã Hòa Phú" }, "geometry": { "type": "Point", "coordinates": [ 105.7279588, 20.8438878 ] } },
{ "type": "Feature", "properties": { "id": 11549233142, "name": "145 Thôn An Mỹ", "index_right": 170, "district": "Xã Hòa Phú" }, "geometry": { "type": "Point", "coordinates": [ 105.7281423, 20.8413123 ] } },
{ "type": "Feature", "properties": { "id": 11549233143, "name": "Chùa Thượng Khách", "index_right": 170, "district": "Xã Hòa Phú" }, "geometry": { "type": "Point", "coordinates": [ 105.7357129, 20.8373361 ] } },
{ "type": "Feature", "properties": { "id": 11549233144, "name": "Xóm Tân Hợp, Võ Lao", "index_right": 170, "district": "Xã Hòa Phú" }, "geometry": { "type": "Point", "coordinates": [ 105.7425779, 20.8339321 ] } },
{ "type": "Feature", "properties": { "id": 11549233145, "name": "Trường Mầm non Văn Võ", "index_right": 170, "district": "Xã Hòa Phú" }, "geometry": { "type": "Point", "coordinates": [ 105.7472342, 20.8335247 ] } },
{ "type": "Feature", "properties": { "id": 11549233146, "name": "Nhựa Tiền Phong Tiến Lan - Đường Cầu Văn Phương", "index_right": 170, "district": "Xã Hòa Phú" }, "geometry": { "type": "Point", "coordinates": [ 105.7541283, 20.8322222 ] } },
{ "type": "Feature", "properties": { "id": 11549233147, "name": "Công ty Nhựa Tiền Phong Tiến Lan-Văn Võ", "index_right": 170, "district": "Xã Hòa Phú" }, "geometry": { "type": "Point", "coordinates": [ 105.75418, 20.832284 ] } },
{ "type": "Feature", "properties": { "id": 11549233148, "name": "Đối diện Trường Mầm non Văn Võ", "index_right": 170, "district": "Xã Hòa Phú" }, "geometry": { "type": "Point", "coordinates": [ 105.747217, 20.8335971 ] } },
{ "type": "Feature", "properties": { "id": 11549233149, "name": "Gần Xóm Tân Hợp, Võ Lao", "index_right": 170, "district": "Xã Hòa Phú" }, "geometry": { "type": "Point", "coordinates": [ 105.742614, 20.8339996 ] } },
{ "type": "Feature", "properties": { "id": 11549233150, "name": "Qua Chùa Thượng Khách", "index_right": 170, "district": "Xã Hòa Phú" }, "geometry": { "type": "Point", "coordinates": [ 105.7357414, 20.837407 ] } },
{ "type": "Feature", "properties": { "id": 11549233151, "name": "Đối diện 145 Thôn An Mỹ", "index_right": 170, "district": "Xã Hòa Phú" }, "geometry": { "type": "Point", "coordinates": [ 105.7281987, 20.8413231 ] } },
{ "type": "Feature", "properties": { "id": 11549233152, "name": "Gần Ngõ Tân Lập", "index_right": 170, "district": "Xã Hòa Phú" }, "geometry": { "type": "Point", "coordinates": [ 105.7279807, 20.8438276 ] } },
{ "type": "Feature", "properties": { "id": 11549233153, "name": "Qua Chùa Bảo Lâm", "index_right": 170, "district": "Xã Hòa Phú" }, "geometry": { "type": "Point", "coordinates": [ 105.7320489, 20.8450278 ] } }
]
}
