{
"type": "FeatureCollection",
"name": "Xã_Mê_Linh",
"crs": { "type": "name", "properties": { "name": "urn:ogc:def:crs:OGC:1.3:CRS84" } },
"features": [
{ "type": "Feature", "properties": { "id": 9006708304, "name": "Trạm Xe Bus Công Ty Hamatra", "index_right": 66, "district": "Xã Mê Linh" }, "geometry": { "type": "Point", "coordinates": [ 105.7699093, 21.1575472 ] } },
{ "type": "Feature", "properties": { "id": 9006708305, "name": "Đối Diện Công Ty Hamatra", "index_right": 66, "district": "Xã Mê Linh" }, "geometry": { "type": "Point", "coordinates": [ 105.7706187, 21.1572902 ] } },
{ "type": "Feature", "properties": { "id": 9006708306, "name": "Trạm Xe Bus Công Ty Cổ Phần Tam Sơn", "index_right": 66, "district": "Xã Mê Linh" }, "geometry": { "type": "Point", "coordinates": [ 105.7672284, 21.157858 ] } },
{ "type": "Feature", "properties": { "id": 9006708307, "name": "Trước đối diện Công ty Cổ phần Tam Sơn 30m", "index_right": 66, "district": "Xã Mê Linh" }, "geometry": { "type": "Point", "coordinates": [ 105.7666313, 21.1577985 ] } },
{ "type": "Feature", "properties": { "id": 9006708308, "name": "Đối diện Công Ty TNHH XD CN 305", "index_right": 66, "district": "Xã Mê Linh" }, "geometry": { "type": "Point", "coordinates": [ 105.7619368, 21.1567334 ] } },
{ "type": "Feature", "properties": { "id": 9006708309, "name": "Công Ty TNHH Xây Dựng 305", "index_right": 66, "district": "Xã Mê Linh" }, "geometry": { "type": "Point", "coordinates": [ 105.7618003, 21.1561419 ] } },
{ "type": "Feature", "properties": { "id": 9006708310, "name": "UBND xã Tiền Phong", "index_right": 66, "district": "Xã Mê Linh" }, "geometry": { "type": "Point", "coordinates": [ 105.7578149, 21.1512252 ] } },
{ "type": "Feature", "properties": { "id": 9006708311, "name": "Hội Trường Đa Năng Xã Tiền Phong", "index_right": 66, "district": "Xã Mê Linh" }, "geometry": { "type": "Point", "coordinates": [ 105.7570684, 21.1507696 ] } },
{ "type": "Feature", "properties": { "id": 9006708312, "name": "Đối diện Chùa Trung Hậu", "index_right": 66, "district": "Xã Mê Linh" }, "geometry": { "type": "Point", "coordinates": [ 105.7510937, 21.1548993 ] } },
{ "type": "Feature", "properties": { "id": 9006708313, "name": "Chùa Trung Hậu", "index_right": 66, "district": "Xã Mê Linh" }, "geometry": { "type": "Point", "coordinates": [ 105.7511478, 21.154408 ] } },
{ "type": "Feature", "properties": { "id": 9006708314, "name": "Qua cổng trường Trung học phổ thông Tiền Phong 70m", "index_right": 66, "district": "Xã Mê Linh" }, "geometry": { "type": "Point", "coordinates": [ 105.7489379, 21.158413 ] } },
{ "type": "Feature", "properties": { "id": 9006708315, "name": "Cổng Trường Trung học phổ thông Tiền Phong", "index_right": 66, "district": "Xã Mê Linh" }, "geometry": { "type": "Point", "coordinates": [ 105.7492261, 21.157632 ] } },
{ "type": "Feature", "properties": { "id": 9006708316, "name": "Đối diện Đền Hai Bà Trưng", "index_right": 66, "district": "Xã Mê Linh" }, "geometry": { "type": "Point", "coordinates": [ 105.7461025, 21.1627416 ] } },
{ "type": "Feature", "properties": { "id": 9006720517, "name": "Đền Thờ Hai Bà Trưng", "index_right": 66, "district": "Xã Mê Linh" }, "geometry": { "type": "Point", "coordinates": [ 105.7454774, 21.1632283 ] } },
{ "type": "Feature", "properties": { "id": 9006720518, "name": "Đối diện Công ty Sơn Alex", "index_right": 66, "district": "Xã Mê Linh" }, "geometry": { "type": "Point", "coordinates": [ 105.742154, 21.1675306 ] } },
{ "type": "Feature", "properties": { "id": 9006720519, "name": "Công Ty Sơn Alex", "index_right": 66, "district": "Xã Mê Linh" }, "geometry": { "type": "Point", "coordinates": [ 105.7417534, 21.1677023 ] } },
{ "type": "Feature", "properties": { "id": 9009781191, "name": "Trước cửa hàng cơ khí Thưởng Thành", "index_right": 66, "district": "Xã Mê Linh" }, "geometry": { "type": "Point", "coordinates": [ 105.7442846, 21.137119 ] } },
{ "type": "Feature", "properties": { "id": 9009781192, "name": "Trước 30m đối diện cửa hàng cơ khi Thường Thành", "index_right": 66, "district": "Xã Mê Linh" }, "geometry": { "type": "Point", "coordinates": [ 105.7441693, 21.1373511 ] } },
{ "type": "Feature", "properties": { "id": 9009781193, "name": "Đối diện Nghĩa trang liệt sỹ xã Tráng Việt", "index_right": 66, "district": "Xã Mê Linh" }, "geometry": { "type": "Point", "coordinates": [ 105.7446374, 21.1417549 ] } },
{ "type": "Feature", "properties": { "id": 9009781194, "name": "Qua 50m đối diện Nghĩa trang liệt sỹ xã Tráng Việt", "index_right": 66, "district": "Xã Mê Linh" }, "geometry": { "type": "Point", "coordinates": [ 105.7444829, 21.1415788 ] } },
{ "type": "Feature", "properties": { "id": 9009781195, "name": "UBND xã Tráng Việt", "index_right": 66, "district": "Xã Mê Linh" }, "geometry": { "type": "Point", "coordinates": [ 105.7414677, 21.1467697 ] } },
{ "type": "Feature", "properties": { "id": 9009781196, "name": "Qua 30m đối diện UBND xã Tráng Việt", "index_right": 66, "district": "Xã Mê Linh" }, "geometry": { "type": "Point", "coordinates": [ 105.7414768, 21.1464838 ] } },
{ "type": "Feature", "properties": { "id": 9009795220, "name": "Qua 30m đối diện đường vào làng Đông Cao", "index_right": 66, "district": "Xã Mê Linh" }, "geometry": { "type": "Point", "coordinates": [ 105.7370675, 21.1506033 ] } },
{ "type": "Feature", "properties": { "id": 9009795221, "name": "Trước 60m đường vào làng Đông Cao", "index_right": 66, "district": "Xã Mê Linh" }, "geometry": { "type": "Point", "coordinates": [ 105.736684, 21.1507514 ] } },
{ "type": "Feature", "properties": { "id": 9009795222, "name": "Đền Hai Bà Trưng", "index_right": 66, "district": "Xã Mê Linh" }, "geometry": { "type": "Point", "coordinates": [ 105.7310593, 21.1548515 ] } },
{ "type": "Feature", "properties": { "id": 9009795223, "name": "Đối diện đền Hai Bà Trưng", "index_right": 66, "district": "Xã Mê Linh" }, "geometry": { "type": "Point", "coordinates": [ 105.7311564, 21.1546449 ] } },
{ "type": "Feature", "properties": { "id": 9009795224, "name": "Qua 60m lối vào thôn Thường Lệ", "index_right": 66, "district": "Xã Mê Linh" }, "geometry": { "type": "Point", "coordinates": [ 105.727588, 21.155962 ] } },
{ "type": "Feature", "properties": { "id": 9009795225, "name": "Trước 30m đối diện lối vào thôn Thường Lệ", "index_right": 66, "district": "Xã Mê Linh" }, "geometry": { "type": "Point", "coordinates": [ 105.7278803, 21.1558341 ] } },
{ "type": "Feature", "properties": { "id": 9009795226, "name": "Đối diện cửa hàng sơn Trường Kỳ", "index_right": 66, "district": "Xã Mê Linh" }, "geometry": { "type": "Point", "coordinates": [ 105.7221607, 21.155799 ] } },
{ "type": "Feature", "properties": { "id": 9009795227, "name": "Qua 30m cửa hàng sơn Trường Kỳ", "index_right": 66, "district": "Xã Mê Linh" }, "geometry": { "type": "Point", "coordinates": [ 105.7223701, 21.1556603 ] } },
{ "type": "Feature", "properties": { "id": 9009795228, "name": "Nhà văn hóa thôn Văn Quán (cạnh Điếm canh đê)", "index_right": 66, "district": "Xã Mê Linh" }, "geometry": { "type": "Point", "coordinates": [ 105.7151261, 21.1596677 ] } },
{ "type": "Feature", "properties": { "id": 9009795229, "name": "Nhà văn hóa thôn Văn Quán (qua đối diện điếm canh đê 30m)", "index_right": 66, "district": "Xã Mê Linh" }, "geometry": { "type": "Point", "coordinates": [ 105.715054, 21.1595869 ] } },
{ "type": "Feature", "properties": { "id": 9009795230, "name": "Qua 20m Bia di tích lịch sử xã Văn Khê", "index_right": 66, "district": "Xã Mê Linh" }, "geometry": { "type": "Point", "coordinates": [ 105.712044, 21.1609189 ] } },
{ "type": "Feature", "properties": { "id": 9009795231, "name": "Đối diện trường Trung học cơ sở Văn Khê A", "index_right": 66, "district": "Xã Mê Linh" }, "geometry": { "type": "Point", "coordinates": [ 105.7117251, 21.1608951 ] } },
{ "type": "Feature", "properties": { "id": 9009795232, "name": "Trước cửa hàng Thép Việt Đức Sơn Đông", "index_right": 66, "district": "Xã Mê Linh" }, "geometry": { "type": "Point", "coordinates": [ 105.707825, 21.1625797 ] } },
{ "type": "Feature", "properties": { "id": 9009795233, "name": "Quầy thuốc Bảy Hiền", "index_right": 66, "district": "Xã Mê Linh" }, "geometry": { "type": "Point", "coordinates": [ 105.7079408, 21.1624116 ] } },
{ "type": "Feature", "properties": { "id": 9009795235, "name": "Trường mầm non Văn Khê", "index_right": 66, "district": "Xã Mê Linh" }, "geometry": { "type": "Point", "coordinates": [ 105.7018085, 21.1646441 ] } },
{ "type": "Feature", "properties": { "id": 9009795236, "name": "Qua 30m đối diện trường mầm non Văn Khê", "index_right": 66, "district": "Xã Mê Linh" }, "geometry": { "type": "Point", "coordinates": [ 105.7010044, 21.1647602 ] } },
{ "type": "Feature", "properties": { "id": 11533262496, "name": "Đối diện Nhà máy Bia Hà Nội HABECO", "index_right": 66, "district": "Xã Mê Linh" }, "geometry": { "type": "Point", "coordinates": [ 105.7596275, 21.1350437 ] } },
{ "type": "Feature", "properties": { "id": 11533262497, "name": "Đối diện cổng làng Nam thôn Yên Nhân", "index_right": 66, "district": "Xã Mê Linh" }, "geometry": { "type": "Point", "coordinates": [ 105.7594562, 21.1451607 ] } },
{ "type": "Feature", "properties": { "id": 11533262498, "name": "Ngã 3 Hồ 3 góc (gần UBND xã Tiền Phong)", "index_right": 66, "district": "Xã Mê Linh" }, "geometry": { "type": "Point", "coordinates": [ 105.7574124, 21.15018 ] } },
{ "type": "Feature", "properties": { "id": 11533397301, "name": "Qua Ngã 3 Hồ 3 góc (gần UBND xã Tiền Phong)", "index_right": 66, "district": "Xã Mê Linh" }, "geometry": { "type": "Point", "coordinates": [ 105.7568913, 21.1503927 ] } },
{ "type": "Feature", "properties": { "id": 11533397302, "name": "Cổng làng Nam thôn Yên Nhân", "index_right": 66, "district": "Xã Mê Linh" }, "geometry": { "type": "Point", "coordinates": [ 105.7592559, 21.1456208 ] } },
{ "type": "Feature", "properties": { "id": 11533397303, "name": "Nhà máy bia Hà Nội HABECO", "index_right": 66, "district": "Xã Mê Linh" }, "geometry": { "type": "Point", "coordinates": [ 105.7594807, 21.1352655 ] } }
]
}
